~Version Information Block
VERS .                 2.00:  CWLS LOG ASCII STANDARD - VERSION 2.00
WRAP .                   NO:  One line per depth step
~Well Information Block
#MNEM.UNIT        Data Type   Information
#---------- ----------------  -----------
STRT .M              0.0000:  START DEPTH
STOP .M           2950.4637:  STOP DEPTH
STEP .M              0.1524:  STEP
NULL .              -999.25:  NULL VALUE
COMP .                     :  COMPANY
WELL .               GABO15:  WELL
FLD  .                     :  FIELD
LOC  .   6.656416, 5.257802:  LOCATION
CTRY .                     :  COUNTRY
STAT .                     :  STATE
CNTY .                     :  COUNTY
API  .                     :  API NUMBER
UWI  .                     :  UNIQUE WELL ID
SRVC .                     :  SERVICE COMPANY
DATE .                     :  LOG DATE
~Curve Information Block
#MNEM.UNIT         API CODE   Curve Description
#---------- ----------------  -----------------
DEPTH.M                    :  Reference Depth.
BS_COMP.INCHES             :  Bit Size
CALI_COMP.INCHES          0:  Caliper
DRHO_COMP.G/C3            0:  Density Correction
DT_COMP.US/F              0:  Compressional Sonic
ECART_COMP.                :  Neutron Density Seperation
GR_COMP.GAPI               :  Gamma Ray
NPHI_COMP.V/V             0:  Neutron Porosity
PEF_COMP.B/E              0:  Photo Electric Factor
RHOB_COMP.G/C3            0:  Bulk Density
RT_COMP.OHMM              0:  True or Deep Resistivity
RXO_COMP.OHMM             0:  Invaded Zone Resistivity
SP_COMP.MV                 :  Values changed using TEXT_EDIT
TVDSS_COMP.M               :  Reference TVD sub-sea log.
TVD_COMP.M                 :  Reference TVD log.
~Parameter Information Block
#MNEM.UNIT            Value   Description
#---------- ----------------  -----------
SET  .                  LCS:  
MFST .DEGF               80:  Mud filtrate sample temperature
RMFS .OHMM              1.9:  Resistivity of Filtrate sample
SP_SH.MV                  0:  Shale baseline value for SP
~Other Information Block
COMMENT:
$$MUX      Data from LAS tape
$$MUX      fevsbd 09/10/97 ng95603  ASCII:      GABO15.fod
$$MUX
$$MUX
#        DEPTH        BS_COMP      CALI_COMP      DRHO_COMP        DT_COMP     ECART_COMP        GR_COMP      NPHI_COMP       PEF_COMP      RHOB_COMP        RT_COMP       RXO_COMP        SP_COMP     TVDSS_COMP       TVD_COMP 
~A
# ...
     2674.7722         9.8750        11.0080       0.042002       106.8441         8.1387       124.1097       0.419964         3.5917         2.4070         1.8927         1.5051       -69.5001      2458.1290      2478.1290
     2674.9246         9.8750        11.0040       0.042990       106.7192         7.5800       124.4123       0.405019         3.4807         2.4040         1.8732         1.5642       -69.5354      2458.2645      2478.2645
     2675.0770         9.8750        11.0231       0.038976       106.5003         7.5877       120.3764       0.413053         3.3470         2.3910         1.8664         1.5507       -69.9378      2458.4000      2478.4000
     2675.2294         9.8750        11.0510       0.028971       106.3132         8.0200       114.3031       0.435014         3.3272         2.3760         1.8479         1.4766       -69.1071      2458.5354      2478.5354
     2675.3818         9.8750        11.0570       0.016988       106.2501         8.0190       110.2009       0.440976         3.4241         2.3660         1.8313         1.5546       -68.8131      2458.6709      2478.6709
     2675.5342         9.8750        11.0659       0.011998       106.2810         7.6055       109.3153       0.430971         3.4738         2.3620         1.8302         1.5221       -68.0532      2458.8063      2478.8063
     2675.6866         9.8750        11.0449       0.011002       106.3130         7.1060       110.2526       0.418983         3.3977         2.3570         1.8531         1.5460       -68.7677      2458.9418      2478.9418
     2675.8390         9.8750        10.9960       0.012000       106.3440         6.8133       111.3440       0.412000         3.2830         2.3540         1.8904         1.5793       -68.9912      2459.0773      2479.0773
     2675.9914         9.8750        10.9960       0.012005       106.4379         6.8134       111.3484       0.411995         3.2830         2.3540         1.9356         1.6889       -68.9015      2459.2127      2479.2127
     2676.1438         9.8750        10.9880       0.014005       106.8435         6.8481       113.1931       0.410019         3.3004         2.3590         1.9445         1.9297       -69.2236      2459.3482      2479.3482
     2676.2962         9.8750        11.0060       0.016000       107.3743         7.4355       115.2974       0.418043         3.4743         2.3750         1.9068         2.1370       -68.9369      2459.4837      2479.4837
     2676.4486         9.8750        11.0120       0.015998       107.5937         8.3341       115.4614       0.436022         3.6069         2.3900         1.8475         1.5843       -69.7764      2459.6191      2479.6191
     2676.6010         9.8750        11.0039       0.015002       107.8127         8.6525       112.3183       0.444986         3.5476         2.3910         1.8156         1.5056       -70.1072      2459.7546      2479.7546
     2676.7534         9.8750        10.9710       0.016000       108.0307         8.2925       108.2765       0.438988         3.3918         2.3830         1.8030         1.5181       -69.8221      2459.8900      2479.8900
     2676.9058         9.8750        10.9793       0.015990       108.1558         7.9668       106.4215       0.434012         3.3060         2.3750         1.7873         1.4875       -69.1030      2460.0255      2480.0255
     2677.0582         9.8750        11.0902       0.011993       108.1560         8.0141       106.2339       0.439029         3.3240         2.3690         1.7737         1.4984       -68.8081      2460.1610      2480.1610
     2677.2106         9.8750        11.1820       0.009002       108.0631         8.3344       106.1906       0.451036         3.3238         2.3650         1.7512         1.5022       -68.7412      2460.2964      2480.2964
     2677.3630         9.8750        11.1699       0.010012       108.2498         8.7942       107.2742       0.466019         3.2500         2.3630         1.7246         1.4433       -68.6426      2460.4319      2480.4319
     2677.5154         9.8750        11.1370       0.015005       108.3129         9.1389       110.6951       0.473962         3.2434         2.3670         1.7171         1.3952       -68.8663      2460.5673      2480.5673
     2677.6678         9.8750        11.1290       0.016993       108.1882         8.6843       113.6236       0.457935         3.4015         2.3710         1.6960         1.3980       -68.7851      2460.7028      2480.7028
     2677.8202         9.8750        11.1109       0.013993       107.9693         7.6859       113.0556       0.430988         3.6232         2.3660         1.6747         1.3747       -69.2413      2460.8383      2480.8383
     2677.9726         9.8750        11.0900       0.011000       107.3758         7.3815       109.9742       0.426046         3.7008         2.3590         1.6857         1.4269       -69.1600      2460.9737      2480.9737
     2678.1250         9.8750        11.0980       0.011000       107.0944         8.0146       105.8811       0.445024         3.6209         2.3590         1.7152         1.4042       -69.5636      2461.1092      2481.1092
     2678.2774         9.8750        11.1088       0.010998       107.2188         8.5465       101.7914       0.454981         3.5732         2.3690         1.7321         1.3163       -68.7411      2461.2447      2481.2447
     2678.4298         9.8750        11.0387       0.009990       107.1880         8.4597        99.4714       0.446990         3.6695         2.3780         1.7434         1.3599       -68.5812      2461.3801      2481.3801
     2678.5822         9.8750        10.9040       0.005995       107.0002         8.3473       100.4762       0.443017         3.8906         2.3790         1.7458         1.4878       -68.0088      2461.5156      2481.5156
     2678.7346         9.8750        10.8871       0.004007       106.4697         8.6002       103.4891       0.449993         4.1502         2.3800         1.7045         1.5352       -68.1425      2461.6510      2481.6510
     2678.8870         9.8750        10.9258       0.007019       105.8448         8.6992       105.6107       0.446964         4.2295         2.3900         1.6654         1.4108       -68.3838      2461.7865      2481.7865
     2679.0394         9.8750        10.8477       0.015012       105.4695         8.3585       106.3113       0.431961         4.0022         2.3980         1.6714         1.3263       -68.5349      2461.9220      2481.9220
     2679.1918         9.8750        10.7089       0.019998       104.8758         7.7255       105.6198       0.415988         3.6524         2.3930         1.7101         1.3841       -68.9740      2462.0574      2482.0574
     2679.3442         9.8750        10.6663       0.019005       104.2198         7.2598       103.4501       0.411005         3.4008         2.3780         1.7548         1.4407       -68.7036      2462.1929      2482.1929
     2679.4966         9.8750        10.7934       0.021007       103.8754         7.1865       102.2374       0.412993         3.3190         2.3710         1.7721         1.4570       -69.7587      2462.3284      2482.3284
     2679.6490         9.8750        10.9712       0.023993       103.7502         7.1061       103.6776       0.409981         3.3100         2.3720         1.7895         1.4593       -69.8400      2462.4638      2482.4638
     2679.8014         9.8750        11.0630       0.020983       104.1874         6.8600       106.0037       0.402000         3.3110         2.3730         1.8273         1.4119       -69.3315      2462.5993      2482.5993
     2679.9538         9.8750        11.0530       0.013986       105.3735         6.8814       107.5159       0.402058         3.3092         2.3740         1.8644         1.4339       -68.7587      2462.7347      2482.7347
     2680.1062         9.8750        11.0611       0.008002       106.8731         7.4618       101.2578       0.426058         3.3850         2.3630         1.8735         1.4833       -68.8576      2462.8702      2482.8702
