~Version Information Block
VERS .                 2.00:  CWLS LOG ASCII STANDARD - VERSION 2.00
WRAP .                   NO:  One line per depth step
~Well Information Block
#MNEM.UNIT        Data Type   Information
#---------- ----------------  -----------
STRT .M              0.0000:  START DEPTH
STOP .M           2731.4652:  STOP DEPTH
STEP .M              0.1524:  STEP
NULL .              -999.25:  NULL VALUE
COMP .                     :  COMPANY
WELL .              GABO-19:  WELL
FLD  .                     :  FIELD
LOC  .   6.687920, 5.237424:  LOCATION
CTRY .                     :  COUNTRY
STAT .                     :  STATE
CNTY .                     :  COUNTY
API  .                     :  API NUMBER
UWI  .                     :  UNIQUE WELL ID
SRVC .                     :  SERVICE COMPANY
DATE .                     :  LOG DATE
~Curve Information Block
#MNEM.UNIT         API CODE   Curve Description
#---------- ----------------  -----------------
DEPTH.M                    :  Reference TVD log.
BS_COMP.INCHES             :  BIT SIZE
DRHO_COMP.G/C3            0:  Density Correction
GR_COMP.GAPI              0:  Gamma Ray
LLS_COMP.OHMM             0:  Deep Laterolog resistivity
NPHI_COMP.V/V              :  Neutron Porosity
PEF_COMP.B/E              0:  Photo Electric Facotr
RHOB_COMP.G/C3            0:  Bulk Density
RT_COMP.OHMM              0:  True Resistivity
RXO_COMP.OHMM             0:  Invaded Zone Resistivity
SP_COMP.MV                0:  Spontaneous Potential
TVDSS_COMP.M               :  Reference TVD sub-sea log.
TVD_COMP.M                 :  Reference TVD log.
~Parameter Information Block
#MNEM.UNIT            Value   Description
#---------- ----------------  -----------
SET  .                  LCS:  
~Other Information Block
#        DEPTH        BS_COMP      DRHO_COMP        GR_COMP       LLS_COMP      NPHI_COMP       PEF_COMP      RHOB_COMP        RT_COMP       RXO_COMP        SP_COMP     TVDSS_COMP       TVD_COMP 
~A
# ...
     2202.7896         9.8750       0.022431        81.4249         8.0833       0.310642         2.6369         2.2215        10.3741         2.7724        49.1277      2004.3772      2022.3772
     2202.9420         9.8750       0.011791        82.2416         7.9994       0.319731         2.5536         2.1903        10.3130         2.7680        49.0581      2004.5034      2022.5034
     2203.0944         9.8750       0.009335        80.9075         7.9118       0.329419         2.4318         2.1589        10.2452         2.8985        49.2497      2004.6297      2022.6297
     2203.2468         9.8750       0.018056        79.5144         7.8550       0.334620         2.3498         2.1431        10.2242         3.1276        49.5534      2004.7560      2022.7560
     2203.3992         9.8750       0.029914        79.7111         7.8560       0.333047         2.2879         2.1471        10.2849         3.2988        49.7278      2004.8822      2022.8822
     2203.5516         9.8750       0.037712        82.4019         7.9519       0.323627         2.3516         2.1727        10.4689         3.2649        49.5897      2005.0085      2023.0085
     2203.7040         9.8750       0.041802        86.3621         8.1164       0.311486         2.5450         2.2074        10.7342         3.1568        49.2296      2005.1348      2023.1348
     2203.8564         9.8750       0.044997        90.1988         8.2725       0.301491         2.7508         2.2393        10.9690         3.1468        48.7458      2005.2611      2023.2611
     2204.0088         9.8750       0.048626        93.0807         8.2986       0.296067         2.8690         2.2619        11.0093         3.2167        48.2678      2005.3874      2023.3874
     2204.1612         9.8750       0.049807        94.7571         8.1179       0.295930         2.9129         2.2748        10.7598         3.2539        47.8698      2005.5137      2023.5137
     2204.3136         9.8750       0.046417        95.3042         7.8287       0.299201         2.9443         2.2819        10.3745         3.2491        47.5670      2005.6400      2023.6400
     2204.4660         9.8750       0.039452        94.6798         7.5474       0.304376         2.9624         2.2830        10.0315         3.3073        47.3527      2005.7663      2023.7663
     2204.6184         9.8750       0.033607        93.3304         7.3632       0.309033         2.9672         2.2800         9.8507         3.5215        47.2053      2005.8927      2023.8927
     2204.7708         9.8750       0.032812        91.6429         7.3037       0.310950         2.9702         2.2757         9.8594         3.9238        47.1182      2006.0190      2024.0190
     2204.9232         9.8750       0.035362        89.8939         7.3320       0.309177         2.9791         2.2713         9.9953         4.4135        47.0722      2006.1454      2024.1454
     2205.0756         9.8750       0.038698        88.3326         7.3960       0.304386         2.9854         2.2659        10.1721         4.7975        47.0402      2006.2717      2024.2717
     2205.2280         9.8750       0.042136        87.3923         7.4296       0.297296         2.9568         2.2617        10.2849         4.7491        46.9767      2006.3981      2024.3981
     2205.3804         9.8750       0.046602        87.2964         7.3985       0.286340         2.9114         2.2669        10.2745         4.3375        46.8678      2006.5245      2024.5245
     2205.5328         9.8750       0.048847        87.8867         7.3370       0.268049         2.9280         2.2940        10.1853         3.9539        46.8107      2006.6508      2024.6508
     2205.6852         9.8750       0.043514        88.7581         7.3588       0.243242         3.0694         2.3436        10.1960         3.7968        47.0525      2006.7772      2024.7772
     2205.8376         9.8750       0.027184        89.5859         7.6403       0.220370         3.3317         2.4012        10.6016         3.7980        48.0091      2006.9036      2024.9036
     2205.9900         9.8750       0.010543        90.1542         8.2567       0.209885         3.6076         2.4439        11.5227         3.8341        49.6918      2007.0300      2025.0300
     2206.1424         9.8750       0.009049        89.9458         9.1901       0.218198         3.7414         2.4556        12.8753         4.0830        51.7139      2007.1564      2025.1564
     2206.2948         9.8750       0.021771        88.7534        10.0715       0.238071         3.7262         2.4476        14.0286         4.8743        53.4418      2007.2828      2025.2828
     2206.4472         9.8750       0.036866        87.3621        10.0639       0.267998         3.6627         2.4308        13.7138         6.9426        54.6005      2007.4092      2025.4092
     2206.5996         9.8750       0.043654        87.1866         8.9176       0.303426         3.6060         2.4094        11.7845         9.8534        55.6427      2007.5357      2025.5357
     2206.7520         9.8750       0.044180        89.8843         7.1123       0.326668         3.5145         2.3839         9.2120        10.0926        57.0138      2007.6621      2025.6621
     2206.9044         9.8750       0.046708        94.9873         5.5808       0.336223         3.3712         2.3629         7.1972         8.3829        58.5322      2007.7886      2025.7886
     2207.0568         9.8750       0.051683       101.4452         4.6700       0.339031         3.2528         2.3564         6.0672         6.9805        59.7089      2007.9150      2025.9150
     2207.2092         9.8750       0.055487       107.1265         4.1757       0.345125         3.2057         2.3619         5.4747         5.7301        60.3698      2008.0415      2026.0415
     2207.3616         9.8750       0.056486       110.5084         3.9100       0.359472         3.1731         2.3725         5.1633         4.4819        60.6487      2008.1679      2026.1679
     2207.5140         9.8750       0.053545       111.6405         3.6491       0.379505         3.1261         2.3802         4.8320         3.5094        60.8478      2008.2944      2026.2944
     2207.6664         9.8750       0.048816       111.1250         3.3239       0.399518         3.0782         2.3824         4.3937         2.9721        61.0217      2008.4209      2026.4209
     2207.8188         9.8750       0.047746       110.4284         2.9969       0.413974         3.0304         2.3804         3.9467         2.6882        61.1521      2008.5474      2026.5474
     2207.9712         9.8750       0.053377       109.8724         2.7415       0.422047         2.9883         2.3761         3.5998         2.4948        61.2897      2008.6739      2026.6739
     2208.1236         9.8750       0.062090       108.7349         2.5724       0.427214         2.9669         2.3719         3.3780         2.3376        61.5226      2008.8004      2026.8004
     2208.2760         9.8750       0.067968       106.6488         2.4734       0.431987         2.9626         2.3699         3.2486         2.2349        61.8557      2008.9269      2026.9269
     2208.4284         9.8750       0.068614       104.6911         2.4162       0.436718         2.9569         2.3714         3.1624         2.1788        62.1724      2009.0534      2027.0534
     2208.5808         9.8750       0.066780       104.3758         2.3832       0.440126         2.9497         2.3772         3.0964         2.1455        62.3495      2009.1800      2027.1800
     2208.7332         9.8750       0.065855       106.5748         2.3757       0.441455         2.9552         2.3875         3.0620         2.1193        62.3528      2009.3065      2027.3065
     2208.8856         9.8750       0.066499       110.2749         2.4025       0.441945         2.9765         2.3994         3.0709         2.1154        62.3083      2009.4330      2027.4330
     2209.0380         9.8750       0.067339       113.5407         2.4688       0.443063         3.0010         2.4092         3.1261         2.1527        62.3559      2009.5596      2027.5596
