~Version Section
VERS.   2.0:  CWLS Log ASCII Standard - Version 2.0
WRAP.    NO:  One data record per depth sample.
~Well Information Section
#MNEM.UNIT      VALUE                    DESCRIPTION
#---------      ----------               -----------
STRT.M                   0               :START DEPTH
STOP.M          3180.43555               :STOP DEPTH
STEP.M               .1524               :STEP
NULL.          -999.250000               :NULL VALUE
COMP.                                    :Oil Company
WELL.         GABO-21                    :Non unique well name
FLD.              FNG00147               :Field name
LOC.  6.610748, 5.225944                 :Location
PROV.                                    :Province
SRVC.                                    :Service
DATE.           2013-08-16               :Date unloaded
UWI.          			               :Unique well id
~Curve Information Section
#MNEM.UNIT                   API CODE                 Curve Description
#---------                   ----------               -----------------
BOREHOLE-DEPTH.M                                   :DEPTH
GR.GAPI                                   :
RT.OHMM                                   :
RXO.OHMM                                   :
TVD.M                                   :
TVDSS.M                                   :
~A
# ...
2362.8096    115.2766     2.0671       1.8603       2277.3401    2258.0200    
2362.9619    116.7598     2.0294       1.8078       2277.4458    2258.1257    
2363.1145    115.1017     1.9680       1.7088       2277.5513    2258.2312    
2363.2668    118.4944     1.9253       1.7161       2277.6570    2258.3369    
2363.4192    116.9298     1.8793       1.6756       2277.7625    2258.4424    
2363.5715    116.6760     1.8865       1.6967       2277.8679    2258.5481    
2363.7241    114.8502     1.8752       1.6787       2277.9734    2258.6533    
2363.8765    116.5040     1.8137       1.5873       2278.0789    2258.7588    
2364.0288    118.2432     1.9478       1.7854       2278.1843    2258.8643    
2364.1812    114.8500     1.9358       1.7011       2278.2896    2258.9695    
2364.3337    116.5006     1.9439       1.7521       2278.3950    2259.0750    
2364.4861    114.8479     1.9714       1.7417       2278.5002    2259.1804    
2364.6384    119.9802     1.8926       1.7506       2278.6057    2259.2856    
2364.7908    115.0283     2.0468       1.8185       2278.7107    2259.3909    
2364.9431    118.3359     2.1443       1.9491       2278.8159    2259.4961    
2365.0957    120.0760     2.0219       1.7964       2278.9211    2259.6013    
2365.2480    121.7238     1.8815       1.7106       2279.0264    2259.7063    
2365.4004    119.9830     1.8625       1.6923       2279.1316    2259.8115    
2365.5527    116.5899     1.8333       1.7022       2279.2366    2259.9165    
2365.7053    116.6754     2.2388       1.9730       2279.3416    2260.0215    
2365.8577    113.2000     2.5299       2.2803       2279.4465    2260.1267    
2366.0100    107.9768     2.7382       2.4464       2279.5518    2260.2317    
2366.1624    102.6708     2.8680       2.5129       2279.6565    2260.3367    
2366.3149    99.4447      2.8908       2.5963       2279.7615    2260.4414    
2366.4673    99.3610      3.0322       2.7753       2279.8665    2260.5464    
2366.6196    99.1884      3.0414       2.9085       2279.9712    2260.6511    
2366.7720    99.1019      2.9979       2.9358       2280.0762    2260.7561    
2366.9243    97.3624      2.9431       2.8173       2280.1809    2260.8608    
2367.0769    99.2774      2.6378       2.5799       2280.2856    2260.9656    
2367.2292    99.4504      2.6043       2.4419       2280.3904    2261.0703    
2367.3816    103.0199     2.6097       2.3756       2280.4951    2261.1750    
2367.5339    107.9791     2.5595       2.3861       2280.5996    2261.2798    
2367.6865    114.6804     2.4463       2.3544       2280.7043    2261.3843    
2367.8389    118.0708     2.4526       2.2833       2280.8088    2261.4890    
2367.9912    116.4171     2.5370       2.3659       2280.9136    2261.5935    
2368.1436    114.8497     2.5067       2.4478       2281.0181    2261.6980    
2368.2961    113.1949     2.5851       2.4007       2281.1226    2261.8025    
2368.4485    120.1524     2.5013       2.4819       2281.2271    2261.9070    
2368.6008    125.4600     2.4746       2.4141       2281.3313    2262.0115    
2368.7532    135.9045     2.5212       2.3754       2281.4358    2262.1157    
2368.9055    137.8186     2.5127       2.5152       2281.5403    2262.2202    
2369.0581    146.4325     2.5124       2.3115       2281.6445    2262.3245    
2369.2104    151.8231     2.4567       2.4111       2281.7488    2262.4287    
2369.3628    160.2660     2.3707       2.3403       2281.8530    2262.5332    
2369.5151    160.3530     2.3611       2.2257       2281.9575    2262.6375    
2369.6677    163.6635     2.2882       2.3302       2282.0615    2262.7415    
2369.8201    165.5776     2.2625       2.2421       2282.1658    2262.8457    
2369.9724    174.2784     2.2419       2.1574       2282.2700    2262.9500    
2370.1248    184.9879     2.2661       2.2192       2282.3740    2263.0540    
2370.2773    204.2154     2.2681       2.2016       2282.4780    2263.1580    
2370.4297    221.3564     2.2200       2.1764       2282.5820    2263.2622    
2370.5820    231.2644     2.3701       2.2321       2282.6860    2263.3662    
2370.7344    218.8284     2.5590       2.3334       2282.7900    2263.4700    
2370.8867    199.5976     2.8782       2.4143       2282.8940    2263.5740    
2371.0393    166.6205     2.5093       2.3917       2282.9978    2263.6780    
2371.1917    130.3290     2.4553       2.3031       2283.1018    2263.7817    
2371.3440    97.3547      4.0194       3.1191       2283.2056    2263.8855    
2371.4963    74.8215      5.1910       3.9541       2283.3096    2263.9895    
2371.6489    64.2970      6.5133       5.9488       2283.4133    2264.0933    
2371.8013    54.0295      10.2606      10.9211      2283.5171    2264.1970    
2371.9536    47.0693      13.6914      13.8609      2283.6208    2264.3008    
2372.1060    41.9381      17.9374      18.8725      2283.7246    2264.4045    
2372.2585    38.3715      20.4134      19.6040      2283.8284    2264.5083    
2372.4109    34.8049      22.1481      20.9885      2283.9321    2264.6121    
2372.5632    31.2356      20.7817      24.5707      2284.0359    2264.7158    
2372.7156    27.8415      20.6333      22.1701      2284.1394    2264.8193    
2372.8679    24.4482      17.1188      16.1309      2284.2432    2264.9231    
2373.0205    24.4482      16.9361      12.1928      2284.3467    2265.0269    
2373.1729    24.3624      15.1069      7.8371       2284.4504    2265.1304    
2373.3252    26.0182      7.7202       5.3008       2284.5540    2265.2339    
2373.4775    24.3642      4.4526       3.5808       2284.6577    2265.3376    
2373.6301    22.6241      3.4080       2.8635       2284.7610    2265.4412    
2373.7825    20.9679      3.1555       2.1147       2284.8647    2265.5447    
2373.9348    20.8817      2.9219       2.1570       2284.9683    2265.6482    
2374.0872    20.8817      2.4553       2.1238       2285.0718    2265.7517    
2374.2397    20.8821      2.4327       2.2028       2285.1753    2265.8552    
2374.3921    22.5357      2.3365       2.2352       2285.2788    2265.9587    
2374.5444    22.5357      2.2814       2.3086       2285.3821    2266.0620    
2374.6968    22.5354      2.2746       2.3615       2285.4856    2266.1655    
2374.8491    20.9685      2.3200       2.4731       2285.5891    2266.2690    
2375.0017    22.7087      2.4182       2.4139       2285.6924    2266.3723    
2375.1541    24.4488      2.4740       2.5040       2285.7959    2266.4758    
2375.3064    26.1025      2.4535       2.4583       2285.8992    2266.5791    
2375.4587    27.7593      2.4011       2.5223       2286.0024    2266.6826    
2375.6113    31.1535      2.4413       2.5417       2286.1057    2266.7859    
2375.7637    36.3747      2.4199       2.5177       2286.2090    2266.8892    
2375.9160    45.2445      2.6424       2.6351       2286.3125    2266.9924    
2376.0684    62.7327      2.6206       2.6525       2286.4155    2267.0957    
2376.2209    81.8744      2.8604       2.8518       2286.5188    2267.1990    
2376.3733    100.9306     2.9589       2.8759       2286.6221    2267.3020    
2376.5256    111.3701     3.0192       2.9309       2286.7253    2267.4053    
2376.6780    114.8487     3.0612       3.0888       2286.8286    2267.5085    
2376.8303    109.5423     3.0892       3.0828       2286.9316    2267.6116    
2376.9829    106.0613     3.1379       3.2508       2287.0349    2267.7148    
2377.1353    99.2746      3.1336       3.1823       2287.1379    2267.8179    
2377.2876    97.5338      3.0739       3.1521       2287.2410    2267.9209    
2377.4399    92.2280      3.2026       3.0385       2287.3440    2268.0242    
2377.5925    92.0545      3.2565       3.0344       2287.4473    2268.1272    
2377.7449    88.6609      3.3457       3.2312       2287.5503    2268.2302    
2377.8972    87.0077      3.4030       3.2694       2287.6533    2268.3333    
2378.0496    88.7482      3.5456       3.3978       2287.7563    2268.4363    
2378.2021    92.1389      3.4549       3.5178       2287.8594    2268.5393    
