~Version Information Block
VERS .                 2.00:  CWLS LOG ASCII STANDARD - VERSION 2.00
WRAP .                   NO:  One line per depth step
~Well Information Block
#MNEM.UNIT        Data Type   Information
#---------- ----------------  -----------
STRT .M            800.1000:  START DEPTH
STOP .M           4245.4068:  STOP DEPTH
STEP .M              0.1524:  STEP
NULL .              -999.25:  NULL VALUE
COMP .                     :  COMPANY
WELL .               GABO51:  WELL
FLD  .                     :  FIELD
LOC  .   6.643728, 5.227344:  LOCATION
CTRY .                     :  COUNTRY
STAT .                     :  STATE
CNTY .                     :  COUNTY
API  .                     :  API NUMBER
UWI  .                     :  UNIQUE WELL ID
SRVC .                     :  SERVICE COMPANY
DATE .                     :  LOG DATE
~Curve Information Block
#MNEM.UNIT         API CODE   Curve Description
#---------- ----------------  -----------------
DEPTH.M                    :  Depth
DRHO_COMP.G/C3             :  Density Correction
DTSM_COMP.US/F             :  Shear Sonic
DT_COMP.US/F               :  Compressional Sonic
GR_COMP.GAPI               :  Gamma Ray
HCAL_COMP.INCHES           :  Caliper
NPHI_COMP.V/V              :  Neutron Porosity
PEF_COMP.B/E               :  Pho Electric Factor
RDEEP_COMP.OHMM            :  Deep Resistivity
RHOB_COMP.G/C3             :  Bulk Density
RSHAL_COMP.OHMM            :  Shallow Resistivity
TVDSS_COMP.M               :  Reference TVD sub-sea log.
TVD_COMP.M                 :  Reference TVD log.
~Parameter Information Block
#MNEM.UNIT            Value   Description
#---------- ----------------  -----------
SET  .                  LCS:  
~Other Information Block
#        DEPTH      DRHO_COMP      DTSM_COMP        DT_COMP        GR_COMP      HCAL_COMP      NPHI_COMP       PEF_COMP     RDEEP_COMP      RHOB_COMP     RSHAL_COMP     TVDSS_COMP       TVD_COMP 
~A
# ...
     2765.7552      -0.004600       194.2203       181.3082        42.1752        12.3374       0.245300         1.7200         3.8757         2.1729         4.0742      2197.4001      2217.1801
     2765.9076      -0.001100       192.7599       179.7872        40.7827        12.3262       0.268100         1.7984         4.3235         2.1519         4.5555      2197.5062      2217.2862
     2766.0600       0.000700       191.9817       179.8821        44.2008        12.3076       0.272100         1.8303         4.5263         2.1448         4.6306      2197.6122      2217.3922
     2766.2124      -0.000500       192.4909       180.6100        51.7333        12.2592       0.286200         1.7969         4.1369         2.1492         3.9296      2197.7183      2217.4983
     2766.3648      -0.000700       193.8392       181.4107        54.6956        12.2555       0.264200         1.7296         4.0711         2.1627         3.9906      2197.8243      2217.6043
     2766.5172       0.000900       195.1674       184.2738        58.9239        12.2629       0.272700         1.6713         3.8971         2.1673         3.8527      2197.9304      2217.7104
     2766.6696       0.004200       196.2594       184.7658        55.9552        12.2629       0.276600         1.6374         3.7073         2.1635         3.9377      2198.0365      2217.8165
     2766.8220       0.007800       196.7960       184.1400        54.1702        12.2481       0.290600         1.6131         3.6093         2.1600         3.8420      2198.1425      2217.9225
     2766.9744       0.006100       195.9620       183.4764        49.3722        12.2183       0.277100         1.6068         3.8755         2.1601         4.1287      2198.2486      2218.0286
     2767.1268       0.001900       194.3287       182.7478        46.0997        12.2332       0.261000         1.5990         4.0293         2.1617         3.9750      2198.3547      2218.1347
     2767.2792       0.004200       193.5964       183.0964        44.6945        12.2146       0.257200         1.6064         3.7790         2.1597         3.9422      2198.4608      2218.2408
     2767.4316       0.005200       194.0640       184.6100        43.7893        12.2816       0.253900         1.6225         3.6901         2.1549         3.8786      2198.5668      2218.3468
     2767.5840       0.004300       195.3905       185.2136        45.2389        12.2816       0.265700         1.6276         3.6179         2.1429         3.7762      2198.6729      2218.4529
     2767.7364      -0.005500       197.7771       189.1643        41.5866        12.3150       0.282400         1.6355         3.6715         2.1311         3.7038      2198.7790      2218.5590
     2767.8888      -0.009000       200.7951       191.0019        42.8335        12.2927       0.309000         1.6572         3.6590         2.1205         3.7374      2198.8851      2218.6651
     2768.0412      -0.007900       203.8011       194.0537        45.2579        12.2592       0.305300         1.7101         3.6861         2.1162         3.8167      2198.9912      2218.7712
     2768.1936      -0.006500       206.4268       195.9514        51.4168        12.2183       0.321400         1.7824         3.6226         2.1078         3.8660      2199.0973      2218.8773
     2768.3460      -0.005000       208.2372       198.9860        52.4295        12.2257       0.330200         1.8272         3.5716         2.1019         3.8117      2199.2034      2218.9834
     2768.4984      -0.000800       209.1754       200.1360        55.9299        12.2592       0.330500         1.8253         3.3217         2.1053         3.5183      2199.3095      2219.0895
     2768.6508      -0.000400       209.2655       202.8405        54.8285        12.3262       0.316500         1.7706         3.5106         2.1120         3.8322      2199.4156      2219.1956
     2768.8032      -0.000300       208.6304       202.5742        55.0691        12.3597       0.311400         1.7199         3.6417         2.1119         4.1970      2199.5217      2219.3017
     2768.9556      -0.004800       208.1716       200.7145        55.2969        12.2778       0.308200         1.6970         3.6325         2.1057         4.0986      2199.6278      2219.4078
     2769.1080      -0.005400       207.7315       199.0547        57.3415        12.2183       0.308900         1.7110         3.3933         2.1073         4.0421      2199.7339      2219.5139
     2769.2604      -0.006500       206.3014       197.7601        59.6202        12.2034       0.307100         1.7087         3.6164         2.1242         4.1541      2199.8400      2219.6200
     2769.4128      -0.002400       203.9410       195.9534        53.7398        12.2592       0.312000         1.6927         3.8819         2.1413         4.7455      2199.9461      2219.7261
     2769.5652      -0.003500       201.8012       195.9472        50.6319        12.3820       0.282200         1.6801         3.6094         2.1446         4.1223      2200.0522      2219.8322
     2769.7176      -0.002500       200.6983       195.5980        47.1441        12.4713       0.263400         1.6827         3.5256         2.1402         4.0131      2200.1583      2219.9383
     2769.8700      -0.006400       200.3935       194.7313        53.4803        12.3374       0.270800         1.7138         3.6297         2.1327         3.9019      2200.2644      2220.0444
     2770.0224      -0.003800       200.7008       194.0523        54.9741        12.3448       0.299300         1.7875         3.7206         2.1390         4.2244      2200.3705      2220.1505
     2770.1748      -0.004900       201.2311       193.6909        56.6389        12.3485       0.310900         1.8574         3.5045         2.1469         3.9927      2200.4767      2220.2567
     2770.3272      -0.006300       201.5603       193.8907        58.8037        12.3671       0.296400         1.8753         3.6439         2.1523         4.1419      2200.5828      2220.3628
     2770.4796      -0.006100       201.8457       194.2846        60.3861        12.3597       0.304600         1.8432         3.9843         2.1464         4.0902      2200.6889      2220.4689
     2770.6320      -0.006600       202.7058       195.9823        60.7659        12.2927       0.304500         1.8201         3.7663         2.1308         3.8424      2200.7950      2220.5750
     2770.7844      -0.005500       204.2248       198.4246        57.5757        12.3523       0.307200         1.8198         3.3634         2.1142         3.5157      2200.9012      2220.6812
     2770.9368      -0.005900       206.4097       203.1469        59.6519        12.3597       0.304500         1.7936         3.2712         2.1022         3.5606      2201.0073      2220.7873
     2771.0892      -0.006100       209.5623       205.0071        61.3229        12.3150       0.323400         1.7703         3.1739         2.1003         3.4056      2201.1135      2220.8935
     2771.2416      -0.003500       212.9176       205.1187        59.7278        12.2369       0.328100         1.7542         2.9572         2.1158         3.1807      2201.2196      2220.9996
     2771.3940      -0.003100       215.0878       204.3776        58.0061        12.2406       0.333700         1.7519         3.1300         2.1396         3.2748      2201.3257      2221.1057
     2771.5464       0.003400       215.1191       204.5878        60.5127        12.2704       0.309400         1.7407         3.2742         2.1617         3.5573      2201.4319      2221.2119
     2771.6988       0.003300       213.5172       204.3989        63.0383        12.3002       0.295300         1.7241         3.4081         2.1754         3.9574      2201.5380      2221.3180
     2771.8512       0.005700       212.1050       204.2802        63.5953        12.3374       0.276400         1.7283         3.5549         2.1732         4.4236      2201.6442      2221.4242
     2772.0036       0.000200       211.8643       204.4183        61.1394        12.4044       0.290000         1.7390         3.9399         2.1586         4.9157      2201.7503      2221.5303
