~Version Information Block
VERS .                 2.00:  CWLS LOG ASCII STANDARD - VERSION 2.00
WRAP .                   NO:  One line per depth step
~Well Information Block
#MNEM.UNIT        Data Type   Information
#---------- ----------------  -----------
STRT .M              0.0000:  START DEPTH
STOP .M           2731.4652:  STOP DEPTH
STEP .M              0.1524:  STEP
NULL .              -999.25:  NULL VALUE
COMP .                     :  COMPANY
WELL .              GABO-19:  WELL
FLD  .                     :  FIELD
LOC  .   6.687920, 5.237424:  LOCATION
CTRY .                     :  COUNTRY
STAT .                     :  STATE
CNTY .                     :  COUNTY
API  .                     :  API NUMBER
UWI  .                     :  UNIQUE WELL ID
SRVC .                     :  SERVICE COMPANY
DATE .                     :  LOG DATE
~Curve Information Block
#MNEM.UNIT         API CODE   Curve Description
#---------- ----------------  -----------------
DEPTH.M                    :  Reference TVD log.
BS_COMP.INCHES             :  BIT SIZE
DRHO_COMP.G/C3            0:  Density Correction
GR_COMP.GAPI              0:  Gamma Ray
LLS_COMP.OHMM             0:  Deep Laterolog resistivity
NPHI_COMP.V/V              :  Neutron Porosity
PEF_COMP.B/E              0:  Photo Electric Facotr
RHOB_COMP.G/C3            0:  Bulk Density
RT_COMP.OHMM              0:  True Resistivity
RXO_COMP.OHMM             0:  Invaded Zone Resistivity
SP_COMP.MV                0:  Spontaneous Potential
TVDSS_COMP.M               :  Reference TVD sub-sea log.
TVD_COMP.M                 :  Reference TVD log.
~Parameter Information Block
#MNEM.UNIT            Value   Description
#---------- ----------------  -----------
SET  .                  LCS:  
~Other Information Block
#        DEPTH        BS_COMP      DRHO_COMP        GR_COMP       LLS_COMP      NPHI_COMP       PEF_COMP      RHOB_COMP        RT_COMP       RXO_COMP        SP_COMP     TVDSS_COMP       TVD_COMP 
~A
# ...
     2100.3768         9.8750       0.007313        47.0004        13.7861       0.301905         2.6181         2.2576        16.5613        10.7812        58.1606      1921.6112      1939.6112
     2100.5292         9.8750       0.011164        68.2411        11.8292       0.317963         2.9973         2.2793        14.2021         8.2540        59.6174      1921.7321      1939.7321
     2100.6816         9.8750       0.013249        94.1338        10.2847       0.326394         3.1389         2.2857        12.3974         6.0865        61.1507      1921.8531      1939.8531
     2100.8340         9.8750    -999.250000       115.1672         9.3732       0.323340         3.0072         2.2767        11.3696         4.8919        62.2215      1921.9740      1939.9740
     2100.9864         9.8750    -999.250000       123.9457         9.1224       0.313601         2.8211         2.2554        11.1615         4.4157        62.5344      1922.0949      1940.0949
     2101.1388         9.8750    -999.250000       118.0845         9.6241       0.307366         2.7736         2.2238        11.9102         4.4450        61.9957      1922.2159      1940.2159
     2101.2912         9.8750    -999.250000       105.1229        10.7885       0.310644         2.8144         2.1859        13.5056         4.6865        60.9757      1922.3368      1940.3368
     2101.4436         9.8750    -999.250000        95.5031        12.5231       0.320718         2.8638         2.1464        15.8031         4.9176        59.9253      1922.4578      1940.4578
     2101.5960         9.8750    -999.250000        94.1070        14.3747       0.329311         2.8301         2.1118        18.2231         5.2029        59.1602      1922.5787      1940.5787
     2101.7484         9.8750    -999.250000        98.5792        15.8996       0.331655         2.6421         2.0904        20.2119         5.6660        58.7461      1922.6997      1940.6997
     2101.9008         9.8750    -999.250000       101.1623        16.9866       0.329843         2.4596         2.0821        21.6426         6.1664        58.4616      1922.8206      1940.8206
     2102.0532         9.8750    -999.250000        96.5462        17.4847       0.327212         2.4002         2.0846        22.3430         6.3315        58.1950      1922.9416      1940.9416
     2102.2056         9.8750    -999.250000        87.6052        17.5212       0.326197         2.3829         2.0891        22.4777         6.2102        57.9522      1923.0626      1941.0626
     2102.3580         9.8750    -999.250000        79.4406        17.1415       0.326945         2.3657         2.0896        22.0948         6.0205        57.7662      1923.1835      1941.1835
     2102.5104         9.8750    -999.250000        74.9108        16.6290       0.329765         2.3498         2.0858        21.5392         5.6649        57.5650      1923.3045      1941.3045
     2102.6628         9.8750    -999.250000        74.4976        16.1866       0.336797         2.3409         2.0801        21.0679         5.0454        57.2490      1923.4255      1941.4255
     2102.8152         9.8750    -999.250000        77.0493        15.9235       0.348084         2.3461         2.0755        20.8245         4.4798        56.8188      1923.5465      1941.5465
     2102.9676         9.8750    -999.250000        81.8196        15.8586       0.362089         2.3631         2.0734        20.8298         4.2606        56.3569      1923.6675      1941.6675
     2103.1200         9.8750       0.015996        87.6777        15.9118       0.375223         2.3785         2.0725        20.9812         4.3525        56.0021      1923.7885      1941.7885
     2103.2724         9.8750       0.029588        93.1613        16.0011       0.384633         2.3890         2.0714        21.1743         4.5076        55.8082      1923.9095      1941.9095
     2103.4248         9.8750       0.041162        95.5798        16.0397       0.388459         2.4058         2.0715        21.3044         4.5658        55.6930      1924.0305      1942.0305
     2103.5772         9.8750       0.048899        93.5442        15.9988       0.384840         2.4367         2.0755        21.3403         4.6252        55.5793      1924.1515      1942.1515
     2103.7296         9.8750       0.053192        88.6429        15.8435       0.373502         2.4740         2.0846        21.2205         4.8049        55.4486      1924.2725      1942.2725
     2103.8820         9.8750       0.053262        84.1422        15.4892       0.358134         2.5004         2.0966        20.8047         5.1133        55.2831      1924.3935      1942.3935
     2104.0344         9.8750       0.045076        82.3342        14.8994       0.344708         2.5220         2.1078        20.0258         5.3754        55.0215      1924.5145      1942.5145
     2104.1868         9.8750       0.030014        82.8912        14.2273       0.337581         2.5483         2.1166        19.1088         5.2590        54.6672      1924.6356      1942.6356
     2104.3392         9.8750       0.015299        85.1972        13.7177       0.339736         2.5716         2.1250        18.4215         4.8410        54.2899      1924.7566      1942.7566
     2104.4916         9.8750       0.007505        89.1713        13.5070       0.349165         2.5855         2.1347        18.1625         4.5871        53.9693      1924.8776      1942.8776
     2104.6440         9.8750       0.010636        94.7707        13.6474       0.362982         2.5956         2.1452        18.3824         4.9179        53.7697      1924.9987      1942.9987
     2104.7964         9.8750       0.022648       100.3973        13.9622       0.376202         2.6123         2.1539        18.8080         5.8338        53.7104      1925.1197      1943.1197
     2104.9488         9.8750       0.040281       104.4058        14.2288       0.383453         2.6355         2.1594        19.1108         7.3417        53.8640      1925.2408      1943.2408
     2105.1012         9.8750       0.055505       106.6143        14.2516       0.383704         2.6461         2.1640        19.0606         8.7597        54.1951      1925.3618      1943.3618
     2105.2536         9.8750       0.060459       107.2179        13.8784       0.376341         2.6299         2.1696        18.5016         8.9007        54.6414      1925.4829      1943.4829
     2105.4060         9.8750       0.056133       107.3960        13.2746       0.364998         2.6486         2.1760        17.6736         8.0265        55.0583      1925.6040      1943.6040
     2105.5584         9.8750       0.044857       107.8189        12.6540       0.353194         2.7807         2.1820        16.8631         7.0331        55.3152      1925.7250      1943.7250
     2105.7108         9.8750       0.030932       108.2846        12.2270       0.345466         2.8884         2.1865        16.3367         6.6470        55.3741      1925.8461      1943.8461
     2105.8632         9.8750       0.016275       107.8110        12.0682       0.345390         2.8520         2.1877        16.1771         7.2333        55.2834      1925.9672      1943.9672
     2106.0156         9.8750    -999.250000       105.8908        12.0290       0.351825         2.7869         2.1827        16.1521         8.1258        55.2391      1926.0883      1944.0883
     2106.1680         9.8750    -999.250000       103.2965        11.9502       0.361976         2.7863         2.1671        16.0191         7.9489        55.3868      1926.2093      1944.2093
     2106.3204         9.8750    -999.250000       100.8698        11.7863       0.371665         2.8040         2.1421        15.7361         6.9807        55.6857      1926.3304      1944.3304
     2106.4728         9.8750    -999.250000        98.2710        11.6596       0.378565         2.7201         2.1146        15.5094         6.4139        55.9901      1926.4515      1944.4515
     2106.6252         9.8750       0.006204        95.1755        11.7516       0.381192         2.6748         2.0960        15.6147         6.8724        56.1616      1926.5726      1944.5726
