~Version Information Block
VERS .                 2.00:  CWLS LOG ASCII STANDARD - VERSION 2.00
WRAP .                   NO:  One line per depth step
~Well Information Block
#MNEM.UNIT        Data Type   Information
#---------- ----------------  -----------
STRT .M              0.0000:  START DEPTH
STOP .M           2757.2208:  STOP DEPTH
STEP .M              0.1524:  STEP
NULL .              -999.25:  NULL VALUE
COMP .                     :  COMPANY
WELL .               GABO14:  WELL
FLD  .                     :  FIELD
LOC  .   6.639036, 5.241653:  LOCATION
CTRY .                     :  COUNTRY
STAT .                     :  STATE
CNTY .                     :  COUNTY
API  .                     :  API NUMBER
UWI  .                     :  UNIQUE WELL ID
SRVC .                     :  SERVICE COMPANY
DATE .                     :  LOG DATE
~Curve Information Block
#MNEM.UNIT         API CODE   Curve Description
#---------- ----------------  -----------------
DEPTH.M                    :  Reference Depth
BS_COMP.INCHES             :  Bit Size
CALI_COMP.INCHES          0:  Caliper
DRHO_COMP.G/C3            0:  Density Correction 
DT_COMP.US/F              0:  Compressional Sonic
ECART_COMP.                :  Neutron Density Seperation
GR_COMP.GAPI              0:  Gamma Ray
NPHI_COMP.V/V             0:  Neutron Porosity
PEF_COMP.B/E              0:  Photo Electric Factor
RHOB_COMP.G/C3            0:  Bulk Density
RT_COMP.OHMM              0:  True or Deep Resistivity
RXO_COMP.OHMM             0:  Invaded Zone Resistivity
SP_COMP.MV                0:  Spontaneous Potential
TVDSS_COMP.M               :  Reference TVD sub-sea log.
TVD_COMP.M                 :  Reference TVD log.
~Parameter Information Block
#MNEM.UNIT            Value   Description
#---------- ----------------  -----------
SET  .                  LCS:  
~Other Information Block
#        DEPTH        BS_COMP      CALI_COMP      DRHO_COMP        DT_COMP     ECART_COMP        GR_COMP      NPHI_COMP       PEF_COMP      RHOB_COMP        RT_COMP       RXO_COMP        SP_COMP     TVDSS_COMP       TVD_COMP 
~A
# ...
     2013.8136        12.2500        13.9060       0.026993        88.2205         4.5656       202.6907       0.237732         3.7240         2.5321         7.3680         6.8988        60.4310      1935.0830      1951.0830
     2013.9660        12.2500        13.8910       0.031980        82.0738         4.7199       203.1878       0.228091         3.7137         2.5558         8.3999        10.4471        60.3973      1935.2298      1951.2298
     2014.1184        12.2500        13.8910       0.030970        77.8676         4.7956       190.1805       0.242482         3.6116         2.5356         9.2118        13.0047        60.2170      1935.3766      1951.3766
     2014.2708        12.2500        13.8998       0.023983        76.3377         4.5641       169.2096       0.258758         3.4849         2.4969         9.7904        12.0918        59.6479      1935.5234      1951.5234
     2014.4232        12.2500        13.8515       0.016005        78.3692         4.1433       147.6682       0.272489         3.3308         2.4530        10.0838         9.3657        59.1254      1935.6702      1951.6702
     2014.5756        12.2500        13.7251       0.012008        83.6352         3.8143       130.6368       0.290233         3.1625         2.4070        10.0458         7.2734        58.7501      1935.8170      1951.8170
     2014.7280        12.2500        13.6542       0.010993        89.1016         3.4487       119.9749       0.310915         2.9926         2.3542         9.7995         5.9139        58.4468      1935.9638      1951.9638
     2014.8804        12.2500        13.6499       0.008987        94.0226         2.6189       114.7563       0.321163         2.8174         2.2957         9.4784         5.1075        58.5562      1936.1106      1952.1106
     2015.0328        12.2500        13.6389       0.004993        98.7315         1.2975       112.7395       0.315540         2.6533         2.2390         9.1470         4.9076        58.8984      1936.2574      1952.2574
     2015.1852        12.2500        13.6193    -999.250000       101.3347        -0.1236       113.9050       0.301742         2.5317         2.1909         8.9413         5.0672        59.2902      1936.4042      1952.4042
     2015.3376        12.2500        13.6545    -999.250000       102.7418        -1.0426       120.1882       0.293696         2.4717         2.1584         8.9955         5.2452        59.8828      1936.5510      1952.5510
     2015.4900        12.2500        13.7771    -999.250000       104.3614        -1.2513       130.0251       0.294525         2.4657         2.1466         9.3032         5.2317        60.3661      1936.6978      1952.6978
     2015.6424        12.2500        13.8791    -999.250000       104.8559        -1.0308       138.5898       0.295979         2.4933         2.1552         9.7705         5.1533        60.6168      1936.8446      1952.8446
     2015.7948        12.2500        13.9575    -999.250000       104.1960        -0.6817       144.1792       0.292643         2.5417         2.1782        10.2934         5.3494        60.7967      1936.9914      1952.9914
     2015.9472        12.2500        14.0958    -999.250000       102.7415        -0.3717       149.0220       0.285837         2.5917         2.2050        10.7890         5.8119        60.8913      1937.1382      1953.1382
     2016.0996        12.2500        14.1285    -999.250000       100.9825        -0.2085       153.6130       0.278619         2.6035         2.2252        11.2087         6.2004        61.0311      1937.2850      1953.2850
     2016.2520        12.2500        14.0551       0.002995       100.6773        -0.2246       157.5682       0.271877         2.5458         2.2356        11.5548         6.4169        61.1793      1937.4318      1953.4318
     2016.4044        12.2500        14.0406       0.001998       101.7843        -0.4072       158.6163       0.265134         2.4335         2.2377        11.9381         6.3758        61.1632      1937.5786      1953.5786
     2016.5568        12.2500        13.9647       0.001013       102.4658        -0.7312       150.2765       0.258023         2.3253         2.2334        12.3843         6.0867        60.9906      1937.7254      1953.7254
     2016.7092        12.2500        13.8524       0.003008       101.7891        -1.0434       129.6949       0.250664         2.2929         2.2301        12.6540         5.7633        60.5383      1937.8722      1953.8722
     2016.8616        12.2500        13.8461       0.006015       100.1467        -1.0290       105.0728       0.245420         2.3752         2.2395        12.6534         5.5333        59.9836      1938.0190      1954.0190
     2017.0140        12.2500        13.8709       0.011051        98.2161        -0.5002        84.3962       0.244536         2.5343         2.2674        12.5187         5.8050        59.4133      1938.1658      1954.1658
     2017.1664        12.2500        13.8692       0.025043        97.6135         0.1806        69.2396       0.247590         2.6743         2.2964        12.2485         6.2531        58.7597      1938.3126      1954.3126
     2017.3188        12.2500        13.9108       0.042940        98.5516         0.1131        60.6276       0.256401         2.6950         2.2783        11.9446         5.8398        58.5411      1938.4594      1954.4594
     2017.4712        12.2500        14.1052       0.041903        99.5243        -1.0083        57.8435       0.275371         2.5496         2.1906        11.8650         5.0210        58.7795      1938.6063      1954.6063
     2017.6236        12.2500        14.4849       0.021012       101.2614        -2.0695        57.7323       0.302107         2.3193         2.0930        11.8578         4.0824        58.6773      1938.7531      1954.7531
     2017.7760        12.2500        14.9242       0.010044       103.6290        -2.2928        57.3749       0.318234         2.1367         2.0550        11.6089         2.9198        58.0153      1938.8999      1954.8999
     2017.9284        12.2500        15.2496       0.011989       104.4673        -1.8903        57.3559       0.308899         2.0703         2.0907        11.1636         2.8991        57.2905      1939.0467      1955.0467
     2018.0808        12.2500        15.3723       0.010970       104.1065        -1.4863        59.8417       0.283019         2.0816         2.1540        10.6682         4.1599        56.9627      1939.1935      1955.1935
     2018.2332        12.2500        15.3002       0.004031       103.5947        -1.1252        61.0186       0.269588         2.0835         2.1944        10.2926         4.8478        57.0170      1939.3403      1955.3403
     2018.3856        12.2500        15.0875       0.006084       103.7557        -0.4887        58.4252       0.275520         2.0927         2.2164        10.1992         4.1711        57.2735      1939.4871      1955.4871
     2018.5380        12.2500        14.8323       0.025008       104.9462         0.1456        55.7629       0.286665         2.1042         2.2295        10.2357         3.3726        57.6089      1939.6339      1955.6339
     2018.6904        12.2500        14.7213       0.038933       106.6686         0.3026        55.1245       0.293103         2.0491         2.2266        10.1713         3.4081        57.8822      1939.7807      1955.7807
     2018.8428        12.2500        14.7270       0.033929       109.3087        -0.1484        55.0252       0.295638         1.9377         2.1998        10.0284         3.6666        57.9525      1939.9276      1955.9276
     2018.9952        12.2500        14.7209       0.016008       111.7390        -0.6784        53.8195       0.299116         1.8398         2.1676         9.8943         3.5993        57.9066      1940.0744      1956.0744
     2019.1476        12.2500        14.6929       0.006026       112.7816        -1.0071        53.7351       0.302217         1.7989         2.1459         9.7452         3.3887        58.0009      1940.2212      1956.2212
