~Version Information Block
VERS .                 2.00:  CWLS LOG ASCII STANDARD - VERSION 2.00
WRAP .                   NO:  One line per depth step
~Well Information Block
#MNEM.UNIT        Data Type   Information
#---------- ----------------  -----------
STRT .M              0.0000:  START DEPTH
STOP .M           2799.8928:  STOP DEPTH
STEP .M              0.1524:  STEP
NULL .              -999.25:  NULL VALUE
COMP .                     :  COMPANY
WELL .              GABO-18:  WELL
FLD  .                     :  FIELD
LOC  .   6.635779, 5.238893:  LOCATION
CTRY .                     :  COUNTRY
STAT .                     :  STATE
CNTY .                     :  COUNTY
API  .                     :  API NUMBER
UWI  .                     :  UNIQUE WELL ID
SRVC .                     :  SERVICE COMPANY
DATE .                     :  LOG DATE
~Curve Information Block
#MNEM.UNIT         API CODE   Curve Description
#---------- ----------------  -----------------
DEPTH.M                    :  Reference Depth
BS_COMP.INCHES             :  Bit Size
CALI_COMP.INCHES          0:  Caliper
DRHO_COMP.G/C3            0:  Density Correction Log
ECART_COMP.                :  Neutron Density Seperation
GR   .GAPI                0:  Gamma Ray
GR_COMP.GAPI              0:  Gamma Ray Composite
NPHI .V/V                  :  Neutron Porosity
NPHI_COMP.V/V              :  Neutron Porosity Composite
PEF_COMP.B/E              0:  Photo Electric Factor
RHOB_COMP.G/C3            0:  Bulk Density
RT   .OHMM                0:  True or Deep Resistivity
RT_COMP.OHMM              0:  True or Deep Resistivity Composite
RXO  .OHMM                0:  Invaded Zone Resistivity
RXO_COMP.OHMM             0:  Invaded Zone Resistivity composite
SP_COMP.MV                0:  Spontaneous Potential
TVDSS_COMP.M               :  Reference tvdss log.
TVD_COMP.M                 :  Reference tvd log.
~Parameter Information Block
#MNEM.UNIT            Value   Description
#---------- ----------------  -----------
SET  .                  LCS:  
~Other Information Block
#        DEPTH        BS_COMP      CALI_COMP      DRHO_COMP     ECART_COMP             GR        GR_COMP           NPHI      NPHI_COMP       PEF_COMP      RHOB_COMP             RT        RT_COMP            RXO       RXO_COMP        SP_COMP     TVDSS_COMP       TVD_COMP 
~A
# ...
     2204.3136        12.2500        12.4423       0.011569        -3.7345        42.1162        42.1162         0.2144       0.214416         1.7457         2.1559        11.9326        11.9326         6.9660         6.9660        -4.8969      2046.3615      2064.4615
     2204.4660        12.2500        12.4456       0.011338        -3.2708        49.4872        49.4872         0.2175       0.217490         1.7811         2.1740        11.9759        11.9759         7.1571         7.1571        -5.1746      2046.4849      2064.5849
     2204.6184        12.2500        12.4567       0.010187        -2.5987        60.8243        60.8243         0.2350       0.234989         1.8635         2.1784        11.5397        11.5397         7.1507         7.1507        -5.6816      2046.6083      2064.7083
     2204.7708        12.2500        12.4798       0.011709        -1.6763        70.5882        70.5882         0.2704       0.270433         1.9740         2.1655        11.2417        11.2417         6.7318         6.7318        -6.4153      2046.7318      2064.8318
     2204.9232        12.2500        12.5057       0.010766        -1.6892        71.3592        71.3592         0.2856       0.285592         2.0141         2.1396        10.8179        10.8179         6.2473         6.2473        -7.2935      2046.8552      2064.9552
     2205.0756        12.2500        12.4912       0.010380        -2.0372        68.7256        68.7256         0.2909       0.290932         2.0021         2.1133        10.6284        10.6284         5.8301         5.8301        -7.9266      2046.9787      2065.0787
     2205.2280        12.2500        12.5110       0.011140        -2.4182        64.9275        64.9275         0.2917       0.291725         1.9613         2.0929        10.7047        10.7047         5.5203         5.5203        -8.2596      2047.1021      2065.2021
     2205.3804        12.2500        12.5833       0.011902        -2.4314        61.7551        61.7551         0.2950       0.294994         1.9522         2.0868        10.7786        10.7786         5.3160         5.3160        -8.5119      2047.2256      2065.3256
     2205.5328        12.2500        12.6153       0.008011        -2.3107        60.8459        60.8459         0.3015       0.301475         1.9969         2.0820        10.5992        10.5992         5.1404         5.1404        -9.2063      2047.3491      2065.4491
     2205.6852        12.2500        12.5991       0.006429        -2.6161        61.5110        61.5110         0.2956       0.295569         2.0123         2.0766        10.4498        10.4498         5.0044         5.0044        -9.6146      2047.4725      2065.5725
     2205.8376        12.2500        12.5914       0.007189        -3.1904        64.3265        64.3265         0.2817       0.281655         2.0147         2.0711        10.3528        10.3528         4.9073         4.9073        -9.5434      2047.5960      2065.6960
     2205.9900        12.2500        12.6119       0.007950        -3.5217        70.6987        70.6987         0.2740       0.274002         2.0657         2.0672        10.2552        10.2552         4.8441         4.8441        -8.8525      2047.7195      2065.8195
     2206.1424        12.2500        12.6721       0.010851        -2.6834        71.9690        71.9690         0.2856       0.285610         2.2465         2.0898        10.1577        10.1577         4.8878         4.8878        -7.1546      2047.8430      2065.9430
     2206.2948        12.2500        12.8126       0.029569        -0.9219        75.5387        75.5387         0.2891       0.289053         2.5460         2.1722         9.6445         9.6445         5.0025         5.0025        -4.9677      2047.9665      2066.0665
     2206.4472        12.2500        12.9250       0.050404         1.1162        81.0789        81.0789         0.2890       0.289041         2.7998         2.2741         9.0888         9.0888         5.1741         5.1741        -2.9105      2048.0899      2066.1899
     2206.5996        12.2500        12.9350       0.054991         2.6399        87.4421        87.4421         0.2941       0.294053         2.8060         2.3419         8.9941         8.9941         5.3867         5.3867        -1.7017      2048.2134      2066.3134
     2206.7520        12.2500        12.7361       0.032178         2.1102        94.8230        94.8230         0.3146       0.314636         2.6059         2.2811         9.0990         9.0990         5.8040         5.8040        -2.5950      2048.3370      2066.4370
     2206.9044        12.2500        12.8035       0.013506         0.8078       100.2403       100.2403         0.3190       0.319041         2.4489         2.2087         9.4118         9.4118         6.1797         6.1797        -3.6971      2048.4605      2066.5605
     2207.0568        12.2500        12.8544    -999.250000        -0.4407       106.4825       106.4825         0.3173       0.317271         2.3790         2.1492         9.7567         9.7567         6.3604         6.3604        -4.3260      2048.5840      2066.6840
     2207.2092        12.2500        12.8936    -999.250000        -0.9502       115.6056       115.6056         0.3180       0.318034         2.4355         2.1224         9.9758         9.9758         6.2259         6.2259        -4.0277      2048.7075      2066.8075
     2207.3616        12.2500        12.9436    -999.250000        -0.5367       124.7572       124.7572         0.3263       0.326329         2.7021         2.1293         9.8776         9.8776         5.7719         5.7719        -4.0535      2048.8310      2066.9310
     2207.5140        12.2500        12.9170    -999.250000         0.5682       130.6114       130.6114         0.3468       0.346796         2.9146         2.1504         9.5195         9.5195         5.4274         5.4274        -3.5421      2048.9545      2067.0545
     2207.6664        12.2500        12.9368       0.023322         2.0589       131.8457       131.8457         0.3698       0.369778         3.0233         2.1866         8.8381         8.8381         5.0286         5.0286        -2.9563      2049.0781      2067.1781
     2207.8188        12.2500        12.9675       0.035322         3.7430       128.6664       128.6664         0.3901       0.390127         3.0474         2.2369         7.8307         7.8307         4.5102         4.5102        -2.5829      2049.2016      2067.3016
     2207.9712        12.2500        12.9853       0.045991         5.3847       126.2920       126.2920         0.4060       0.406008         3.2508         2.2926         6.6733         6.6733         3.9737         3.9737        -2.7488      2049.3251      2067.4251
     2208.1236        12.2500        13.0150       0.039952         6.1961       130.0481       130.0481         0.4163       0.416286         3.4400         2.3160         6.0946         6.0946         3.7418         3.7418        -3.8899      2049.4487      2067.5487
     2208.2760        12.2500        13.0138       0.027767         6.4790       137.7013       137.7013         0.4223       0.422257         3.5600         2.3202         6.0257         6.0257         3.8032         3.8032        -5.1386      2049.5722      2067.6722
     2208.4284        12.2500        12.9682       0.014436         6.1097       147.1805       147.1805         0.4176       0.417554         3.5605         2.3096         6.4573         6.4573         4.1252         4.1252        -6.2488      2049.6958      2067.7958
     2208.5808        12.2500        12.8875       0.006050         4.3769       153.8305       153.8305         0.3797       0.379738         3.3289         2.2859         7.4279         7.4279         4.6113         4.6113        -7.2661      2049.8194      2067.9194
     2208.7332        12.2500        12.8486    -999.250000         3.0534       150.4808       150.4808         0.3598       0.359810         2.9912         2.2530         8.1339         8.1339         5.0468         5.0468        -8.2020      2049.9429      2068.0429
