~Version Information Block
VERS .                 2.00:  CWLS LOG ASCII STANDARD - VERSION 2.00
WRAP .                   NO:  One line per depth step
~Well Information Block
#MNEM.UNIT        Data Type   Information
#---------- ----------------  -----------
STRT .M              0.0000:  START DEPTH
STOP .M           2799.8928:  STOP DEPTH
STEP .M              0.1524:  STEP
NULL .              -999.25:  NULL VALUE
COMP .                     :  COMPANY
WELL .              GABO-18:  WELL
FLD  .                     :  FIELD
LOC  .   6.635779, 5.238893:  LOCATION
CTRY .                     :  COUNTRY
STAT .                     :  STATE
CNTY .                     :  COUNTY
API  .                     :  API NUMBER
UWI  .                     :  UNIQUE WELL ID
SRVC .                     :  SERVICE COMPANY
DATE .                     :  LOG DATE
~Curve Information Block
#MNEM.UNIT         API CODE   Curve Description
#---------- ----------------  -----------------
DEPTH.M                    :  Reference Depth
BS_COMP.INCHES             :  Bit Size
CALI_COMP.INCHES          0:  Caliper
DRHO_COMP.G/C3            0:  Density Correction Log
ECART_COMP.                :  Neutron Density Seperation
GR   .GAPI                0:  Gamma Ray
GR_COMP.GAPI              0:  Gamma Ray Composite
NPHI .V/V                  :  Neutron Porosity
NPHI_COMP.V/V              :  Neutron Porosity Composite
PEF_COMP.B/E              0:  Photo Electric Factor
RHOB_COMP.G/C3            0:  Bulk Density
RT   .OHMM                0:  True or Deep Resistivity
RT_COMP.OHMM              0:  True or Deep Resistivity Composite
RXO  .OHMM                0:  Invaded Zone Resistivity
RXO_COMP.OHMM             0:  Invaded Zone Resistivity composite
SP_COMP.MV                0:  Spontaneous Potential
TVDSS_COMP.M               :  Reference tvdss log.
TVD_COMP.M                 :  Reference tvd log.
~Parameter Information Block
#MNEM.UNIT            Value   Description
#---------- ----------------  -----------
SET  .                  LCS:  
~Other Information Block
#        DEPTH        BS_COMP      CALI_COMP      DRHO_COMP     ECART_COMP             GR        GR_COMP           NPHI      NPHI_COMP       PEF_COMP      RHOB_COMP             RT        RT_COMP            RXO       RXO_COMP        SP_COMP     TVDSS_COMP       TVD_COMP 
~A
# ...
     2108.3016        12.2500        12.5820       0.017439      -999.2500        50.6202        50.6202         0.2738       0.273792         1.7709         2.1403         8.3352         8.3352         5.1441         5.1441       -18.8678      1969.2598      1987.3598
     2108.4540        12.2500        12.6170       0.013461      -999.2500        54.7852        54.7852         0.2647       0.264717         1.7396         2.1255         8.0227         8.0227         5.0065         5.0065       -19.7665      1969.3809      1987.4809
     2108.6064        12.2500        12.5872       0.011836      -999.2500        62.4601        62.4601         0.2670       0.267005         1.7465         2.1072         7.8111         7.8111         4.8437         4.8437       -20.4390      1969.5020      1987.6020
     2108.7588        12.2500        12.6116       0.008027      -999.2500        69.9780        69.9780         0.2871       0.287128         1.8036         2.0889         7.9749         7.9749         4.8361         4.8361       -21.5218      1969.6231      1987.7231
     2108.9112        12.2500        12.6110       0.006445      -999.2500        70.6938        70.6938         0.3038       0.303759         1.8591         2.0851         8.0847         8.0847         4.9404         4.9404       -21.4948      1969.7442      1987.8442
     2109.0636        12.2500        12.6321       0.005681      -999.2500        67.3321        67.3321         0.3139       0.313888         1.8935         2.0914         8.1284         8.1284         5.1054         5.1054       -21.2720      1969.8653      1987.9653
     2109.2160        12.2500        12.6865       0.005001      -999.2500        62.0331        62.0331         0.3143       0.314341         1.9025         2.1030         8.0733         8.0733         5.2760         5.2760       -21.3765      1969.9864      1988.0864
     2109.3684        12.2500        12.7704       0.005000      -999.2500        58.8347        58.8347         0.2943       0.294348         1.9352         2.1030         7.7289         7.7289         5.2669         5.2669       -21.7567      1970.1076      1988.2076
     2109.5208        12.2500        12.7530       0.006814      -999.2500        59.1467        59.1467         0.2905       0.290515         2.0079         2.0951         7.2217         7.2217         5.2057         5.2057       -21.4230      1970.2287      1988.3287
     2109.6732        12.2500        12.7645       0.007999      -999.2500        62.5721        62.5721         0.2913       0.291339         2.1189         2.0830         6.9642         6.9642         5.1053         5.1053       -20.7444      1970.3498      1988.4498
     2109.8256        12.2500        12.7978       0.010323      -999.2500        68.9762        68.9762         0.2920       0.292000         2.2690         2.0754         6.9716         6.9716         4.9621         4.9621       -19.5118      1970.4710      1988.5710
     2109.9780        12.2500        12.8047       0.024030      -999.2500        78.3629        78.3629         0.2894       0.289401         2.4641         2.1013         6.7392         6.7392         4.7442         4.7442       -16.4060      1970.5921      1988.6921
     2110.1304        12.2500        12.9872       0.052758      -999.2500        84.8803        84.8803         0.2935       0.293523         2.9046         2.1847         6.8105         6.8105         4.5569         4.5569       -12.0084      1970.7133      1988.8133
     2110.2828        12.2500        13.2361       0.075282      -999.2500        88.9438        88.9438         0.3021       0.302140         3.3609         2.2872         6.7618         6.7618         4.4122         4.4122        -9.3243      1970.8344      1988.9344
     2110.4352        12.2500        13.4440       0.086990      -999.2500        92.3487        92.3487         0.3197       0.319733         3.6534         2.3826         6.5160         6.5160         4.3225         4.3225        -8.7971      1970.9556      1989.0556
     2110.5876        12.2500        13.4986       0.086999      -999.2500        99.0296        99.0296         0.3576       0.357648         3.4753         2.4283         6.0901         6.0901         4.3119         4.3119       -10.0702      1971.0767      1989.1767
     2110.7400        12.2500        13.4704       0.050564      -999.2500       103.4516       103.4516         0.3739       0.373894         3.3005         2.3696         5.8471         5.8471         4.1953         4.1953       -10.7679      1971.1979      1989.2979
     2110.8924        12.2500        13.4625       0.020206      -999.2500       108.9993       108.9993         0.3849       0.384929         3.2774         2.3208         5.6450         5.6450         4.0835         4.0835       -10.3004      1971.3191      1989.4191
     2111.0448        12.2500        13.4511       0.004140      -999.2500       113.7492       113.7492         0.3967       0.396666         3.3061         2.2991         5.3616         5.3616         3.9088         3.9088        -9.3614      1971.4403      1989.5403
     2111.1972        12.2500        13.4269       0.007933      -999.2500       114.5623       114.5623         0.4152       0.415205         3.2254         2.3128         4.8458         4.8458         3.5629         3.5629        -9.0139      1971.5615      1989.6615
     2111.3496        12.2500        13.4780       0.009497      -999.2500       116.1559       116.1559         0.4515       0.451505         2.9829         2.3145         4.4954         4.4954         3.1450         3.1450        -8.3436      1971.6827      1989.7827
     2111.5020        12.2500        13.5547       0.012043      -999.2500       116.2480       116.2480         0.4589       0.458902         2.8402         2.3170         4.2481         4.2481         2.8680         2.8680        -8.4425      1971.8039      1989.9039
     2111.6544        12.2500        13.5872       0.014544      -999.2500       114.5315       114.5315         0.4450       0.445015         2.7657         2.3236         4.1636         4.1636         2.7457         2.7457        -8.9510      1971.9251      1990.0251
     2111.8068        12.2500        13.5522       0.015823      -999.2500       111.1203       111.1203         0.4192       0.419217         2.7315         2.3362         4.2761         4.2761         2.7757         2.7757        -9.5104      1972.0463      1990.1463
     2111.9592        12.2500        13.4897       0.012016      -999.2500       112.0820       112.0820         0.4043       0.404342         2.8716         2.3408         4.2571         4.2571         2.8115         2.8115       -10.0407      1972.1676      1990.2676
     2112.1116        12.2500        13.4954       0.011001      -999.2500       110.7400       110.7400         0.4066       0.406553         2.9610         2.3342         4.2397         4.2397         2.7869         2.7869       -10.6963      1972.2888      1990.3888
     2112.2640        12.2500        13.5361       0.010037      -999.2500       110.1493       110.1493         0.4284       0.428396         3.0119         2.3184         4.2040         4.2040         2.7263         2.7263       -10.8534      1972.4100      1990.5100
     2112.4164        12.2500        13.6112       0.007835      -999.2500       111.9253       111.9253         0.4667       0.466699         3.0452         2.2982         4.1327         4.1327         2.6518         2.6518       -10.3664      1972.5313      1990.6313
     2112.5688        12.2500        13.7439       0.006311      -999.2500       115.2370       115.2370         0.4888       0.488821         3.1572         2.3005         3.9834         3.9834         2.6220         2.6220       -10.7176      1972.6525      1990.7525
     2112.7212        12.2500        13.7274       0.005394      -999.2500       114.0564       114.0564         0.4926       0.492602         3.2073         2.3095         3.9366         3.9366         2.5972         2.5972       -10.7040      1972.7738      1990.8738
