~Version Information Block
VERS .                 2.00:  CWLS LOG ASCII STANDARD - VERSION 2.00
WRAP .                   NO:  One line per depth step
~Well Information Block
#MNEM.UNIT        Data Type   Information
#---------- ----------------  -----------
STRT .M              0.0000:  START DEPTH
STOP .M           2748.9912:  STOP DEPTH
STEP .M              0.1524:  STEP
NULL .              -999.25:  NULL VALUE
COMP .                     :  COMPANY
WELL .               GABO13:  LOCATION
FLD  .                     :  FIELD
LOC  .   6.617986, 5.233868:  LOCATION
CTRY .                     :  COUNTRY
STAT .                     :  STATE
CNTY .                     :  COUNTY
API  .                     :  API NUMBER
UWI  .                     :  UNIQUE WELL ID
SRVC .                     :  SERVICE COMPANY
DATE .                     :  LOG DATE
~Curve Information Block
#MNEM.UNIT         API CODE   Curve Description
#---------- ----------------  -----------------
DEPTH.M                    :  Depth
BS_COMP.INCHES             :  Bit Size
CALI_COMP.INCHES          0:  Caliper
DRHO_COMP.G/C3             :  Density Correction Log
DT_COMP.US/F              0:  Compressional Sonic
ECART_COMP.                :  Neutron Density Seperation
GR_COMP.GAPI              0:  Gamma Ray
NPHI_COMP.V/V              :  Neutron Porosity
PEF_COMP.B/E              0:  Photo Electric Factor
RHOB_COMP.G/C3            0:  Bulk Density
RDeep_COMP.OHMM           0:  Deep Resistivity
RShal_COMP.OHMM           0:  Shallow Resistivity
SP_COMP.MV                0:  Spontaneous Potential
TVDSS_COMP.M               :  Reference TVD sub-sea log.
TVD_COMP.M                 :  Reference TVD log.
~Parameter Information Block
#MNEM.UNIT            Value   Description
#---------- ----------------  -----------
SET  .                  LCS:  
~Other Information Block
#        DEPTH        BS_COMP      CALI_COMP      DRHO_COMP        DT_COMP     ECART_COMP        GR_COMP      NPHI_COMP       PEF_COMP      RHOB_COMP      RDeep_COMP     RShal_COMP        SP_COMP     TVDSS_COMP       TVD_COMP 
~A
# ...
     2098.2432        12.2500        12.7312      -0.001442       104.4696         0.6151       110.1494       0.331405         2.1357         2.1784         8.4836         5.8857       -10.3810      2084.1766      2097.9766
     2098.3956        12.2500        12.7965      -0.000887       104.3492         1.5063       112.4800       0.352249         2.1592         2.1882         8.6157         5.6966       -10.8043      2084.3289      2098.1289
     2098.5480        12.2500        12.9000       0.001068       104.0569         1.3008       113.3535       0.348062         2.2659         2.1849         8.8130         5.6283       -11.1473      2084.4812      2098.2812
     2098.7004        12.2500        12.9684       0.003085       103.4438         0.6816       109.3957       0.330433         2.4136         2.1834         9.0036         5.7498       -11.5452      2084.6335      2098.4335
     2098.8528        12.2500        13.0127       0.002716       101.3140         0.1211       104.5114       0.308765         2.5577         2.1915         9.1362         5.9510       -11.8048      2084.7858      2098.5858
     2099.0052        12.2500        13.0624      -0.001076        98.2526        -0.1706       103.3241       0.292309         2.6878         2.2043         9.2165         6.1000       -11.9279      2084.9381      2098.7381
     2099.1576        12.2500        13.1379      -0.005523        96.3228         0.1819       109.5826       0.296466         2.8067         2.2150         9.2646         6.1130       -12.1332      2085.0905      2098.8905
     2099.3100        12.2500        13.1560      -0.003095        96.4954         1.2353       115.7206       0.324193         2.8942         2.2214         9.2655         6.0050       -12.3164      2085.2428      2099.0428
     2099.4624        12.2500        13.1681       0.006791        98.7618         2.3435       115.9896       0.353503         2.9119         2.2280         9.2038         5.9011       -12.5282      2085.3951      2099.1951
     2099.6148        12.2500        13.2065       0.020017       102.1088         3.2532       113.3604       0.375234         2.8567         2.2373         9.0950         5.9042       -12.8016      2085.5474      2099.3474
     2099.7672        12.2500        13.2726       0.030639       104.5849         3.9900       112.3016       0.392432         2.7752         2.2454         8.9871         6.0351       -13.0290      2085.6997      2099.4997
     2099.9196        12.2500        13.3885       0.031587       104.4156         4.0980       109.6398       0.396746         2.7495         2.2437         8.9660         6.1963       -13.0864      2085.8520      2099.6520
     2100.0720        12.2500        13.5005       0.026579       103.0459         3.2824       107.6385       0.377603         2.7915         2.2348         9.1062         6.2534       -12.9261      2086.0043      2099.8043
     2100.2244        12.2500        13.5795       0.023513       102.2510         2.1835       105.9850       0.347765         2.8468         2.2296         9.4905         6.2206       -12.7401      2086.1567      2099.9567
     2100.3768        12.2500        13.6218       0.027949       102.2938         1.6188       103.6895       0.330152         2.8528         2.2307        10.2131         6.2156       -12.6864      2086.3090      2100.1090
     2100.5292        12.2500        13.6339       0.041004       102.3278         1.6735       104.3338       0.332335         2.7824         2.2298        11.2824         6.4495       -12.7363      2086.4613      2100.2613
     2100.6816        12.2500        13.6058       0.053477       101.1463         1.5253       102.1297       0.325910         2.7216         2.2331        12.4477         7.2193       -12.9161      2086.6136      2100.4136
     2100.8340        12.2500        13.5824       0.055757        97.0714         0.8962        95.8195       0.289821         2.7863         2.2618        13.4928         8.5554       -12.8967      2086.7659      2100.5659
     2100.9864        12.2500        13.5990       0.045308        90.1600         0.3839        88.0095       0.236124         3.0102         2.3257        14.2807        10.0344       -12.5830      2086.9182      2100.7182
     2101.1388        12.2500        13.6656       0.028014        83.2306         0.7905        84.8581       0.200164         3.2951         2.4059        14.6502        10.7635       -12.3183      2087.0705      2100.8705
     2101.2912        12.2500        13.8568       0.017472        78.9382         1.7413        83.5191       0.195815         3.4567         2.4607        14.5054        10.1931       -11.9351      2087.2228      2101.0228
     2101.4436        12.2500        14.1395       0.023987        78.5134         2.4941        81.6426       0.211206         3.4605         2.4727        13.7686         8.9219       -11.3858      2087.3752      2101.1752
     2101.5960        12.2500        14.4167       0.048878        81.9359         2.9216        79.6102       0.236112         3.3691         2.4525        12.4766         7.6934       -10.8926      2087.5275      2101.3275
     2101.7484        12.2500        14.5324       0.084126        87.6372         3.4794        78.9473       0.271520         3.2317         2.4214        10.9233         6.8314       -10.6094      2087.6798      2101.4798
     2101.9008        12.2500        14.4925       0.111735        92.4898         4.6450        81.7296       0.323206         3.0613         2.3935         9.6202         6.2847       -10.4060      2087.8321      2101.6321
     2102.0532        12.2500        14.3734       0.120041        95.4514         5.9544        85.6131       0.377473         2.8991         2.3686         8.7125         5.9272       -10.1607      2087.9844      2101.7844
     2102.2056        12.2500        14.1547       0.116057        97.2962         6.4278        88.2352       0.406263         2.7921         2.3443         8.0755         5.6881        -9.9217      2088.1367      2101.9367
     2102.3580        12.2500        13.7671       0.112473        98.7460         5.5814        87.8897       0.395239         2.7641         2.3203         7.5734         5.4750        -9.7570      2088.2890      2102.0890
     2102.5104        12.2500        13.4738       0.103950        99.7525         4.4557        90.1635       0.376316         2.7978         2.2956         7.1283         5.1465        -9.5341      2088.4413      2102.2413
     2102.6628        12.2500        13.3040       0.078393       100.6770         4.0342        96.7714       0.375747         2.8387         2.2755         6.7133         4.7456        -9.0952      2088.5936      2102.3936
     2102.8152        12.2500        13.2120       0.042223       101.7083         4.1757       103.9630       0.385761         2.8610         2.2658         6.3307         4.3604        -8.5710      2088.7460      2102.5460
     2102.9676        12.2500        13.1777       0.011982       102.5766         4.3419       107.6748       0.388219         2.8784         2.2701         5.9943         4.0296        -8.1750      2088.8983      2102.6983
     2103.1200        12.2500        13.1976      -0.003333       102.8716         4.3798       108.6152       0.377995         2.9385         2.2890         5.7120         3.7693        -7.8446      2089.0506      2102.8506
     2103.2724        12.2500        13.2575      -0.007501       102.4822         4.6132       111.4152       0.369114         3.0781         2.3155         5.4594         3.5589        -7.3388      2089.2029      2103.0029
     2103.4248        12.2500        13.3419      -0.005160       101.8687         5.4722       115.2734       0.380511         3.2447         2.3394         5.2115         3.3801        -6.6233      2089.3552      2103.1552
     2103.5772        12.2500        13.4327       0.002994       101.4595         7.1895       117.9859       0.421968         3.3454         2.3562         4.9575         3.2156        -5.7782      2089.5075      2103.3075
