~Version Section
VERS.   2.0:  CWLS Log ASCII Standard - Version 2.0
WRAP.    NO:  One data record per depth sample.
~Well Information Section
#MNEM.UNIT      VALUE                    DESCRIPTION
#---------      ----------               -----------
STRT.M                   0               :START DEPTH
STOP.M          3180.43555               :STOP DEPTH
STEP.M               .1524               :STEP
NULL.          -999.250000               :NULL VALUE
COMP.                                    :Oil Company
WELL.         GABO-21                    :Non unique well name
FLD.              FNG00147               :Field name
LOC.  6.610748, 5.225944                 :Location
PROV.                                    :Province
SRVC.                                    :Service
DATE.           2013-08-16               :Date unloaded
UWI.          			               :Unique well id
~Curve Information Section
#MNEM.UNIT                   API CODE                 Curve Description
#---------                   ----------               -----------------
BOREHOLE-DEPTH.M                                   :DEPTH
GR.GAPI                                   :
RT.OHMM                                   :
RXO.OHMM                                   :
TVD.M                                   :
TVDSS.M                                   :
~A
# ...
3046.7808    22.8309      167.4842     137.1930     2500.6272    2481.3071    
3046.9333    23.4365      193.2070     220.8537     2500.6267    2481.3069    
3047.0857    23.4365      187.4980     116.6761     2500.6265    2481.3064    
3047.2380    23.1769      218.1933     125.3239     2500.6262    2481.3064    
3047.3904    23.0908      207.7964     122.3150     2500.6262    2481.3062    
3047.5427    24.2150      245.2980     169.7493     2500.6260    2481.3059    
3047.6953    24.9073      214.6230     159.4627     2500.6257    2481.3059    
3047.8477    25.8583      245.2959     200.5247     2500.6257    2481.3057    
3048.0000    25.9448      200.3091     121.5701     2500.6255    2481.3054    
3048.1523    26.4638      208.8965     124.5492     2500.6255    2481.3054    
3048.3049    27.4150      199.2635     122.3394     2500.6255    2481.3054    
3048.4573    28.2797      195.1988     237.8291     2500.6255    2481.3054    
3048.6096    28.8846      217.0197     173.9783     2500.6255    2481.3054    
3048.7620    27.9335      272.0303     191.4410     2500.6255    2481.3054    
3048.9146    27.3280      228.3309     216.4743     2500.6255    2481.3057    
3049.0669    27.5012      233.7216     144.9880     2500.6255    2481.3057    
3049.2192    28.3656      176.9587     144.9831     2500.6257    2481.3059    
3049.3716    28.1069      201.3604     148.1685     2500.6260    2481.3059    
3049.5239    28.7120      249.9267     196.8316     2500.6262    2481.3062    
3049.6765    28.7120      210.0134     245.9393     2500.6262    2481.3064    
3049.8289    28.7119      197.2110     149.2172     2500.6265    2481.3064    
3049.9812    28.5391      219.4298     102.5107     2500.6267    2481.3069    
3050.1335    28.4530      243.8225     173.9575     2500.6272    2481.3071    
3050.2861    29.4040      270.2490     133.5902     2500.6274    2481.3074    
3050.4385    29.4042      350.9902     223.1549     2500.6277    2481.3076    
3050.5908    29.9223      323.7767     200.5663     2500.6282    2481.3081    
3050.7432    28.6257      208.8935     220.8996     2500.6284    2481.3086    
3050.8958    29.4045      227.0359     225.4900     2500.6289    2481.3088    
3051.0481    31.1341      279.5969     225.4761     2500.6294    2481.3093    
3051.2004    32.6904      251.5073     206.2725     2500.6299    2481.3098    
3051.3528    32.3437      207.7748     257.6900     2500.6304    2481.3103    
3051.5051    30.2684      210.0336     163.1789     2500.6309    2481.3108    
3051.6577    29.4902      270.1798     176.9110     2500.6313    2481.3113    
3051.8101    29.4907      197.2036     176.8871     2500.6321    2481.3120    
3051.9624    30.8749      179.4776     135.3665     2500.6326    2481.3125    
3052.1147    32.0853      195.1949     206.2367     2500.6333    2481.3132    
3052.2673    31.8254      208.8820     191.4056     2500.6338    2481.3137    
3052.4197    30.8743      186.5564     131.8319     2500.6345    2481.3145    
3052.5720    32.2590      173.6824     139.9842     2500.6353    2481.3152    
3052.7244    36.8433      163.8203     112.7723     2500.6360    2481.3159    
3052.8770    42.8090      225.6970     102.5052     2500.6367    2481.3167    
3053.0293    43.9318      192.2097     141.9524     2500.6375    2481.3174    
3053.1816    42.0294      124.7677     143.0974     2500.6384    2481.3184    
3053.3340    40.1268      151.7596     552.8889     2500.6392    2481.3191    
3053.4863    38.1383      164.5237     1000.0000    2500.6401    2481.3201    
3053.6389    36.5803      172.0860     1000.0000    2500.6411    2481.3210    
3053.7913    31.9972      172.0890     999.8729     2500.6418    2481.3220    
3053.9436    28.7115      180.3119     646.5897     2500.6428    2481.3228    
3054.0959    27.4148      110.5658     462.7144     2500.6438    2481.3237    
3054.2485    27.4153      129.3537     1000.0000    2500.6450    2481.3250    
3054.4009    28.7987      225.7101     1000.0000    2500.6460    2481.3259    
3054.5532    28.6257      178.6151     1000.0000    2500.6470    2481.3269    
3054.7056    29.4039      159.5792     999.7001     2500.6479    2481.3279    
3054.8582    29.5766      121.3214     167.1149     2500.6492    2481.3291    
3055.0105    29.8362      136.2768     322.1849     2500.6504    2481.3303    
3055.1628    29.4904      191.2319     296.8236     2500.6516    2481.3315    
3055.3152    29.4902      104.8581     84.7369      2500.6526    2481.3328    
3055.4675    29.0575      121.7723     44.4973      2500.6538    2481.3340    
3055.6201    28.1927      216.9763     240.4970     2500.6550    2481.3352    
3055.7725    27.3279      170.5480     193.2177     2500.6565    2481.3364    
3055.9248    26.4635      248.3336     267.2651     2500.6577    2481.3376    
3056.0771    26.4633      155.5929     92.8324      2500.6589    2481.3391    
3056.2297    26.0309      180.3681     92.8659      2500.6604    2481.3403    
3056.3821    25.5982      277.6696     189.6873     2500.6619    2481.3418    
3056.5344    24.3880      235.1271     168.3782     2500.6631    2481.3433    
3056.6868    24.8203      240.8390     144.0391     2500.6646    2481.3445    
3056.8394    25.0798      227.0114     357.7281     2500.6660    2481.3462    
3056.9917    25.1657      216.9967     91.9540      2500.6675    2481.3477    
3057.1440    24.3009      213.4568     85.2009      2500.6692    2481.3491    
3057.2964    23.5230      232.3482     300.9461     2500.6707    2481.3506    
3057.4487    23.7824      191.2522     204.2704     2500.6721    2481.3523    
3057.6013    23.3503      153.0139     86.2502      2500.6738    2481.3538    
3057.7537    23.6959      166.7488     72.4338      2500.6753    2481.3555    
3057.9060    23.1772      224.4226     218.6798     2500.6770    2481.3572    
3058.0583    23.0904      220.7040     220.9228     2500.6787    2481.3586    
3058.2109    22.2259      348.0121     309.0216     2500.6804    2481.3604    
3058.3633    21.8801      179.4633     91.9521      2500.6819    2481.3618    
3058.5156    21.9668      141.6587     79.8857      2500.6833    2481.3633    
3058.6680    22.3993      160.3125     140.2569     2500.6851    2481.3650    
3058.8206    23.2642      261.3661     859.6716     2500.6865    2481.3665    
3058.9729    24.3096      148.0796     80.5380      2500.6880    2481.3679    
3059.1252    23.5309      202.3799     106.2620     2500.6895    2481.3694    
3059.2776    22.1474      168.9921     117.3542     2500.6909    2481.3708    
3059.4299    21.1020      202.3956     143.2595     2500.6924    2481.3723    
3059.5825    21.5344      212.2676     999.7012     2500.6938    2481.3738    
3059.7349    22.1394      147.4466     172.5024     2500.6953    2481.3752    
3059.8872    22.3120      129.8273     51.9736      2500.6965    2481.3767    
3060.0396    22.3984      221.8901     98.4479      2500.6980    2481.3779    
3060.1921    22.3985      197.2213     105.1462     2500.6992    2481.3794    
3060.3445    22.6583      242.3000     89.0136      2500.7007    2481.3806    
3060.4968    23.0041      214.6133     77.9912      2500.7019    2481.3818    
3060.6492    22.9174      209.9780     232.6833     2500.7031    2481.3833    
3060.8018    22.1393      135.2052     70.2522      2500.7046    2481.3845    
3060.9541    22.1393      83.2372      26.9672      2500.7058    2481.3857    
3061.1064    22.2260      91.1904      27.6331      2500.7068    2481.3870    
3061.2588    23.3504      207.7771     71.5859      2500.7080    2481.3882    
3061.4111    23.8692      194.2022     99.4480      2500.7092    2481.3894    
3061.5637    24.6476      216.9874     116.6575     2500.7104    2481.3904    
3061.7161    25.3389      182.0946     84.7508      2500.7117    2481.3916    
3061.8684    25.5983      249.9437     89.4282      2500.7126    2481.3926    
3062.0208    25.1660      273.8781     97.0136      2500.7139    2481.3938    
3062.1733    24.9070      213.4987     184.6801     2500.7148    2481.3950    
