~Version Information Block
VERS .                 2.00:  CWLS LOG ASCII STANDARD - VERSION 2.00
WRAP .                   NO:  One line per depth step
~Well Information Block
#MNEM.UNIT        Data Type   Information
#---------- ----------------  -----------
STRT .M              0.0000:  START DEPTH
STOP .M           2954.7312:  STOP DEPTH
STEP .M              0.1524:  STEP
NULL .              -999.25:  NULL VALUE
COMP .                     :  COMPANY
WELL .               GABO16:  WELL
FLD  .                     :  FIELD
LOC  .   6.656374, 5.257763:  LOCATION
CTRY .                     :  COUNTRY
STAT .                     :  STATE
CNTY .                     :  COUNTY
API  .                     :  API NUMBER
UWI  .                     :  UNIQUE WELL ID
SRVC .                     :  SERVICE COMPANY
DATE .                     :  LOG DATE
~Curve Information Block
#MNEM.UNIT         API CODE   Curve Description
#---------- ----------------  -----------------
DEPTH.M                    :  Reference Depth
BS_COMP.INCHES             :  Bit Size
CALI_COMP.INCHES           :  Caliper
DRHO_COMP.G/C3             :  Density Neutron Seperation
DT_COMP.US/F              0:  Compressional Sonic
GR_COMP.GAPI              0:  Gamma Ray
NPHI_COMP.V/V              :  Neutron Porosity
PEF_COMP.B/E              0:  Photo Electric Factor
RHOB_COMP.G/C3            0:  Bulk Density
RT_COMP.OHMM              0:  True or Deep Resistivity
RXO_COMP.OHMM             0:  Invaded Zone Resistivity
SP_COMP.MV                0:  Spontanuous Potential
TVDSS_COMP.M               :  Reference TVD sub-sea log.
TVD_COMP.M                 :  Reference TVD log.
~Parameter Information Block
#MNEM.UNIT            Value   Description
#---------- ----------------  -----------
SET  .                  LCS:  
~Other Information Block
COMMENT:
COMMENT:
$$MUX      Data from LAS tape
$$MUX      fevsbd 09/10/97 ng95603  ASCII:      GABO-16
$$MUX
$$MUX

#        DEPTH        BS_COMP      CALI_COMP      DRHO_COMP        DT_COMP        GR_COMP      NPHI_COMP       PEF_COMP      RHOB_COMP        RT_COMP       RXO_COMP        SP_COMP     TVDSS_COMP       TVD_COMP 
~A
# ...
     2094.7380        12.2500        12.4592      -0.012806       109.2475        65.9110       0.294374         2.0186         2.1491        15.2310         7.4434        71.2900      1950.3765      1970.8765
     2094.8904        12.2500        12.5392      -0.008802       107.8699        65.1590       0.293319         2.1289         2.1753        13.5230         7.6936        70.9284      1950.5067      1971.0067
     2095.0428        12.2500        12.6441      -0.005183       105.8792        66.7028       0.294933         2.3331         2.2230        12.0310         7.4922        70.7514      1950.6368      1971.1368
     2095.1952        12.2500        12.6755       0.001513       103.8545        70.9974       0.295428         2.5384         2.2804        10.8771         7.7966        70.6680      1950.7670      1971.2670
     2095.3476        12.2500        12.6585       0.010467       102.1345        75.9962       0.291402         2.6179         2.3242        10.1474         9.8691        70.7105      1950.8972      1971.3972
     2095.5000        12.2500        12.6914       0.013640       102.2336        80.0032       0.295380         2.5464         2.3442         9.7783        10.6063        71.0390      1951.0273      1971.5273
     2095.6524        12.2500        12.7186       0.006278       104.2104        83.0962       0.315172         2.4125         2.3493         9.6983         8.1952        71.3027      1951.1575      1971.6575
     2095.8048        12.2500        12.7031      -0.004983       105.2516        85.9567       0.335487         2.2978         2.3503         9.8735         6.8890        71.0372      1951.2877      1971.7877
     2095.9572        12.2500        12.6856      -0.013279       104.1504        88.2581       0.336898         2.1943         2.3519        10.2538         7.6258        70.5825      1951.4178      1971.9178
     2096.1096        12.2500        12.6914      -0.017893       102.7409        88.7396       0.323903         2.0368         2.3546        10.8591         8.0714        70.0888      1951.5480      1972.0480
     2096.2620        12.2500        12.6914      -0.021199       102.5114        85.7260       0.311829         1.8146         2.3525        11.8386         8.1853        69.3270      1951.6782      1972.1782
     2096.4144        12.2500        12.6862      -0.024292       102.7927        77.8654       0.298989         1.6255         2.3368        13.3186         8.5942        68.5325      1951.8083      1972.3083
     2096.5668        12.2500        12.8014      -0.025988       102.7619        66.7600       0.277176         1.5423         2.3102        15.1970         9.7515        67.8349      1951.9385      1972.4385
     2096.7192        12.2500        13.0234      -0.025503       103.1261        56.2814       0.251085         1.5527         2.2844        17.2347        11.0715        67.3771      1952.0686      1972.5686
     2096.8716        12.2500        13.2520      -0.025512       104.2608        48.4362       0.233812         1.6240         2.2646        19.2549        11.4787        67.0095      1952.1989      1972.6989
     2097.0240        12.2500        13.4730      -0.027703       105.6500        42.3457       0.230586         1.7161         2.2467        21.1583        11.2823        66.5801      1952.3289      1972.8289
     2097.1764        12.2500        13.4174      -0.030499       108.0746        37.2606       0.237162         1.7651         2.2248        22.8994        10.9299        66.6298      1952.4591      1972.9591
     2097.3288        12.2500        12.9239      -0.033191       111.9270        34.1594       0.248419         1.7131         2.1978        24.3729        10.3048        67.4044      1952.5892      1973.0892
     2097.4812        12.2500        12.4451      -0.034293       114.9106        33.0233       0.262728         1.5796         2.1701        25.3934         9.2884        68.7365      1952.7194      1973.2194
     2097.6336        12.2500        12.2742      -0.034200       115.7114        32.2598       0.276771         1.4467         2.1489        25.9409         8.3494        70.3724      1952.8495      1973.3495
     2097.7860        12.2500        12.2404      -0.034099       115.0465        31.4740       0.285936         1.3662         2.1394        26.2295         8.2258        71.8894      1952.9797      1973.4797
     2097.9384        12.2500        12.2384      -0.033785       113.5907        31.3910       0.287052         1.3277         2.1393        26.5674         8.5255        72.9195      1953.1097      1973.6097
     2098.0908        12.2500        12.2538      -0.030777       112.1896        31.6449       0.283733         1.3131         2.1426        27.2151         8.4873        73.5966      1953.2399      1973.7399
     2098.2432        12.2500        12.2557      -0.023710       111.1398        30.6360       0.278784         1.3193         2.1450        27.9956         8.0965        74.2141      1953.3701      1973.8701
     2098.3956        12.2500        12.2285      -0.018336       110.5860        28.0567       0.270527         1.3544         2.1483        28.5496         7.7484        74.7480      1953.5002      1974.0002
     2098.5480        12.2500        12.1974      -0.019321       110.5108        25.9524       0.259226         1.4014         2.1503        29.2252         7.5555        75.1992      1953.6302      1974.1302
     2098.7004        12.2500        12.1876      -0.023991       110.6693        25.7113       0.249436         1.4137         2.1449        30.3178         7.4592        75.7628      1953.7605      1974.2605
     2098.8528        12.2500        12.1875      -0.027085       111.1150        26.6113       0.246952         1.3834         2.1322        31.1615         7.4554        76.5701      1953.8906      1974.3906
     2099.0052        12.2500        12.1875      -0.027594       111.4086        27.5817       0.250890         1.3538         2.1231        31.1906         7.4428        77.4555      1954.0208      1974.5208
     2099.1576        12.2500        12.1875      -0.027093       111.4629        28.0082       0.256253         1.3550         2.1213        30.6914         7.3942        78.0612      1954.1509      1974.6509
     2099.3100        12.2500        12.1875      -0.025296       111.9845        27.9015       0.258681         1.3715         2.1214        30.2988         7.3634        78.3181      1954.2810      1974.7810
     2099.4624        12.2500        12.1875      -0.022801       112.7791        27.1960       0.257055         1.3793         2.1181        30.4670         7.3278        78.4247      1954.4111      1974.9111
     2099.6148        12.2500        12.1855      -0.020510       113.4661        26.2380       0.254378         1.3803         2.1127        31.0006         7.2668        78.3302      1954.5413      1975.0413
     2099.7672        12.2500        12.1836      -0.020017       114.0352        26.0352       0.253948         1.3781         2.1103        31.2042         7.1042        78.2305      1954.6714      1975.1714
     2099.9196        12.2500        12.1855      -0.022602       114.2114        26.2999       0.257255         1.3650         2.1116        30.8232         6.9323        78.2186      1954.8015      1975.3015
     2100.0720        12.2500        12.1875      -0.025484       114.2142        26.3769       0.260000         1.3443         2.1133        30.1968         6.9735        77.8488      1954.9316      1975.4316
     2100.2244        12.2500        12.1875      -0.025503       114.6014        26.1896       0.260000         1.3342         2.1134        29.8328         7.0768        77.4495      1955.0616      1975.5616
     2100.3768        12.2500        12.1875      -0.025981       114.9409        25.9734       0.260011         1.3391         2.1120        30.1202         7.0844        77.7162      1955.1918      1975.6918
     2100.5292        12.2500        12.1875      -0.023202       114.3961        26.0515       0.261898         1.3523         2.1111        30.9745         7.0211        78.3912      1955.3220      1975.8220
