~Version Information Block
VERS .                 2.00:  CWLS LOG ASCII STANDARD - VERSION 2.00
WRAP .                   NO:  One line per depth step
~Well Information Block
#MNEM.UNIT        Data Type   Information
#---------- ----------------  -----------
STRT .M              0.0000:  START DEPTH
STOP .M           2731.4652:  STOP DEPTH
STEP .M              0.1524:  STEP
NULL .              -999.25:  NULL VALUE
COMP .                     :  COMPANY
WELL .              GABO-19:  WELL
FLD  .                     :  FIELD
LOC  .   6.687920, 5.237424:  LOCATION
CTRY .                     :  COUNTRY
STAT .                     :  STATE
CNTY .                     :  COUNTY
API  .                     :  API NUMBER
UWI  .                     :  UNIQUE WELL ID
SRVC .                     :  SERVICE COMPANY
DATE .                     :  LOG DATE
~Curve Information Block
#MNEM.UNIT         API CODE   Curve Description
#---------- ----------------  -----------------
DEPTH.M                    :  Reference TVD log.
BS_COMP.INCHES             :  BIT SIZE
DRHO_COMP.G/C3            0:  Density Correction
GR_COMP.GAPI              0:  Gamma Ray
LLS_COMP.OHMM             0:  Deep Laterolog resistivity
NPHI_COMP.V/V              :  Neutron Porosity
PEF_COMP.B/E              0:  Photo Electric Facotr
RHOB_COMP.G/C3            0:  Bulk Density
RT_COMP.OHMM              0:  True Resistivity
RXO_COMP.OHMM             0:  Invaded Zone Resistivity
SP_COMP.MV                0:  Spontaneous Potential
TVDSS_COMP.M               :  Reference TVD sub-sea log.
TVD_COMP.M                 :  Reference TVD log.
~Parameter Information Block
#MNEM.UNIT            Value   Description
#---------- ----------------  -----------
SET  .                  LCS:  
~Other Information Block
#        DEPTH        BS_COMP      DRHO_COMP        GR_COMP       LLS_COMP      NPHI_COMP       PEF_COMP      RHOB_COMP        RT_COMP       RXO_COMP        SP_COMP     TVDSS_COMP       TVD_COMP 
~A
# ...
     1901.9520         9.8750       0.000489        56.8085        19.8271       0.304682         1.8054         2.1061        26.0190        11.8945        50.3065      1764.6796      1782.6796
     1902.1044         9.8750       0.000667        62.2624        19.3179       0.308100         1.8348         2.1008        25.2260        11.5676        50.1363      1764.8037      1782.8037
     1902.2568         9.8750       0.002912        64.7898        18.7956       0.311108         1.8459         2.0914        24.4370        12.2461        50.0765      1764.9277      1782.9277
     1902.4092         9.8750       0.006485        65.1706        18.3155       0.314544         1.8515         2.0818        23.7283        13.5170        50.0989      1765.0518      1783.0518
     1902.5616         9.8750       0.009488        64.7153        17.9022       0.319213         1.8545         2.0750        23.1335        14.8985        50.1856      1765.1759      1783.1759
     1902.7140         9.8750       0.009912        64.4411        17.5596       0.324371         1.8570         2.0718        22.6494        15.6800        50.2980      1765.3000      1783.3000
     1902.8664         9.8750       0.008907        64.1093        17.3344       0.327974         1.8604         2.0718        22.3349        15.5477        50.4018      1765.4241      1783.4241
     1903.0188         9.8750       0.009224        63.4525        17.2752       0.328473         1.8635         2.0729        22.2493        14.8710        50.4328      1765.5481      1783.5481
     1903.1712         9.8750       0.011178        62.6725        17.4303       0.326161         1.8634         2.0735        22.4510        13.9403        50.3392      1765.6722      1783.6722
     1903.3236         9.8750       0.012107        62.1884        17.7781       0.323179         1.8569         2.0733        22.9056        13.0798        50.1823      1765.7962      1783.7962
     1903.4760         9.8750       0.010236        61.9904        18.2484       0.321037         1.8433         2.0738        23.5145        12.7028        50.1032      1765.9203      1783.9203
     1903.6284         9.8750       0.007300        61.8118        18.7135       0.320297         1.8266         2.0776        24.1080        13.2214        50.2144      1766.0444      1784.0444
     1903.7808         9.8750       0.005698        61.6952        19.0707       0.320671         1.8124         2.0855        24.5555        14.7610        50.4747      1766.1684      1784.1684
     1903.9332         9.8750       0.006328        62.0167        19.2787       0.320963         1.7982         2.0957        24.8104        16.9866        50.7396      1766.2924      1784.2924
     1904.0856         9.8750       0.008055        62.4610        19.3861       0.319589         1.7728         2.1041        24.9466        18.8638        50.9306      1766.4165      1784.4165
     1904.2380         9.8750       0.009198        62.3095        19.4583       0.315585         1.7414         2.1066        25.0510        19.2116        51.0921      1766.5405      1784.5405
     1904.3904         9.8750       0.009319        61.4403        19.5269       0.310569         1.7214         2.1030        25.1595        18.1871        51.2931      1766.6645      1784.6645
     1904.5428         9.8750       0.008218        60.1239        19.5913       0.307574         1.7151         2.0957        25.2596        16.4063        51.5203      1766.7886      1784.7886
     1904.6952         9.8750       0.005832        59.1188        19.6523       0.308344         1.7126         2.0894        25.3447        14.6389        51.6832      1766.9126      1784.9126
     1904.8476         9.8750       0.002769        59.0762        19.7182       0.314106         1.7110         2.0888        25.4191        13.4602        51.7102      1767.0366      1785.0366
     1905.0000         9.8750       0.000676        59.8694        19.7852       0.322418         1.7111         2.0952        25.4821        13.0172        51.6942      1767.1606      1785.1606
     1905.1524         9.8750       0.003114        61.1961        19.8503       0.328873         1.7102         2.1108        25.5238        13.5828        51.7809      1767.2846      1785.2846
     1905.3048         9.8750       0.010973        62.3683        19.9341       0.329662         1.7023         2.1323        25.5853        14.8790        52.0008      1767.4086      1785.4086
     1905.4572         9.8750       0.021571        62.5205        20.1140       0.323152         1.6876         2.1553        25.7927        16.3216        52.3171      1767.5326      1785.5326
     1905.6096         9.8750       0.027837        61.9782        20.4412       0.313751         1.6773         2.1729        26.2385        16.6891        52.6292      1767.6566      1785.6566
     1905.7620         9.8750       0.025359        62.1620        20.9182       0.304943         1.6758         2.1787        26.9295        15.3768        52.8916      1767.7806      1785.7806
     1905.9144         9.8750       0.018666        64.0008        21.3925       0.297381         1.6767         2.1734        27.6259        13.4105        53.1279      1767.9046      1785.9046
     1906.0668         9.8750       0.013657        65.8363        21.6791       0.289593         1.6758         2.1600        28.0425        11.8724        53.3446      1768.0285      1786.0285
     1906.2192         9.8750       0.010704        63.8326        21.7285       0.280971         1.6725         2.1452        28.1012        11.2020        53.5237      1768.1525      1786.1525
     1906.3716         9.8750       0.007269        56.1427        21.6547       0.272744         1.6640         2.1333        27.9800        11.4785        53.6512      1768.2765      1786.2765
     1906.5240         9.8750       0.004761        45.4919        21.6621       0.266504         1.6442         2.1262        27.9887        12.6308        53.7363      1768.4005      1786.4005
     1906.6764         9.8750       0.007010        35.8371        21.8295       0.262449         1.6181         2.1237        28.2431        14.5768        53.8118      1768.5244      1786.5244
     1906.8288         9.8750       0.013083        29.7012        22.0688       0.258815         1.5995         2.1242        28.6178        16.8670        53.9135      1768.6484      1786.6484
     1906.9812         9.8750       0.017205        26.8397        22.2217       0.253419         1.5913         2.1261        28.8885        18.8038        54.0468      1768.7723      1786.7723
     1907.1336         9.8750       0.015903        26.1334        22.1722       0.245148         1.5874         2.1290        28.8947        19.5671        54.2210      1768.8963      1786.8963
     1907.2860         9.8750       0.012800        26.5623        22.0012       0.234791         1.5839         2.1336        28.7526        19.0195        54.4219      1769.0202      1787.0202
     1907.4384         9.8750       0.012912        27.2684        21.9345       0.223943         1.5814         2.1421        28.7660        17.5496        54.6195      1769.1442      1787.1442
     1907.5908         9.8750       0.016295        27.9578        22.1410       0.214308         1.5815         2.1548        29.1556        15.7550        54.7881      1769.2681      1787.2681
     1907.7432         9.8750       0.019916        29.0635        22.7434       0.207491         1.5834         2.1694        30.0932        14.4873        54.8840      1769.3920      1787.3920
     1907.8956         9.8750       0.019872        30.3451        23.6135       0.204362         1.5852         2.1795        31.4037        14.3254        54.8924      1769.5160      1787.5160
     1908.0480         9.8750       0.014557        31.0373        24.5077       0.207760         1.5871         2.1784        32.7585        15.8854        54.8121      1769.6399      1787.6399
     1908.2004         9.8750       0.010624        31.3627        25.1382       0.217346         1.5923         2.1691        33.7625        18.7700        54.6831      1769.7638      1787.7638
