~Version Information Block
VERS .                 2.00:  CWLS LOG ASCII STANDARD - VERSION 2.00
WRAP .                   NO:  One line per depth step
~Well Information Block
#MNEM.UNIT        Data Type   Information
#---------- ----------------  -----------
STRT .M           1550.0604:  START DEPTH
STOP .M           3909.9744:  STOP DEPTH
STEP .M              0.1524:  STEP
NULL .              -999.25:  NULL VALUE
COMP .                     :  COMPANY
WELL .               GABO52:  WELL
FLD  .                     :  FIELD
LOC  .   6.643655, 5.227736:  LOCATION
CTRY .                     :  COUNTRY
STAT .                     :  STATE
CNTY .                     :  COUNTY
API  .                     :  API NUMBER
UWI  .                     :  UNIQUE WELL ID
SRVC .                     :  SERVICE COMPANY
DATE .                     :  LOG DATE
~Curve Information Block
#MNEM.UNIT         API CODE   Curve Description
#---------- ----------------  -----------------
DEPTH.M                    :  Depth
DRHO .G/C3                 :  Density Correction Log
DTS_COMP.US/F              :  Shear Sonic 
DT_COMP.US/F               :  Compressional Sonic
GR_COMP.GAPI               :  Gamma Ray
HCAL .INCHES               :  Caliper
NPHI_COMP.V/V              :  Neutron Porosity
PEF_COMP.B/E               :  Photo Electric Factor
RDEEP_COMP.OHMM            :  Deep Resistivity
RHOB_COMP.G/C3             :  Bulk Density
RSHAL_COMP.OHMM            :  Shallow Resistivity
TVD  .M                    :  Reference TVD
TVDSS.M                    :  Reference TVDss
~Parameter Information Block
#MNEM.UNIT            Value   Description
#---------- ----------------  -----------
SET  .                  LCS:  
~Other Information Block
#        DEPTH           DRHO       DTS_COMP        DT_COMP        GR_COMP           HCAL      NPHI_COMP       PEF_COMP     RDEEP_COMP      RHOB_COMP     RSHAL_COMP            TVD          TVDSS 
~A
# ...
     2757.5256    -999.250000      -999.2500        93.5325        70.6964      -999.2500    -999.250000      -999.2500      -999.2500      -999.2500      -999.2500      2510.0356      2489.9155
     2757.6780    -999.250000      -999.2500        92.0896        70.7402      -999.2500    -999.250000      -999.2500      -999.2500      -999.2500      -999.2500      2510.1501      2490.0300
     2757.8304    -999.250000      -999.2500        92.2153        70.3672      -999.2500    -999.250000      -999.2500      -999.2500      -999.2500      -999.2500      2510.2646      2490.1445
     2757.9828    -999.250000      -999.2500        95.8114        74.3217      -999.2500    -999.250000      -999.2500      -999.2500      -999.2500      -999.2500      2510.3792      2490.2590
     2758.1352    -999.250000      -999.2500        95.3867        73.7144      -999.2500    -999.250000      -999.2500      -999.2500      -999.2500      -999.2500      2510.4927      2490.3726
     2758.2876    -999.250000      -999.2500        95.8362        75.0545      -999.2500    -999.250000      -999.2500      -999.2500      -999.2500      -999.2500      2510.6062      2490.4861
     2758.4400    -999.250000      -999.2500        96.2452        74.8708      -999.2500    -999.250000      -999.2500      -999.2500      -999.2500      -999.2500      2510.7195      2490.5994
     2758.5924    -999.250000      -999.2500        95.8222        81.4982      -999.2500    -999.250000      -999.2500      -999.2500      -999.2500      -999.2500      2510.8330      2490.7129
     2758.7448    -999.250000      -999.2500        95.8199        83.7368      -999.2500    -999.250000      -999.2500      -999.2500      -999.2500      -999.2500      2510.9463      2490.8262
     2758.8972    -999.250000      -999.2500        95.9279        86.2507      -999.2500    -999.250000      -999.2500      -999.2500      -999.2500      -999.2500      2511.0598      2490.9397
     2759.0496    -999.250000      -999.2500        94.9725        85.4484         8.5013       0.407448      -999.2500      -999.2500      -999.2500      -999.2500      2511.1731      2491.0530
     2759.2020    -999.250000      -999.2500        92.4514        88.7095         8.8379       0.401875      -999.2500      -999.2500      -999.2500      -999.2500      2511.2866      2491.1665
     2759.3544    -999.250000      -999.2500        91.1566        90.3411         9.0400       0.434944      -999.2500      -999.2500      -999.2500      -999.2500      2511.3999      2491.2798
     2759.5068    -999.250000      -999.2500        88.6446        93.7044         9.1073       0.451034      -999.2500      -999.2500      -999.2500      -999.2500      2511.5134      2491.3933
     2759.6592    -999.250000      -999.2500        88.7556        92.2481         9.1297       0.499971      -999.2500      -999.2500      -999.2500      -999.2500      2511.6267      2491.5066
     2759.8116    -999.250000      -999.2500        89.7226        89.1458         9.2195       0.566908      -999.2500      -999.2500      -999.2500      -999.2500      2511.7402      2491.6201
     2759.9640    -999.250000      -999.2500        90.4354        83.5573         9.1410       0.524954      -999.2500      -999.2500      -999.2500      -999.2500      2511.8535      2491.7334
     2760.1164    -999.250000      -999.2500        91.6942        80.3274         8.9726       0.547739      -999.2500      -999.2500      -999.2500      -999.2500      2511.9670      2491.8469
     2760.2688    -999.250000      -999.2500        96.4343        76.0112         8.8828       0.519391      -999.2500      -999.2500      -999.2500      -999.2500      2512.0803      2491.9602
     2760.4212    -999.250000      -999.2500        96.1927        72.8817         8.9502       0.532729      -999.2500      -999.2500      -999.2500      -999.2500      2512.1938      2492.0737
     2760.5736    -999.250000      -999.2500        97.1112        71.1641         9.2644       0.466993      -999.2500      -999.2500      -999.2500      -999.2500      2512.3071      2492.1870
     2760.7260    -999.250000      -999.2500        98.3497        72.8578         9.2195       0.441871      -999.2500      -999.2500      -999.2500      -999.2500      2512.4207      2492.3005
     2760.8784    -999.250000      -999.2500       100.1987        76.2534         9.7357       0.395974      -999.2500      -999.2500      -999.2500      -999.2500      2512.5339      2492.4138
     2761.0308       0.153396      -999.2500       103.6495        78.3716         9.5786       0.384142        10.0000      -999.2500      -999.2500      -999.2500      2512.6475      2492.5273
     2761.1832       0.055263      -999.2500       102.2869        81.4771         9.3991       0.380505         9.8719      -999.2500      -999.2500      -999.2500      2512.7607      2492.6406
     2761.3356      -0.000414      -999.2500       100.4107        79.5608         9.5113       0.418863         9.3444      -999.2500      -999.2500      -999.2500      2512.8743      2492.7542
     2761.4880       0.009635      -999.2500        99.2451        76.9393        10.0836       0.404198         8.4931      -999.2500      -999.2500      -999.2500      2512.9875      2492.8674
     2761.6404       0.010346      -999.2500        98.2856        74.2127         8.8379       0.423704         7.5433      -999.2500      -999.2500      -999.2500      2513.1011      2492.9810
     2761.7928       0.019972      -999.2500        95.7552        75.3591         8.7257       0.378548         6.9927      -999.2500      -999.2500      -999.2500      2513.2144      2493.0942
     2761.9452       0.033232      -999.2500        94.7531        74.3225         9.1971       0.350218         6.9303      -999.2500      -999.2500      -999.2500      2513.3279      2493.2078
     2762.0976       0.072292      -999.2500        95.2555        73.1317        10.0051       0.287687         7.0185      -999.2500      -999.2500      -999.2500      2513.4412      2493.3210
     2762.2500       0.116374      -999.2500        91.5051        69.9875         9.0400       0.280170         7.0082      -999.2500      -999.2500      -999.2500      2513.5547      2493.4346
     2762.4024       0.141844      -999.2500        95.9884        67.4072         9.6460       0.269801         6.8236      -999.2500      -999.2500      -999.2500      2513.6682      2493.5481
     2762.5548       0.160414      -999.2500        94.1712        64.5862         9.9602       0.276319         6.7697      -999.2500      -999.2500      -999.2500      2513.7815      2493.6614
     2762.7072       0.164601      -999.2500        97.2333        62.1008        10.1173       0.328012         6.8435      -999.2500      -999.2500      -999.2500      2513.8950      2493.7749
     2762.8596       0.163996      -999.2500        97.4667        63.5603        10.7345       0.361868         6.9009      -999.2500      -999.2500      -999.2500      2514.0083      2493.8882
     2763.0120       0.156980      -999.2500        97.2060        66.6724        10.3418       0.396789         6.7977      -999.2500      -999.2500      -999.2500      2514.1218      2494.0017
     2763.1644       0.161876      -999.2500        96.9363        70.7319        10.4315       0.407759         6.5868      -999.2500      -999.2500      -999.2500      2514.2351      2494.1150
     2763.3168       0.165484      -999.2500        94.9029        75.3379        10.7458       0.416471         6.4512      -999.2500      -999.2500      -999.2500      2514.3486      2494.2285
     2763.4692       0.140348      -999.2500        93.4590        75.7910        11.2396       0.411182         6.5717      -999.2500      -999.2500      -999.2500      2514.4619      2494.3418
     2763.6216       0.085375      -999.2500        93.7154        77.1281        11.8007       0.357189         7.1114      -999.2500      -999.2500      -999.2500      2514.5752      2494.4551
     2763.7740       0.024166      -999.2500        93.8455        81.3378        12.2496       0.317617         7.9556      -999.2500      -999.2500      -999.2500      2514.6887      2494.5686
