~Version Information Block
VERS .                 2.00:  CWLS LOG ASCII STANDARD - VERSION 2.00
WRAP .                   NO:  One line per depth step
~Well Information Block
#MNEM.UNIT        Data Type   Information
#---------- ----------------  -----------
STRT .M              0.0000:  START DEPTH
STOP .M           2799.8928:  STOP DEPTH
STEP .M              0.1524:  STEP
NULL .              -999.25:  NULL VALUE
COMP .                     :  COMPANY
WELL .              GABO-18:  WELL
FLD  .                     :  FIELD
LOC  .   6.635779, 5.238893:  LOCATION
CTRY .                     :  COUNTRY
STAT .                     :  STATE
CNTY .                     :  COUNTY
API  .                     :  API NUMBER
UWI  .                     :  UNIQUE WELL ID
SRVC .                     :  SERVICE COMPANY
DATE .                     :  LOG DATE
~Curve Information Block
#MNEM.UNIT         API CODE   Curve Description
#---------- ----------------  -----------------
DEPTH.M                    :  Reference Depth
BS_COMP.INCHES             :  Bit Size
CALI_COMP.INCHES          0:  Caliper
DRHO_COMP.G/C3            0:  Density Correction Log
ECART_COMP.                :  Neutron Density Seperation
GR   .GAPI                0:  Gamma Ray
GR_COMP.GAPI              0:  Gamma Ray Composite
NPHI .V/V                  :  Neutron Porosity
NPHI_COMP.V/V              :  Neutron Porosity Composite
PEF_COMP.B/E              0:  Photo Electric Factor
RHOB_COMP.G/C3            0:  Bulk Density
RT   .OHMM                0:  True or Deep Resistivity
RT_COMP.OHMM              0:  True or Deep Resistivity Composite
RXO  .OHMM                0:  Invaded Zone Resistivity
RXO_COMP.OHMM             0:  Invaded Zone Resistivity composite
SP_COMP.MV                0:  Spontaneous Potential
TVDSS_COMP.M               :  Reference tvdss log.
TVD_COMP.M                 :  Reference tvd log.
~Parameter Information Block
#MNEM.UNIT            Value   Description
#---------- ----------------  -----------
SET  .                  LCS:  
~Other Information Block
#        DEPTH        BS_COMP      CALI_COMP      DRHO_COMP     ECART_COMP             GR        GR_COMP           NPHI      NPHI_COMP       PEF_COMP      RHOB_COMP             RT        RT_COMP            RXO       RXO_COMP        SP_COMP     TVDSS_COMP       TVD_COMP 
~A
# ...
     2396.3376        12.2500        14.2464       0.004378         0.7900       110.3504       110.3504         0.2892       0.289191         3.1517         2.2575         7.0613         7.0613         6.4597         6.4597       -24.8050      2203.7610      2221.8610
     2396.4900        12.2500        14.3217       0.005901         0.9267       109.1126       109.1126         0.2886       0.288553         3.1407         2.2654         7.0199         7.0199         6.4844         6.4844       -24.8204      2203.8898      2221.9898
     2396.6424        12.2500        14.3851       0.006573         1.0638       107.4321       107.4321         0.2878       0.287819         3.1430         2.2735         6.9988         6.9988         6.5036         6.5036       -24.2224      2204.0186      2222.1186
     2396.7948        12.2500        14.4845       0.005051         1.1060       105.7138       105.7138         0.2859       0.285884         3.1788         2.2788         7.0193         7.0193         6.5272         6.5272       -23.0508      2204.1475      2222.2475
     2396.9472        12.2500        14.6325       0.005000         1.3844       100.5081       100.5081         0.2875       0.287500         3.2832         2.2901         7.0576         7.0576         6.6208         6.6208       -23.3747      2204.2763      2222.3763
     2397.0996        12.2500        14.8390       0.003503         1.9589        98.9798        98.9798         0.2958       0.295784         3.5296         2.3050         7.0605         7.0605         6.6884         6.6884       -23.3597      2204.4052      2222.5052
     2397.2520        12.2500        14.9400       0.002785         2.6992        99.8168        99.8168         0.3067       0.306680         3.8378         2.3238         7.0009         7.0009         6.7256         6.7256       -23.1810      2204.5340      2222.6340
     2397.4044        12.2500        15.0139       0.005114         3.4349       101.3101       101.3101         0.3154       0.315439         4.1108         2.3460         6.8620         6.8620         6.7356         6.7356       -23.0935      2204.6629      2222.7629
     2397.5568        12.2500        15.0837       0.008923         3.1730       101.2164       101.2164         0.3071       0.307120         3.9768         2.3468         6.8589         6.8589         6.8217         6.8217       -23.4011      2204.7918      2222.8918
     2397.7092        12.2500        15.1711       0.013280         2.4426       103.2121       103.2121         0.2923       0.292297         3.8061         2.3350         6.8553         6.8553         6.9061         6.9061       -23.3796      2204.9207      2223.0207
     2397.8616        12.2500        15.3487       0.022179         1.8393       106.8785       106.8785         0.2794       0.279432         3.6438         2.3262         6.8583         6.8583         6.9498         6.9498       -23.0814      2205.0497      2223.1497
     2398.0140        12.2500        15.5268       0.037199         1.7694       111.6281       111.6281         0.2744       0.274356         3.5352         2.3312         6.8716         6.8716         6.9081         6.9081       -22.5961      2205.1786      2223.2786
     2398.1664        12.2500        15.6847       0.050154         2.4558       114.8057       114.8057         0.2808       0.280779         3.6220         2.3548         6.8892         6.8892         6.6095         6.6095       -22.3902      2205.3076      2223.4076
     2398.3188        12.2500        15.8088       0.056565         3.3362       115.6320       115.6320         0.2877       0.287667         3.8052         2.3874         6.7895         6.7895         6.2091         6.2091       -21.2242      2205.4365      2223.5365
     2398.4712        12.2500        15.9201       0.059712         4.3721       116.1736       116.1736         0.2975       0.297499         3.9073         2.4228         6.5352         6.5352         5.7909         5.7909       -18.9370      2205.5655      2223.6655
     2398.6236        12.2500        16.2475       0.059926         5.5029       117.5675       117.5675         0.3104       0.310437         3.8730         2.4578         6.1160         6.1160         5.4204         5.4204       -15.7313      2205.6945      2223.7945
     2398.7760        12.2500        16.6009       0.053073         6.5292       121.2700       121.2700         0.3229       0.322934         3.7640         2.4882         5.5523         5.5523         5.2419         5.2419       -12.7783      2205.8235      2223.9235
     2398.9284        12.2500        16.8711       0.044931         7.1197       125.5997       125.5997         0.3262       0.326218         3.8531         2.5123         5.2841         5.2841         5.2398         5.2398       -10.3270      2205.9525      2224.0525
     2399.0808        12.2500        16.9474       0.035739         6.9567       125.7864       125.7864         0.3227       0.322682         3.8731         2.5100         5.2477         5.2477         5.0559         5.0559        -8.2034      2206.0815      2224.1815
     2399.2332        12.2500        16.7221       0.025834         6.2765       122.5131       122.5131         0.3170       0.317002         3.8053         2.4855         5.2749         5.2749         4.6415         4.6415        -6.3185      2206.2105      2224.3105
     2399.3856        12.2500        16.6354       0.015928         5.8641       120.2675       120.2675         0.3197       0.319716         3.7566         2.4603         4.9741         4.9741         4.0778         4.0778        -4.5468      2206.3396      2224.4396
     2399.5380        12.2500        16.9527       0.011548         6.3599       121.5943       121.5943         0.3406       0.340557         3.7603         2.4504         4.5799         4.5799         3.7674         3.7674        -4.3130      2206.4686      2224.5686
     2399.6904        12.2500        18.1137       0.008643         6.8978       124.5635       124.5635         0.3609       0.360909         3.7214         2.4434         4.3319         4.3319         3.6027         3.6027        -4.0637      2206.5977      2224.6977
     2399.8428        12.2500        18.6997       0.006571         7.2168       127.8301       127.8301         0.3726       0.372588         3.6505         2.4399         4.2408         4.2408         3.5299         3.5299        -3.2490      2206.7268      2224.8268
     2399.9952        12.2500        18.6366       0.005047         7.0679       129.6429       129.6429         0.3663       0.366293         3.5811         2.4429         4.2788         4.2788         3.4834         3.4834        -1.2977      2206.8559      2224.9559
     2400.1476        12.2500        18.2603       0.005000         6.7824       129.8582       129.8582         0.3546       0.354568         3.5421         2.4482         4.2763         4.2763         3.5093         3.5093        -1.3485      2206.9850      2225.0850
     2400.3000        12.2500        18.1990       0.006503         6.7951       128.3651       128.3651         0.3511       0.351146         3.5581         2.4545         4.1723         4.1723         3.4659         3.4659        -0.9621      2207.1141      2225.2141
     2400.4524        12.2500        18.3648       0.008525         6.8425       125.7960       125.7960         0.3475       0.347506         3.6291         2.4629         4.0803         4.0803         3.4186         3.4186        -0.6225      2207.2432      2225.3432
     2400.6048        12.2500        18.1725       0.010024         6.6702       122.9108       122.9108         0.3356       0.335560         3.7494         2.4742         4.1048         4.1048         3.4342         3.4342        -0.8646      2207.3723      2225.4723
     2400.7572        12.2500        17.9311       0.010786         6.8641       122.5725       122.5725         0.3368       0.336802         3.8241         2.4819         3.9792         3.9792         3.4411         3.4411        -1.1602      2207.5013      2225.6013
