~Version Information Block
VERS .                 2.00:  CWLS LOG ASCII STANDARD - VERSION 2.00
WRAP .                   NO:  One line per depth step
~Well Information Block
#MNEM.UNIT        Data Type   Information
#---------- ----------------  -----------
STRT .M            800.1000:  START DEPTH
STOP .M           4245.4068:  STOP DEPTH
STEP .M              0.1524:  STEP
NULL .              -999.25:  NULL VALUE
COMP .                     :  COMPANY
WELL .               GABO51:  WELL
FLD  .                     :  FIELD
LOC  .   6.643728, 5.227344:  LOCATION
CTRY .                     :  COUNTRY
STAT .                     :  STATE
CNTY .                     :  COUNTY
API  .                     :  API NUMBER
UWI  .                     :  UNIQUE WELL ID
SRVC .                     :  SERVICE COMPANY
DATE .                     :  LOG DATE
~Curve Information Block
#MNEM.UNIT         API CODE   Curve Description
#---------- ----------------  -----------------
DEPTH.M                    :  Depth
DRHO_COMP.G/C3             :  Density Correction
DTSM_COMP.US/F             :  Shear Sonic
DT_COMP.US/F               :  Compressional Sonic
GR_COMP.GAPI               :  Gamma Ray
HCAL_COMP.INCHES           :  Caliper
NPHI_COMP.V/V              :  Neutron Porosity
PEF_COMP.B/E               :  Pho Electric Factor
RDEEP_COMP.OHMM            :  Deep Resistivity
RHOB_COMP.G/C3             :  Bulk Density
RSHAL_COMP.OHMM            :  Shallow Resistivity
TVDSS_COMP.M               :  Reference TVD sub-sea log.
TVD_COMP.M                 :  Reference TVD log.
~Parameter Information Block
#MNEM.UNIT            Value   Description
#---------- ----------------  -----------
SET  .                  LCS:  
~Other Information Block
#        DEPTH      DRHO_COMP      DTSM_COMP        DT_COMP        GR_COMP      HCAL_COMP      NPHI_COMP       PEF_COMP     RDEEP_COMP      RHOB_COMP     RSHAL_COMP     TVDSS_COMP       TVD_COMP 
~A
# ...
     3732.2760      -0.009100       166.8443       165.8937       104.4165        13.3273       0.218500         3.0319         3.1212         2.4436         3.2724      2923.7347      2943.5147
     3732.4284      -0.009400       165.3598       163.7984       101.4985        13.3124       0.228600         3.0696         3.1898         2.4443         3.2926      2923.8642      2943.6442
     3732.5808      -0.008500       164.8875       163.5308        99.9034        13.2454       0.233400         3.0926         3.2056         2.4528         3.2402      2923.9937      2943.7737
     3732.7332      -0.008100       165.6227       163.6216        97.6879        13.1784       0.224900         3.0807         3.2605         2.4555         3.2338      2924.1232      2943.9032
     3732.8856      -0.007700       166.6161       164.4453        92.6304        12.9737       0.226000         3.0355         3.2748         2.4526         3.2819      2924.2527      2944.0327
     3733.0380      -0.006200       167.3009       166.7548        92.5861        13.0184       0.219700         3.0023         3.2776         2.4487         3.2986      2924.3822      2944.1622
     3733.1904      -0.004000       167.5817       167.9803        92.8140        13.0816       0.227200         3.0179         3.2607         2.4531         3.2656      2924.5117      2944.2917
     3733.3428      -0.002900       167.4153       168.1333        99.2704        13.1747       0.232000         3.1057         3.2844         2.4624         3.2500      2924.6412      2944.4212
     3733.4952      -0.004100       166.9306       167.8200       103.4164        13.3273       0.242500         3.2062         3.3282         2.4704         3.2808      2924.7707      2944.5507
     3733.6476      -0.004700       165.8844       166.6262       105.3533        13.3942       0.240500         3.2524         3.3057         2.4733         3.2280      2924.9003      2944.6803
     3733.8000      -0.005000       164.7059       164.4102       106.8598        13.4315       0.241100         3.1971         3.3052         2.4855         3.1874      2925.0298      2944.8098
     3733.9524      -0.004200       164.2024       164.8244       101.0491        13.2752       0.241300         3.1149         3.2468         2.5028         3.1322      2925.1593      2944.9393
     3734.1048      -0.004900       164.3743       162.6721       100.5617        13.2082       0.244200         3.0994         3.2583         2.5212         3.1499      2925.2889      2945.0689
     3734.2572      -0.006400       164.7173       161.5696        98.9792        13.1189       0.240700         3.1655         3.1677         2.5224         3.1048      2925.4184      2945.1984
     3734.4096      -0.006600       164.9188       160.4067       100.0046        13.0295       0.240700         3.2268         3.0420         2.5164         3.0445      2925.5480      2945.3280
     3734.5620      -0.006300       165.0385       162.5246        98.8969        13.0184       0.238600         3.2407         2.9950         2.5112         2.9937      2925.6775      2945.4575
     3734.7144      -0.005800       165.5275       164.3570       100.4794        13.0295       0.231300         3.1991         2.9915         2.5113         2.9011      2925.8071      2945.5871
     3734.8668      -0.005300       166.4386       166.5345       100.7073        13.1077       0.230600         3.1429         3.0308         2.5211         2.9471      2925.9366      2945.7166
     3735.0192      -0.004500       167.5215       168.7576       105.1508        13.2082       0.232600         3.1039         3.1654         2.5354         3.0172      2926.0662      2945.8462
     3735.1716      -0.004200       168.7011       169.1477       105.2774        13.2975       0.245000         3.1412         2.9736         2.5463         2.9328      2926.1958      2945.9758
     3735.3240      -0.006300       169.8536       169.0179       103.2139        13.2863       0.253200         3.2228         2.7929         2.5449         2.7607      2926.3254      2946.1054
     3735.4764      -0.007400       170.7404       168.8594        99.5679        13.2975       0.261400         3.2936         2.6903         2.5379         2.6069      2926.4549      2946.2349
     3735.6288      -0.003600       171.0639       168.6288        97.0613        13.1263       0.263200         3.2997         2.6180         2.5252         2.5433      2926.5845      2946.3645
     3735.7812      -0.001600       171.4937       168.4207       101.4732        13.0407       0.264400         3.2647         2.5106         2.5151         2.4685      2926.7141      2946.4941
     3735.9336      -0.001300       172.3943       169.3652       102.8404        12.9700       0.268600         3.2036         2.4744         2.5088         2.4878      2926.8437      2946.6237
     3736.0860      -0.001700       172.1870       169.9224       107.6257        12.9514       0.265200         3.1610         2.4774         2.5093         2.5200      2926.9733      2946.7533
     3736.2384      -0.003200       171.3055       170.5467       105.4736        13.0072       0.270300         3.1372         2.5142         2.5151         2.5597      2927.1029      2946.8829
     3736.3908      -0.004400       171.8284       170.5274       103.0809        13.1040       0.281800         3.1424         2.5454         2.5129         2.5350      2927.2325      2947.0125
     3736.5432      -0.008600       173.2989       171.9170        97.8399        13.1635       0.276900         3.1418         2.5654         2.5121         2.4972      2927.3621      2947.1421
     3736.6956      -0.009400       174.2639       172.3824        98.8083        13.2454       0.278600         3.1251         2.5560         2.5052         2.4755      2927.4917      2947.2717
     3736.8480      -0.007900       174.4028       172.7616        99.0362        13.2193       0.281100         3.1157         2.5000         2.5142         2.4418      2927.6214      2947.4014
     3737.0004      -0.008900       174.7859       171.6285       103.2708        13.1561       0.279000         3.1393         2.5093         2.5191         2.4702      2927.7506      2947.5306
     3737.1528      -0.007600       175.3994       172.8055       105.0685        13.0370       0.291300         3.1728         2.3897         2.5388         2.3823      2927.8806      2947.6606
     3737.3052      -0.009000       175.5937       173.0848       105.1824        12.9551       0.295200         3.2061         2.3307         2.5467         2.3276      2928.0102      2947.7902
     3737.4576      -0.006500       175.7324       171.0231       104.1380        12.9477       0.286100         3.2174         2.2973         2.5565         2.3006      2928.1399      2947.9199
     3737.6100      -0.006800       175.9951       171.2670       100.6186        12.9514       0.280100         3.2164         2.2866         2.5449         2.3285      2928.2695      2948.0495
     3737.7624      -0.005400       176.3580       171.6000       101.1883        13.0072       0.293000         3.2079         2.2619         2.5358         2.2950      2928.3992      2948.1792
     3737.9148      -0.006200       176.7312       171.9790        99.4793        13.0854       0.289100         3.1908         2.2256         2.5264         2.2464      2928.5288      2948.3088
     3738.0672      -0.003700       177.2152       171.9121       100.8782        13.1858       0.289300         3.1712         2.1893         2.5340         2.2041      2928.6585      2948.4385
     3738.2196      -0.004400       177.8567       172.9037       103.3848        13.2231       0.294700         3.1697         2.1943         2.5331         2.2021      2928.7881      2948.5681
     3738.3720      -0.005800       178.5788       173.2872       105.3850        13.1412       0.303500         3.1875         2.1913         2.5260         2.2202      2928.9178      2948.6978
     3738.5244      -0.008900       179.4468       178.0767       104.4292        13.1300       0.304500         3.2359         2.1868         2.5180         2.2027      2929.0475      2948.8275
