~Version Information Block
VERS .                 2.00:  CWLS LOG ASCII STANDARD - VERSION 2.00
WRAP .                   NO:  One line per depth step
~Well Information Block
#MNEM.UNIT        Data Type   Information
#---------- ----------------  -----------
STRT .M           1550.0604:  START DEPTH
STOP .M           3909.9744:  STOP DEPTH
STEP .M              0.1524:  STEP
NULL .              -999.25:  NULL VALUE
COMP .                     :  COMPANY
WELL .               GABO52:  WELL
FLD  .                     :  FIELD
LOC  .   6.643655, 5.227736:  LOCATION
CTRY .                     :  COUNTRY
STAT .                     :  STATE
CNTY .                     :  COUNTY
API  .                     :  API NUMBER
UWI  .                     :  UNIQUE WELL ID
SRVC .                     :  SERVICE COMPANY
DATE .                     :  LOG DATE
~Curve Information Block
#MNEM.UNIT         API CODE   Curve Description
#---------- ----------------  -----------------
DEPTH.M                    :  Depth
DRHO .G/C3                 :  Density Correction Log
DTS_COMP.US/F              :  Shear Sonic 
DT_COMP.US/F               :  Compressional Sonic
GR_COMP.GAPI               :  Gamma Ray
HCAL .INCHES               :  Caliper
NPHI_COMP.V/V              :  Neutron Porosity
PEF_COMP.B/E               :  Photo Electric Factor
RDEEP_COMP.OHMM            :  Deep Resistivity
RHOB_COMP.G/C3             :  Bulk Density
RSHAL_COMP.OHMM            :  Shallow Resistivity
TVD  .M                    :  Reference TVD
TVDSS.M                    :  Reference TVDss
~Parameter Information Block
#MNEM.UNIT            Value   Description
#---------- ----------------  -----------
SET  .                  LCS:  
~Other Information Block
#        DEPTH           DRHO       DTS_COMP        DT_COMP        GR_COMP           HCAL      NPHI_COMP       PEF_COMP     RDEEP_COMP      RHOB_COMP     RSHAL_COMP            TVD          TVDSS 
~A
# ...
     3506.4192       0.124884       185.1455        93.0986       140.2041         8.8828       0.381022         3.8212         1.3886         2.4496         1.5135      3066.1799      3046.0598
     3506.5716       0.121849       188.2954        95.0619       138.9142         8.8828       0.405719         3.8219         1.2956         2.4418         1.4395      3066.2927      3046.1726
     3506.7240       0.108205       191.9717        95.7334       136.1729         8.7482       0.402195         3.8339         1.2406         2.4510         1.3907      3066.4055      3046.2854
     3506.8764       0.090654       197.4970        96.9646       137.7022         8.7706       0.409314         3.8430         1.1649         2.4458         1.3141      3066.5181      3046.3979
     3507.0288       0.084166       203.2369        97.4842       138.7907         8.8043       0.403479         3.8350         1.0700         2.4276         1.2038      3066.6309      3046.5107
     3507.1812       0.077336       207.7087        98.7793       144.1969         8.9951       0.398070         3.7836         0.9907         2.3860         1.1005      3066.7437      3046.6235
     3507.3336       0.077482       211.0132        99.7219       149.2063         8.8155       0.366479         3.7362         0.9362         2.3692         1.0293      3066.8564      3046.7363
     3507.4860       0.069624       214.1117        99.0349       152.0398         8.7482       0.388856         3.7029         0.8938         2.3289         0.9786      3066.9695      3046.8494
     3507.6384       0.063813       217.4492        98.6185       157.7569         8.8828       0.376843         3.6971         0.8360         2.2808         0.9184      3067.0823      3046.9622
     3507.7908       0.059022       219.3723       100.5123       166.9823         9.2195       0.406767         3.6815         0.7925         2.2289         0.8512      3067.1951      3047.0750
     3507.9432       0.062839       220.0529       101.0521       175.9948         8.7931       0.401760         3.6765         0.7425         2.2299         0.7978      3067.3079      3047.1877
     3508.0956       0.064353       220.1828       100.6492       182.3584         8.9277       0.443550         3.6700         0.6959         2.2347         0.7704      3067.4207      3047.3005
     3508.2480       0.066447       219.4814       102.4298       182.1433         8.9053       0.462091         3.6474         0.6752         2.2242         0.7383      3067.5332      3047.4131
     3508.4004       0.067661       218.6760       103.7285       182.9780         9.4664       0.495266         3.5964         0.6784         2.2320         0.7300      3067.6460      3047.5259
     3508.5528       0.074623       217.1684       101.8497       167.2375         9.1971       0.493494         3.5868         0.7213         2.3173         0.7732      3067.7588      3047.6387
     3508.7052       0.075093       201.5520        99.0821       153.8887         9.1971       0.455966         3.6601         0.8259         2.4362         0.9207      3067.8716      3047.7515
     3508.8576       0.072173       174.9600        89.6225       141.8023         8.7706       0.389482         3.8382         1.0034         2.5445         1.1600      3067.9844      3047.8643
     3509.0100       0.047964       167.3400        75.3855       129.0201         8.6135       0.332316         4.0491         1.2681         2.5977         1.5353      3068.0972      3047.9771
     3509.1624       0.026368       161.2704        77.0845       124.8528         8.6023       0.293046         4.2880         1.6593         2.6369         2.1110      3068.2100      3048.0898
     3509.3148       0.014754       158.8320        79.3080       118.0690         8.6359       0.260662         4.4004         2.1426         2.6454         2.7291      3068.3228      3048.2026
     3509.4672       0.018031       158.8924        80.0719       116.5534         8.6135       0.239249         4.2895         2.5242         2.6250         3.1669      3068.4358      3048.3157
     3509.6196       0.029505       160.2471        80.0458       119.3756         8.5911       0.238431         4.0287         2.5977         2.5975         3.0216      3068.5486      3048.4285
     3509.7720       0.039853       161.6018        78.6083       127.1274         8.6135       0.256870         3.8235         2.5261         2.5706         2.7851      3068.6614      3048.5413
     3509.9244       0.059404       163.0760        80.4236       136.6714         8.6247       0.300053         3.7992         2.4709         2.5788         2.7251      3068.7742      3048.6541
     3510.0768       0.071080       164.6000        81.7566       140.1204         8.6135       0.309493         3.8542         2.4884         2.5863         2.6900      3068.8870      3048.7668
     3510.2292       0.075308       165.2810        83.9216       142.4061         8.6135       0.331927         3.9024         2.4939         2.5921         2.7132      3068.9995      3048.8794
     3510.3816       0.072523       165.6620        85.2364       143.7660         8.5911       0.324999         3.9223         2.5262         2.5854         2.7611      3069.1123      3048.9922
     3510.5340       0.066422       165.9427        85.5504       144.9073         8.6247       0.340822         3.9197         2.5766         2.5726         2.7870      3069.2251      3049.1050
     3510.6864       0.059896       165.4347        84.9827       144.1835         8.5911       0.339635         3.8920         2.6355         2.5769         2.8223      3069.3379      3049.2178
     3510.8388       0.047994       164.9267        85.6517       143.2965         8.6359       0.331323         3.8200         2.7211         2.5896         2.8649      3069.4507      3049.3306
     3510.9912       0.031383       164.4187        84.9203       140.0013         8.6023       0.315948         3.7204         2.8036         2.5896         2.9085      3069.5635      3049.4434
     3511.1436       0.015854       163.7856        85.1529       137.2095         8.6359       0.297782         3.6612         2.8688         2.5722         2.9703      3069.6763      3049.5562
     3511.2960       0.004069       162.5664        84.8625       137.7602         8.7033       0.327456         3.6405         2.9036         2.5486         3.0298      3069.7891      3049.6689
     3511.4484       0.000969       162.9800        85.6550       142.5987         8.7482       0.348664         3.6544         2.9223         2.5357         3.0557      3069.9021      3049.7820
     3511.6008       0.011895       161.0750        86.2106       146.0958         8.7931       0.352075         3.6981         2.9121         2.5450         3.0371      3070.0146      3049.8945
     3511.7532       0.029814       159.1700        87.0693       145.0389         8.8155       0.340747         3.7470         2.9041         2.5589         3.0418      3070.1274      3050.0073
     3511.9056       0.050042       156.5016        84.3801       145.8123         8.8155       0.335321         3.7995         2.9548         2.5649         3.1265      3070.2402      3050.1201
     3512.0580       0.071035       153.7584        84.9311       150.0834         8.7482       0.335011         3.8499         3.0982         2.5588         3.2684      3070.3530      3050.2329
     3512.2104       0.090855       151.0152        81.5761       154.9770         8.7257       0.291394         3.9449         3.2609         2.5594         3.4558      3070.4658      3050.3457
     3512.3628       0.104382       148.9029        80.0302       155.4376         8.7482       0.249098         4.0392         3.5553         2.5823         3.7226      3070.5786      3050.4585
     3512.5152       0.104015       147.1611        78.0347       154.7664         8.8155       0.200818         4.0946         3.7945         2.6105         4.0660      3070.6914      3050.5713
     3512.6676       0.087242       143.4040        75.3613       154.4901         8.8604       0.170350         4.0614         4.3902         2.6203         4.5948      3070.8040      3050.6838
