~Version Information Block
VERS .                 2.00:  CWLS LOG ASCII STANDARD - VERSION 2.00
WRAP .                   NO:  One line per depth step
~Well Information Block
#MNEM.UNIT        Data Type   Information
#---------- ----------------  -----------
STRT .M              0.0000:  START DEPTH
STOP .M           2757.2208:  STOP DEPTH
STEP .M              0.1524:  STEP
NULL .              -999.25:  NULL VALUE
COMP .                     :  COMPANY
WELL .               GABO14:  WELL
FLD  .                     :  FIELD
LOC  .   6.639036, 5.241653:  LOCATION
CTRY .                     :  COUNTRY
STAT .                     :  STATE
CNTY .                     :  COUNTY
API  .                     :  API NUMBER
UWI  .                     :  UNIQUE WELL ID
SRVC .                     :  SERVICE COMPANY
DATE .                     :  LOG DATE
~Curve Information Block
#MNEM.UNIT         API CODE   Curve Description
#---------- ----------------  -----------------
DEPTH.M                    :  Reference Depth
BS_COMP.INCHES             :  Bit Size
CALI_COMP.INCHES          0:  Caliper
DRHO_COMP.G/C3            0:  Density Correction 
DT_COMP.US/F              0:  Compressional Sonic
ECART_COMP.                :  Neutron Density Seperation
GR_COMP.GAPI              0:  Gamma Ray
NPHI_COMP.V/V             0:  Neutron Porosity
PEF_COMP.B/E              0:  Photo Electric Factor
RHOB_COMP.G/C3            0:  Bulk Density
RT_COMP.OHMM              0:  True or Deep Resistivity
RXO_COMP.OHMM             0:  Invaded Zone Resistivity
SP_COMP.MV                0:  Spontaneous Potential
TVDSS_COMP.M               :  Reference TVD sub-sea log.
TVD_COMP.M                 :  Reference TVD log.
~Parameter Information Block
#MNEM.UNIT            Value   Description
#---------- ----------------  -----------
SET  .                  LCS:  
~Other Information Block
#        DEPTH        BS_COMP      CALI_COMP      DRHO_COMP        DT_COMP     ECART_COMP        GR_COMP      NPHI_COMP       PEF_COMP      RHOB_COMP        RT_COMP       RXO_COMP        SP_COMP     TVDSS_COMP       TVD_COMP 
~A
# ...
     2694.1272        12.2500        13.1497       0.067971       101.9993         7.5245        92.5351       0.383198         3.1510         2.4376         1.2781         2.2339        91.4288      2605.6139      2621.6139
     2694.2796        12.2500        13.1128       0.049029       101.8094         7.2141        89.5480       0.381390         3.0678         2.4251         1.3061         2.2048        91.6250      2605.7655      2621.7655
     2694.4320        12.2500        13.0490       0.038046       100.9026         7.1823        85.7791       0.377813         2.9544         2.4294         1.3361         2.1664        91.6332      2605.9172      2621.9172
     2694.5844        12.2500        12.9941       0.039024       100.0452         7.3946        85.3236       0.377022         2.8927         2.4414         1.3651         2.2796        91.6782      2606.0688      2622.0688
     2694.7368        12.2500        12.9792       0.046001        99.5935         7.7494        87.9775       0.381800         2.9202         2.4511         1.3921         2.4331        91.7367      2606.2204      2622.2204
     2694.8892        12.2500        12.9961       0.053001        99.4687         8.1862        90.1032       0.393329         2.9786         2.4538         1.4090         2.4659        91.9179      2606.3721      2622.3721
     2695.0416        12.2500        13.0412       0.059973        99.3905         8.5319        88.6278       0.407860         2.9772         2.4468         1.4079         2.4299        92.1341      2606.5237      2622.5237
     2695.1940        12.2500        13.1352       0.059948        99.2661         8.5460        85.3080       0.418849         2.9053         2.4292         1.3879         2.4150        92.1467      2606.6754      2622.6754
     2695.3464        12.2500        13.2890       0.046990        99.2824         8.2075        84.0727       0.417788         2.8538         2.4141         1.3599         2.4249        92.0612      2606.8270      2622.8270
     2695.4988        12.2500        13.4355       0.032038        99.6277         7.8166        86.5176       0.401243         2.9064         2.4221         1.3380         2.4006        92.3707      2606.9786      2622.9786
     2695.6512        12.2500        13.4606       0.027047       100.3005         7.5245        90.9339       0.374289         3.0935         2.4524         1.3331         2.3126        93.0470      2607.1303      2623.1303
     2695.8036        12.2500        13.3948       0.034017       101.1913         7.2571        93.9261       0.352426         3.3376         2.4755         1.3471         2.2198        93.2926      2607.2819      2623.2819
     2695.9560        12.2500        13.2660       0.044989       102.0149         6.7265        94.9475       0.346505         3.4655         2.4588         1.3781         2.1709        92.9470      2607.4335      2623.4335
     2696.1084        12.2500        13.1314       0.053033       101.7264         6.1343        93.5457       0.356939         3.4018         2.4118         1.4081         2.1480        92.7068      2607.5852      2623.5852
     2696.2608        12.2500        13.1020       0.069065        99.8037         6.2007        89.2012       0.379425         3.2172         2.3777         1.4230         2.1485        92.6661      2607.7368      2623.7368
     2696.4132        12.2500        13.0738       0.101044        97.4779         7.3076        84.7294       0.408208         3.0326         2.3850         1.4240         2.2653        92.4372      2607.8885      2623.8885
     2696.5656        12.2500        13.0003       0.142926        95.9534         8.7996        83.5845       0.433480         2.9276         2.4175         1.4210         2.5894        92.2496      2608.0401      2624.0401
     2696.7180        12.2500        12.9883       0.164864        96.0730         9.5968        85.2200       0.445894         2.9180         2.4367         1.4180         2.9420        92.4056      2608.1917      2624.1917
     2696.8704        12.2500        13.0553       0.151935        98.5756         9.5571        85.4640       0.448724         2.9622         2.4300         1.4079         2.9317        92.8040      2608.3434      2624.3434
     2697.0228        12.2500        13.2049       0.123012       101.7255         8.9790        84.2036       0.440494         2.9669         2.4148         1.3838         2.6021        92.7965      2608.4950      2624.4950
     2697.1752        12.2500        13.3273       0.097997       103.3624         8.0237        84.3688       0.412689         2.9304         2.4134         1.3419         2.3778        92.6623      2608.6467      2624.6467
     2697.3276        12.2500        13.2707       0.072969       104.2062         6.6925        86.8397       0.362280         2.9713         2.4308         1.3070         2.3218        93.2432      2608.7983      2624.7983
     2697.4800        12.2500        13.1372       0.041024       104.9982         5.3616        89.7716       0.304210         3.1276         2.4611         1.3132         2.2839        93.2986      2608.9499      2624.9499
     2697.6324        12.2500        13.0571       0.016060       104.5403         4.5073        91.1707       0.264348         3.2742         2.4848         1.3714         2.2498        92.4539      2609.1016      2625.1016
     2697.7848        12.2500        13.0039       0.007038       102.8493         4.0782        90.8407       0.258408         3.3039         2.4732         1.4675         2.2009        91.9239      2609.2532      2625.2532
     2697.9372        12.2500        12.9262       0.008091       100.4064         4.1832        90.0102       0.287749         3.2443         2.4296         1.5855         2.1677        91.3998      2609.4049      2625.4049
     2698.0896        12.2500        12.8964       0.032157        96.4841         5.2259        88.5473       0.336864         3.1405         2.3999         1.7084         2.3370        90.8596      2609.5565      2625.5565
     2698.2420        12.2500        12.9754       0.095043        92.4897         6.9170        84.5907       0.380701         3.0087         2.4113         1.8183         2.8361        90.5117      2609.7082      2625.7082
     2698.3944        12.2500        13.1623       0.166867        89.9187         8.4236        79.9956       0.405920         2.8802         2.4446         1.9062         3.3730        90.4453      2609.8598      2625.8598
     2698.5468        12.2500        13.4259       0.202822        89.1010         9.1954        78.9083       0.417700         2.8034         2.4636         1.9539         3.6150        90.5217      2610.0114      2626.0114
     2698.6992        12.2500        13.6638       0.192923        90.8715         9.2796        83.2808       0.424463         2.7884         2.4565         1.9346         3.6119        90.7076      2610.1631      2626.1631
     2698.8516        12.2500        13.8358       0.164032        94.0096         9.1602        91.0299       0.429716         2.8044         2.4418         1.8445         3.3371        91.6107      2610.3147      2626.3147
     2699.0040        12.2500        13.9730       0.144005        96.4141         8.8442        98.5462       0.435434         2.8062         2.4165         1.7074         2.8567        92.0276      2610.4664      2626.4664
     2699.1564        12.2500        14.1085       0.126009        98.4466         8.2929       102.3347       0.438424         2.7656         2.3839         1.5545         2.5235        91.9234      2610.6180      2626.6180
     2699.3088        12.2500        14.1101       0.110998       100.6152         7.5884        99.9887       0.427883         2.7451         2.3663         1.4186         2.3977        92.2657      2610.7697      2626.7697
     2699.4612        12.2500        13.8708       0.096002       102.1754         6.9735        93.1333       0.401226         2.8986         2.3800         1.3218         2.3297        92.4508      2610.9213      2626.9213
