~Version Information Block
VERS .                 2.00:  CWLS LOG ASCII STANDARD - VERSION 2.00
WRAP .                   NO:  One line per depth step
~Well Information Block
#MNEM.UNIT        Data Type   Information
#---------- ----------------  -----------
STRT .M              0.0000:  START DEPTH
STOP .M           2950.4637:  STOP DEPTH
STEP .M              0.1524:  STEP
NULL .              -999.25:  NULL VALUE
COMP .                     :  COMPANY
WELL .               GABO15:  WELL
FLD  .                     :  FIELD
LOC  .   6.656416, 5.257802:  LOCATION
CTRY .                     :  COUNTRY
STAT .                     :  STATE
CNTY .                     :  COUNTY
API  .                     :  API NUMBER
UWI  .                     :  UNIQUE WELL ID
SRVC .                     :  SERVICE COMPANY
DATE .                     :  LOG DATE
~Curve Information Block
#MNEM.UNIT         API CODE   Curve Description
#---------- ----------------  -----------------
DEPTH.M                    :  Reference Depth.
BS_COMP.INCHES             :  Bit Size
CALI_COMP.INCHES          0:  Caliper
DRHO_COMP.G/C3            0:  Density Correction
DT_COMP.US/F              0:  Compressional Sonic
ECART_COMP.                :  Neutron Density Seperation
GR_COMP.GAPI               :  Gamma Ray
NPHI_COMP.V/V             0:  Neutron Porosity
PEF_COMP.B/E              0:  Photo Electric Factor
RHOB_COMP.G/C3            0:  Bulk Density
RT_COMP.OHMM              0:  True or Deep Resistivity
RXO_COMP.OHMM             0:  Invaded Zone Resistivity
SP_COMP.MV                 :  Values changed using TEXT_EDIT
TVDSS_COMP.M               :  Reference TVD sub-sea log.
TVD_COMP.M                 :  Reference TVD log.
~Parameter Information Block
#MNEM.UNIT            Value   Description
#---------- ----------------  -----------
SET  .                  LCS:  
MFST .DEGF               80:  Mud filtrate sample temperature
RMFS .OHMM              1.9:  Resistivity of Filtrate sample
SP_SH.MV                  0:  Shale baseline value for SP
~Other Information Block
COMMENT:
$$MUX      Data from LAS tape
$$MUX      fevsbd 09/10/97 ng95603  ASCII:      GABO15.fod
$$MUX
$$MUX
#        DEPTH        BS_COMP      CALI_COMP      DRHO_COMP        DT_COMP     ECART_COMP        GR_COMP      NPHI_COMP       PEF_COMP      RHOB_COMP        RT_COMP       RXO_COMP        SP_COMP     TVDSS_COMP       TVD_COMP 
~A
# ...
     2246.8330         9.8750        11.5738       0.018955       104.0938         4.3281       115.1611       0.341050         3.0320         2.3480         7.9222         3.9176       -58.5957      2078.3209      2098.3209
     2246.9854         9.8750        11.5161       0.001997       104.8128         4.8615       111.0636       0.360037         3.0311         2.3430         6.9623         4.1665       -56.9047      2078.4529      2098.4529
     2247.1378         9.8750        11.5551       0.001005       104.8440         5.4280       111.2922       0.374029         3.0702         2.3480         6.2218         3.9579       -56.2401      2078.5849      2098.5849
     2247.2902         9.8750        11.5899       0.002995       104.6880         5.9342       115.5097       0.385032         3.1531         2.3550         5.4761         3.7111       -55.3141      2078.7169      2098.7169
     2247.4426         9.8750        11.5509    -999.250000       105.5938         6.2739       119.1577       0.397037         3.2079         2.3520         4.8403         3.1738       -56.0779      2078.8490      2098.8490
     2247.5950         9.8750        11.5268    -999.250000       107.2186         6.5007       119.7948       0.411034         3.1537         2.3400         4.3859         2.9393       -55.9462      2078.9810      2098.9810
     2247.7474         9.8750        11.4647    -999.250000       107.9998         6.7540       118.9647       0.424021         3.0459         2.3310         4.1189         2.5879       -56.3681      2079.1130      2099.1130
     2247.8998         9.8750        11.3649    -999.250000       108.2809         6.9994       117.3357       0.431979         3.0091         2.3300         3.9759         2.4854       -56.8519      2079.2451      2099.2451
     2248.0522         9.8750        11.3220    -999.250000       108.0001         6.7719       114.1964       0.423960         3.0421         2.3320         3.9495         2.5802       -56.9872      2079.3771      2099.3771
     2248.2046         9.8750        11.3281    -999.250000       107.5941         6.2322       111.7052       0.408971         3.0670         2.3300         3.9820         2.6664       -58.3776      2079.5092      2099.5092
     2248.3570         9.8750        11.3539    -999.250000       107.8749         5.8063       112.5410       0.397989         3.0780         2.3270         4.0214         2.5648       -59.8344      2079.6412      2099.6412
     2248.5094         9.8750        11.3259    -999.250000       107.7500         5.6737       116.3205       0.394011         3.0850         2.3270         4.1446         2.4514       -59.0063      2079.7733      2099.7733
     2248.6618         9.8750        11.2700    -999.250000       106.9382         5.8070       119.1560       0.398011         3.0699         2.3270         4.4643         2.5630       -58.2167      2079.9054      2099.9054
     2248.8142         9.8750        11.2681    -999.250000       106.5941         5.9400       119.1360       0.401997         3.0420         2.3270         4.7587         2.9213       -57.0233      2080.0375      2100.0375
     2248.9666         9.8750        11.3050    -999.250000       106.9059         5.9269       117.2604       0.401005         3.0290         2.3280         4.8341         2.9124       -57.0073      2080.1696      2100.1696
     2249.1190         9.8750        11.3178    -999.250000       107.4998         6.0338       115.1393       0.403013         3.0309         2.3300         4.7935         3.1938       -56.6181      2080.3017      2100.3017
     2249.2714         9.8750        11.2578    -999.250000       108.4687         6.2203       114.5188       0.408008         3.0069         2.3310         4.5926         3.3892       -57.1906      2080.4338      2100.4338
     2249.4238         9.8750        11.1910    -999.250000       109.2498         6.3200       115.5658       0.411003         2.9589         2.3310         4.2155         3.0881       -57.7760      2080.5660      2100.5660
     2249.5762         9.8750        11.1912    -999.250000       108.9381         6.3129       116.6199       0.411995         2.9380         2.3290         3.9439         2.8264       -59.4007      2080.6981      2100.6981
     2249.7286         9.8750        11.2791    -999.250000       107.2814         6.1662       114.6906       0.409995         2.9451         2.3250         3.9818         2.8027       -60.9132      2080.8303      2100.8303
     2249.8810         9.8750        11.3045    -999.250000       105.2195         5.9786       110.0051       0.407976         2.9639         2.3190         4.4398         2.5930       -61.7255      2080.9624      2100.9624
     2250.0334         9.8750        11.1124    -999.250000       104.2193         5.4572       105.9031       0.398947         2.9285         2.3079         5.5661         2.5042       -61.2244      2081.0946      2101.0946
     2250.1858         9.8750        10.8976    -999.250000       103.5312         4.4099       104.8116       0.378936         2.7302         2.2889         7.4257         2.7497       -59.4757      2081.2268      2101.2268
     2250.3382         9.8750        10.7636    -999.250000       102.8442         3.1301       104.2809       0.354931         2.4424         2.2650         9.6659         3.3181       -59.0217      2081.3590      2101.3590
     2250.4906         9.8750        10.6186    -999.250000       102.6560         1.9038        98.1871       0.328929         2.2177         2.2470        11.9626         4.1980       -57.4998      2081.4911      2101.4911
     2250.6430         9.8750        10.4817    -999.250000       102.0632         0.8043        86.1420       0.301939         2.1190         2.2370        14.0237         5.3814       -57.4058      2081.6234      2101.6234
     2250.7954         9.8750        10.3546    -999.250000       101.5311        -0.0815        74.7973       0.278960         2.1150         2.2310        15.8527         6.1775       -56.9764      2081.7556      2101.7556
     2250.9478         9.8750        10.2009    -999.250000       101.5630        -0.6408        68.8538       0.263979         2.1189         2.2280        17.4859         6.6877       -56.8274      2081.8878      2101.8878
     2251.1002         9.8750        10.1647    -999.250000       102.1878        -0.9272        66.8947       0.255987         2.0938         2.2270        19.0540         7.0930       -56.3900      2082.0201      2102.0201
     2251.2526         9.8750        10.4124    -999.250000       103.4996        -1.1133        68.3111       0.251008         2.0348         2.2260        20.6772         7.0136       -55.4866      2082.1523      2102.1523
     2251.4050         9.8750        10.5524    -999.250000       104.6247        -1.0923        73.6555       0.254045         1.9517         2.2220        21.9975         5.4790       -55.9271      2082.2846      2102.2846
     2251.5574         9.8750        10.3087    -999.250000       105.6877        -0.6855        79.1355       0.271050         1.8567         2.2140        22.8851         4.9508       -55.5144      2082.4169      2102.4169
     2251.7098         9.8750        10.1864    -999.250000       107.5935        -0.2541        77.0145       0.290008         1.7377         2.2039        23.3241         6.9338       -54.2881      2082.5492      2102.5492
     2251.8622         9.8750        10.3443    -999.250000       109.4055        -0.5359        64.7256       0.292963         1.6198         2.1849        23.1100         7.9860       -53.2340      2082.6815      2102.6815
     2252.0146         9.8750        10.4508    -999.250000       110.0628        -1.5023        49.4547       0.278960         1.5571         2.1599        22.4431         7.5407       -52.6012      2082.8138      2102.8138
     2252.1670         9.8750        10.3584    -999.250000       110.0310        -2.3811        38.4003       0.263979         1.5802         2.1410        21.7494         6.5947       -52.3825      2082.9461      2102.9461
