~Version Information Block
VERS .                 2.00:  CWLS LOG ASCII STANDARD - VERSION 2.00
WRAP .                   NO:  One line per depth step
~Well Information Block
#MNEM.UNIT        Data Type   Information
#---------- ----------------  -----------
STRT .M           1550.0604:  START DEPTH
STOP .M           3909.9744:  STOP DEPTH
STEP .M              0.1524:  STEP
NULL .              -999.25:  NULL VALUE
COMP .                     :  COMPANY
WELL .               GABO52:  WELL
FLD  .                     :  FIELD
LOC  .   6.643655, 5.227736:  LOCATION
CTRY .                     :  COUNTRY
STAT .                     :  STATE
CNTY .                     :  COUNTY
API  .                     :  API NUMBER
UWI  .                     :  UNIQUE WELL ID
SRVC .                     :  SERVICE COMPANY
DATE .                     :  LOG DATE
~Curve Information Block
#MNEM.UNIT         API CODE   Curve Description
#---------- ----------------  -----------------
DEPTH.M                    :  Depth
DRHO .G/C3                 :  Density Correction Log
DTS_COMP.US/F              :  Shear Sonic 
DT_COMP.US/F               :  Compressional Sonic
GR_COMP.GAPI               :  Gamma Ray
HCAL .INCHES               :  Caliper
NPHI_COMP.V/V              :  Neutron Porosity
PEF_COMP.B/E               :  Photo Electric Factor
RDEEP_COMP.OHMM            :  Deep Resistivity
RHOB_COMP.G/C3             :  Bulk Density
RSHAL_COMP.OHMM            :  Shallow Resistivity
TVD  .M                    :  Reference TVD
TVDSS.M                    :  Reference TVDss
~Parameter Information Block
#MNEM.UNIT            Value   Description
#---------- ----------------  -----------
SET  .                  LCS:  
~Other Information Block
#        DEPTH           DRHO       DTS_COMP        DT_COMP        GR_COMP           HCAL      NPHI_COMP       PEF_COMP     RDEEP_COMP      RHOB_COMP     RSHAL_COMP            TVD          TVDSS 
~A
# ...
     3135.1728       0.094025       194.0000        94.3166       124.1922         9.6684       0.471906         3.7019         1.9745         2.4374         2.2446      2786.0159      2765.8958
     3135.3252       0.099668       194.0655        96.7818       121.2274         9.5337       0.447356         3.6951         1.9643         2.4272         2.2392      2786.1270      2766.0068
     3135.4776       0.105958       195.1027        96.5293       120.5359         9.6235       0.399440         3.6878         1.9485         2.4302         2.2276      2786.2383      2766.1182
     3135.6300       0.103879       195.7671        95.4876       119.9320         9.6235       0.430472         3.6746         1.9246         2.4295         2.2150      2786.3496      2766.2295
     3135.7824       0.108932       194.6406        95.9205       117.8842         9.5113       0.444711         3.6454         1.9046         2.4376         2.2103      2786.4607      2766.3406
     3135.9348       0.112617       193.6189        96.9555       118.8318         9.8704       0.464648         3.5836         1.8913         2.4301         2.2004      2786.5720      2766.4519
     3136.0872       0.119366       193.6122        96.3829       117.9082         9.9041       0.441413         3.5254         1.8584         2.4249         2.1642      2786.6833      2766.5632
     3136.2396       0.120536       194.8125        96.0125       119.3065        10.0500       0.457013         3.5044         1.8168         2.4036         2.1144      2786.7947      2766.6746
     3136.3920       0.140164       196.4830        97.6125       117.9564         9.6684       0.461166         3.5794         1.7975         2.4030         2.0936      2786.9060      2766.7859
     3136.5444       0.157016       198.4141       100.1969       121.0075         9.8368       0.471157         3.6981         1.7663         2.4000         2.0857      2787.0173      2766.8972
     3136.6968       0.172502       200.9720        99.6535       117.7680        10.0949       0.478571         3.7874         1.7979         2.4120         2.1169      2787.1284      2767.0083
     3136.8492       0.172935       203.7867        99.8996       114.5847         9.5562       0.474222         3.7975         1.8156         2.4254         2.1500      2787.2397      2767.1196
     3137.0016       0.161868       203.0662        95.9492       114.8024         9.5562       0.472377         3.7537         1.7998         2.4321         2.1567      2787.3511      2767.2310
     3137.1540       0.142424       202.0525        95.3919       116.3320         9.8255       0.437328         3.7298         1.7903         2.4425         2.1266      2787.4624      2767.3423
     3137.3064       0.115492       201.4044        92.5883       118.2387        10.0949       0.411819         3.7103         1.7594         2.4315         2.0707      2787.5737      2767.4536
     3137.4588       0.104997       201.9287        93.6134       116.3550        10.2857       0.412810         3.6984         1.7358         2.4359         2.0287      2787.6851      2767.5649
     3137.6112       0.105715       203.2922        95.8079       115.0788         9.7582       0.433890         3.6766         1.7268         2.4449         1.9928      2787.7961      2767.6760
     3137.7636       0.108303       206.0090        97.3079       119.6297        10.1622       0.446508         3.6494         1.7123         2.4436         1.9503      2787.9075      2767.7874
     3137.9160       0.108465       209.1985        97.1431       122.1377         9.9602       0.425011         3.6367         1.7236         2.3975         1.9429      2788.0188      2767.8987
     3138.0684       0.108822       211.9304        99.8251       125.5587         9.6011       0.398236         3.6236         1.7252         2.3477         1.9206      2788.1301      2768.0100
     3138.2208       0.111514       214.5587        99.1237       121.2541         9.6572       0.417644         3.6256         1.7298         2.3402         1.9352      2788.2415      2768.1213
     3138.3732       0.110301       216.0000       100.1441       118.0580         9.9378       0.472841         3.6399         1.7151         2.3821         1.9002      2788.3528      2768.2327
     3138.5256       0.113448       216.0000       101.7446       117.2992         9.8480       0.506480         3.6827         1.6606         2.4038         1.8834      2788.4641      2768.3440
     3138.6780       0.132734       215.4492       102.2510       118.1777        10.3642       0.515487         3.7530         1.6453         2.4059         1.8182      2788.5752      2768.4551
     3138.8304       0.139000       213.3143       102.9361       122.1398        10.2632       0.523232         3.7663         1.6576         2.3846         1.8289      2788.6865      2768.5664
     3138.9828       0.132374       210.7931       102.6274       117.5842        10.3867       0.527175         3.7517         1.6801         2.4023         1.8504      2788.7979      2768.6777
     3139.1352       0.112362       207.8725       102.0607       116.4823         9.4664       0.517381         3.7519         1.6678         2.4390         1.8979      2788.9089      2768.7888
     3139.2876       0.099607       199.1311        97.9344       117.3237        10.2520       0.482486         3.7972         1.7165         2.4672         1.9497      2789.0203      2768.9001
     3139.4400       0.096380       189.2163        93.1518       121.7047         9.8031       0.461037         3.8541         1.7826         2.4846         1.9809      2789.1316      2769.0115
     3139.5924       0.079600       180.1269        89.2511       123.0307         9.1410       0.484160         3.8654         1.8814         2.4964         2.1534      2789.2427      2769.1226
     3139.7448       0.062551       173.9211        85.7043       122.5325         9.5562       0.504065         3.9059         1.9969         2.5417         2.3487      2789.3540      2769.2339
     3139.8972       0.031911       170.7451        86.7704       124.4574         9.1297       0.491782         3.9218         2.0985         2.5417         2.4657      2789.4653      2769.3452
     3140.0496       0.016092       168.8900        88.4182       121.8903         9.5113       0.420648         3.8915         2.2038         2.5099         2.5710      2789.5767      2769.4565
     3140.2020       0.004156       167.7875        90.5179       126.0131         8.9502       0.370057         3.7442         2.3515         2.4409         2.8370      2789.6880      2769.5679
     3140.3544       0.002539       167.6087        92.0990       126.9298         8.9951       0.336699         3.6007         2.6212         2.3816         3.1449      2789.7993      2769.6792
     3140.5068       0.000777       167.0359        93.6759       128.0840         9.1410       0.355460         3.4939         2.7076         2.3374         3.3812      2789.9104      2769.7903
     3140.6592      -0.001024       166.1615        92.0570       124.2857         9.1971       0.351931         3.4334         2.7166         2.3103         3.2439      2790.0215      2769.9014
     3140.8116       0.000010       167.0386        90.3542       120.0001         9.2195       0.323204         3.3668         2.6877         2.3093         3.1872      2790.1326      2770.0125
     3140.9640       0.003130       168.9594        91.3611       117.9940         9.1971       0.292603         3.3180         2.6018         2.3214         3.1710      2790.2437      2770.1235
     3141.1164       0.008032       169.4282        90.6736       113.3063         9.1746       0.277499         3.3127         2.5518         2.3392         3.1161      2790.3545      2770.2344
     3141.2688       0.017545       166.8403        90.2420       108.4169         9.1297       0.279138         3.3759         2.5247         2.3633         3.1310      2790.4656      2770.3455
     3141.4212       0.029515       163.9939        90.3187       105.7338         9.0624       0.276794         3.4743         2.5264         2.3889         3.1965      2790.5767      2770.4565
