~Version Section
VERS.   2.0:  CWLS Log ASCII Standard - Version 2.0
WRAP.    NO:  One data record per depth sample.
~Well Information Section
#MNEM.UNIT      VALUE                    DESCRIPTION
#---------      ----------               -----------
STRT.M                   0               :START DEPTH
STOP.M          3180.43555               :STOP DEPTH
STEP.M               .1524               :STEP
NULL.          -999.250000               :NULL VALUE
COMP.                                    :Oil Company
WELL.         GABO-21                    :Non unique well name
FLD.              FNG00147               :Field name
LOC.  6.610748, 5.225944                 :Location
PROV.                                    :Province
SRVC.                                    :Service
DATE.           2013-08-16               :Date unloaded
UWI.          			               :Unique well id
~Curve Information Section
#MNEM.UNIT                   API CODE                 Curve Description
#---------                   ----------               -----------------
BOREHOLE-DEPTH.M                                   :DEPTH
GR.GAPI                                   :
RT.OHMM                                   :
RXO.OHMM                                   :
TVD.M                                   :
TVDSS.M                                   :
~A
# ...
2129.6377    29.4097      4.8331       4.5498       2095.3340    2076.0139    
2129.7900    27.6696      4.6517       4.5426       2095.4636    2076.1436    
2129.9424    26.1025      4.7429       4.7690       2095.5930    2076.2732    
2130.0947    27.8424      4.6767       4.5316       2095.7227    2076.4026    
2130.2473    27.9287      4.6019       4.5220       2095.8521    2076.5320    
2130.3997    27.9289      4.5451       4.4563       2095.9817    2076.6616    
2130.5520    29.5826      4.4836       4.2527       2096.1111    2076.7913    
2130.7043    29.6691      4.3978       4.1245       2096.2407    2076.9207    
2130.8569    31.3225      4.2538       4.2295       2096.3701    2077.0503    
2131.0093    29.6691      4.3679       3.9274       2096.4998    2077.1797    
2131.1616    31.3227      4.2915       4.3620       2096.6292    2077.3091    
2131.3140    31.3227      4.2198       3.9966       2096.7585    2077.4387    
2131.4663    31.3227      4.2198       3.9966       2096.8882    2077.5681    
2131.6189    31.4090      4.2198       3.9966       2097.0176    2077.6975    
2131.7712    31.4953      4.2368       3.9524       2097.1470    2077.8269    
2131.9236    31.5819      4.2368       3.9524       2097.2766    2077.9565    
2132.0759    33.2357      4.2368       3.9524       2097.4060    2078.0859    
2132.2285    34.8895      4.2369       3.9524       2097.5354    2078.2153    
2132.3809    36.5431      4.4242       4.2663       2097.6648    2078.3450    
2132.5332    36.5431      4.4242       4.2663       2097.7942    2078.4744    
2132.6855    36.5431      4.4242       4.2663       2097.9238    2078.6038    
2132.8381    36.5431      4.4110       4.1592       2098.0532    2078.7332    
2132.9905    36.5431      4.4110       4.1592       2098.1826    2078.8625    
2133.1428    36.5431      4.4110       4.1592       2098.3120    2078.9919    
2133.2952    36.3705      4.4110       4.1592       2098.4414    2079.1216    
2133.4475    36.1979      4.3345       4.2448       2098.5708    2079.2510    
2133.6001    36.0248      4.3345       4.2448       2098.7002    2079.3804    
2133.7524    32.6308      4.3345       4.2447       2098.8296    2079.5098    
2133.9048    29.2366      4.3458       4.1294       2098.9590    2079.6392    
2134.0571    24.1892      4.3458       4.1294       2099.0884    2079.7686    
2134.2097    22.5354      4.1585       4.1007       2099.2180    2079.8979    
2134.3621    20.8818      4.1585       4.1007       2099.3472    2080.0271    
2134.5144    20.8818      4.3072       4.1124       2099.4766    2080.1565    
2134.6667    20.8818      4.2109       4.2928       2099.6060    2080.2859    
2134.8193    20.8818      4.2260       4.1546       2099.7354    2080.4153    
2134.9717    20.9681      4.3010       4.1548       2099.8647    2080.5447    
2135.1240    21.0547      4.2485       4.1702       2099.9941    2080.6741    
2135.2764    22.8816      4.3113       3.9011       2100.1233    2080.8035    
2135.4287    27.8426      4.1356       4.1064       2100.2527    2080.9329    
2135.5813    29.4962      4.0489       3.8766       2100.3821    2081.0620    
2135.7336    29.4095      3.9632       3.9678       2100.5115    2081.1914    
2135.8860    26.1022      4.0162       3.7578       2100.6409    2081.3208    
2136.0383    26.1022      4.1245       3.8443       2100.7700    2081.4502    
2136.1909    26.1022      4.0526       3.9471       2100.8994    2081.5793    
2136.3433    26.0157      4.1271       3.8742       2101.0288    2081.7087    
2136.4956    24.2756      4.2055       3.9650       2101.1582    2081.8381    
2136.6479    22.6220      4.2500       4.0942       2101.2874    2081.9673    
2136.8005    22.6222      4.2071       4.1847       2101.4165    2082.0967    
2136.9529    24.3623      4.1646       4.1338       2101.5459    2082.2258    
2137.1052    26.1023      4.0971       4.0179       2101.6753    2082.3552    
2137.2576    26.2751      4.1084       4.1496       2101.8044    2082.4846    
2137.4099    27.9287      4.2364       4.1300       2101.9338    2082.6138    
2137.5625    27.8426      4.0378       3.8800       2102.0630    2082.7432    
2137.7148    29.5828      4.0038       4.0121       2102.1924    2082.8723    
2137.8672    31.3227      4.0943       3.8786       2102.3215    2083.0017    
2138.0195    31.4090      4.0480       3.7735       2102.4509    2083.1309    
2138.1721    31.3225      3.9596       3.6202       2102.5801    2083.2600    
2138.3245    29.6691      3.9292       3.7011       2102.7095    2083.3894    
2138.4768    31.3227      3.8593       3.7189       2102.8386    2083.5186    
2138.6292    31.2362      3.9414       3.8765       2102.9680    2083.6479    
2138.7817    29.5826      4.0629       3.8588       2103.0972    2083.7771    
2138.9341    29.6691      3.9095       3.9557       2103.2263    2083.9062    
2139.0864    31.4092      3.9721       4.0152       2103.3555    2084.0354    
2139.2388    33.0628      3.9888       3.9514       2103.4849    2084.1648    
2139.3911    32.9763      4.0184       3.9562       2103.6140    2084.2939    
2139.5437    31.3227      4.0818       3.8294       2103.7432    2084.4231    
2139.6960    31.4092      3.8641       3.9233       2103.8723    2084.5525    
2139.8484    33.0628      3.9371       3.7165       2104.0017    2084.6816    
2140.0007    33.0631      3.8936       3.8385       2104.1309    2084.8108    
2140.1533    34.6301      4.0396       3.8301       2104.2600    2084.9399    
2140.3057    32.9765      4.0827       3.9871       2104.3892    2085.0691    
2140.4580    32.9763      3.9879       4.0434       2104.5183    2085.1982    
2140.6104    31.3227      3.9756       3.9254       2104.6475    2085.3274    
2140.7629    31.3227      3.9869       3.8162       2104.7766    2085.4568    
2140.9153    31.4092      4.0268       3.7488       2104.9058    2085.5857    
2141.0676    33.0628      3.9654       3.8387       2105.0349    2085.7151    
2141.2200    33.0628      3.9908       3.7471       2105.1641    2085.8440    
2141.3723    32.9761      4.0696       3.7631       2105.2932    2085.9734    
2141.5249    29.6688      4.0858       3.7637       2105.4224    2086.1023    
2141.6772    29.5823      4.1595       4.0395       2105.5515    2086.2317    
2141.8296    27.8426      4.1564       4.1628       2105.6807    2086.3606    
2141.9819    29.5828      4.2175       4.1514       2105.8098    2086.4897    
2142.1345    31.3229      4.0248       3.9938       2105.9390    2086.6189    
2142.2869    32.9763      3.9973       3.8883       2106.0681    2086.7480    
2142.4392    31.1496      4.2622       4.1821       2106.1973    2086.8772    
2142.5916    27.6693      4.5674       4.2409       2106.3264    2087.0063    
2142.7441    24.2758      4.5638       4.4653       2106.4553    2087.1355    
2142.8965    24.3624      4.5143       4.6013       2106.5845    2087.2644    
2143.0488    26.1891      4.4381       4.5523       2106.7136    2087.3936    
2143.2012    29.6691      4.4245       4.3271       2106.8425    2087.5227    
2143.3535    31.3227      4.4914       4.4124       2106.9717    2087.6516    
2143.5061    31.3227      4.6600       4.2775       2107.1008    2087.7808    
2143.6584    31.3224      4.6600       4.2775       2107.2297    2087.9099    
2143.8108    29.4957      4.3612       4.5984       2107.3589    2088.0388    
2143.9631    26.1020      4.7507       4.6369       2107.4878    2088.1680    
2144.1157    24.5353      4.4587       4.4120       2107.6169    2088.2969    
2144.2681    28.4484      4.4586       4.4119       2107.7458    2088.4258    
2144.4204    40.8886      3.9805       3.9252       2107.8748    2088.5547    
2144.5728    55.1564      3.9805       3.9251       2108.0039    2088.6838    
2144.7253    79.2586      3.7196       3.6795       2108.1328    2088.8127    
2144.8777    96.3143      3.6721       3.6371       2108.2617    2088.9417    
2145.0300    109.7154     3.7317       3.4107       2108.3906    2089.0706    
