~Version Section
VERS.   2.0:  CWLS Log ASCII Standard - Version 2.0
WRAP.    NO:  One data record per depth sample.
~Well Information Section
#MNEM.UNIT      VALUE                    DESCRIPTION
#---------      ----------               -----------
STRT.M                   0               :START DEPTH
STOP.M          3180.43555               :STOP DEPTH
STEP.M               .1524               :STEP
NULL.          -999.250000               :NULL VALUE
COMP.                                    :Oil Company
WELL.         GABO-21                    :Non unique well name
FLD.              FNG00147               :Field name
LOC.  6.610748, 5.225944                 :Location
PROV.                                    :Province
SRVC.                                    :Service
DATE.           2013-08-16               :Date unloaded
UWI.          			               :Unique well id
~Curve Information Section
#MNEM.UNIT                   API CODE                 Curve Description
#---------                   ----------               -----------------
BOREHOLE-DEPTH.M                                   :DEPTH
GR.GAPI                                   :
RT.OHMM                                   :
RXO.OHMM                                   :
TVD.M                                   :
TVDSS.M                                   :
~A
# ...
2922.4224    -999.2500    -999.2500    -999.2500    2498.7324    2479.4124    
2922.5750    -999.2500    -999.2500    -999.2500    2498.7419    2479.4221    
2922.7273    -999.2500    -999.2500    -999.2500    2498.7517    2479.4316    
2922.8796    -999.2500    -999.2500    -999.2500    2498.7612    2479.4414    
2923.0320    -999.2500    -999.2500    -999.2500    2498.7708    2479.4507    
2923.1843    -999.2500    -999.2500    -999.2500    2498.7803    2479.4602    
2923.3369    -999.2500    -999.2500    -999.2500    2498.7898    2479.4697    
2923.4893    -999.2500    -999.2500    -999.2500    2498.7993    2479.4792    
2923.6416    -999.2500    -999.2500    -999.2500    2498.8086    2479.4885    
2923.7939    -999.2500    -999.2500    -999.2500    2498.8179    2479.4978    
2923.9465    -999.2500    -999.2500    -999.2500    2498.8271    2479.5071    
2924.0989    -999.2500    -999.2500    -999.2500    2498.8364    2479.5164    
2924.2512    -999.2500    -999.2500    -999.2500    2498.8457    2479.5256    
2924.4036    -999.2500    -999.2500    -999.2500    2498.8547    2479.5349    
2924.5562    -999.2500    -999.2500    -999.2500    2498.8640    2479.5439    
2924.7085    -999.2500    -999.2500    -999.2500    2498.8728    2479.5530    
2924.8608    -999.2500    -999.2500    -999.2500    2498.8821    2479.5620    
2925.0132    -999.2500    -999.2500    -999.2500    2498.8911    2479.5710    
2925.1655    -999.2500    -999.2500    -999.2500    2498.8999    2479.5798    
2925.3181    21.6208      -999.2500    -999.2500    2498.9087    2479.5889    
2925.4705    22.4856      -999.2500    -999.2500    2498.9177    2479.5977    
2925.6228    23.3501      -999.2500    -999.2500    2498.9265    2479.6064    
2925.7751    22.9178      -999.2500    -999.2500    2498.9353    2479.6152    
2925.9277    23.3502      -999.2500    -999.2500    2498.9438    2479.6238    
2926.0801    23.3505      -999.2500    -999.2500    2498.9526    2479.6326    
2926.2324    24.2150      -999.2500    -999.2500    2498.9612    2479.6411    
2926.3848    24.2150      -999.2500    -999.2500    2498.9697    2479.6499    
2926.5374    24.2147      -999.2500    -999.2500    2498.9785    2479.6584    
2926.6897    23.3502      -999.2500    -999.2500    2498.9868    2479.6667    
2926.8420    23.3499      -999.2500    -999.2500    2498.9954    2479.6753    
2926.9944    22.4854      -999.2500    -999.2500    2499.0039    2479.6838    
2927.1467    22.9171      -999.2500    -999.2500    2499.0122    2479.6921    
2927.2993    21.1884      -999.2500    -999.2500    2499.0205    2479.7004    
2927.4517    22.0532      -999.2500    -999.2500    2499.0288    2479.7087    
2927.6040    22.9183      -999.2500    -999.2500    2499.0371    2479.7170    
2927.7563    24.6471      -999.2500    -999.2500    2499.0452    2479.7251    
2927.9089    23.7820      -999.2500    -999.2500    2499.0532    2479.7334    
2928.0613    22.0525      -999.2500    -999.2500    2499.0613    2479.7415    
2928.2136    20.7560      -999.2500    -999.2500    2499.0696    2479.7495    
2928.3660    21.6206      -999.2500    -999.2500    2499.0774    2479.7576    
2928.5186    22.0530      -999.2500    -999.2500    2499.0854    2479.7654    
2928.6709    22.4849      -999.2500    -999.2500    2499.0935    2479.7734    
2928.8232    21.1881      -999.2500    -999.2500    2499.1013    2479.7812    
2928.9756    21.1880      -999.2500    -999.2500    2499.1091    2479.7893    
2929.1279    20.7561      -999.2500    -999.2500    2499.1169    2479.7971    
2929.2805    22.0526      -999.2500    -999.2500    2499.1248    2479.8047    
2929.4329    21.1881      -999.2500    -999.2500    2499.1326    2479.8125    
2929.5852    21.1875      -999.2500    -999.2500    2499.1401    2479.8201    
2929.7375    19.4588      -999.2500    -999.2500    2499.1477    2479.8276    
2929.8901    20.3230      -999.2500    -999.2500    2499.1553    2479.8352    
2930.0425    19.4586      -999.2500    -999.2500    2499.1628    2479.8430    
2930.1948    19.8910      -999.2500    -999.2500    2499.1704    2479.8503    
2930.3472    20.3244      -999.2500    -999.2500    2499.1777    2479.8579    
2930.4998    23.7836      -999.2500    -999.2500    2499.1853    2479.8652    
2930.6521    26.8101      -999.2500    -999.2500    2499.1926    2479.8726    
2930.8044    28.9716      -999.2500    -999.2500    2499.2000    2479.8799    
2930.9568    29.4036      -999.2500    -999.2500    2499.2073    2479.8872    
2931.1091    28.5394      -999.2500    -999.2500    2499.2146    2479.8945    
2931.2617    29.4043      -999.2500    -999.2500    2499.2217    2479.9016    
2931.4141    30.7020      -999.2500    -999.2500    2499.2288    2479.9087    
2931.5664    33.2953      -999.2500    -999.2500    2499.2358    2479.9160    
2931.7188    32.4302      193.2169     37.1984      2499.2429    2479.9231    
2931.8713    30.7008      235.0861     63.1403      2499.2500    2479.9299    
2932.0237    29.8362      108.4781     32.8946      2499.2571    2479.9370    
2932.1760    29.4039      108.8322     34.8520      2499.2639    2479.9438    
2932.3284    29.4036      145.6734     54.5830      2499.2708    2479.9507    
2932.4810    28.5392      158.9157     59.7065      2499.2776    2479.9578    
2932.6333    28.9715      191.2670     85.5045      2499.2844    2479.9644    
2932.7856    28.9719      200.2865     115.3408     2499.2913    2479.9712    
2932.9380    30.2687      144.5145     108.5617     2499.2979    2479.9778    
2933.0903    30.2688      197.1945     171.1134     2499.3047    2479.9846    
2933.2429    30.7008      138.3744     96.9957      2499.3113    2479.9912    
2933.3953    29.8366      145.6658     142.9388     2499.3179    2479.9978    
2933.5476    30.7017      123.8773     109.1141     2499.3245    2480.0044    
2933.7000    32.4312      118.8583     79.2102      2499.3308    2480.0107    
2933.8525    33.7277      137.8284     83.2868      2499.3374    2480.0173    
2934.0049    32.8625      111.9950     53.4667      2499.3438    2480.0237    
2934.1572    30.7010      145.0723     42.4850      2499.3501    2480.0300    
2934.3096    30.2686      121.7400     47.1702      2499.3564    2480.0364    
2934.4622    29.8363      130.7434     46.0573      2499.3628    2480.0427    
2934.6145    29.8360      98.7815      38.5177      2499.3689    2480.0488    
2934.7668    28.9716      105.4960     30.2997      2499.3750    2480.0552    
2934.9192    29.4042      105.5064     30.3022      2499.3813    2480.0613    
2935.0715    30.2691      136.7848     37.9258      2499.3875    2480.0674    
2935.2241    31.5663      154.2773     34.2191      2499.3933    2480.0735    
2935.3765    32.8636      122.1604     39.9422      2499.3994    2480.0793    
2935.5288    34.1605      117.2560     33.9449      2499.4055    2480.0854    
2935.6812    34.5932      117.2565     33.9411      2499.4114    2480.0913    
2935.8337    35.8898      118.8386     22.5785      2499.4172    2480.0972    
2935.9861    35.0256      87.4973      23.7048      2499.4231    2480.1030    
2936.1384    36.3228      104.8514     25.2961      2499.4290    2480.1089    
2936.2908    37.1882      99.9761      19.4651      2499.4346    2480.1145    
2936.4431    39.7817      128.8418     19.4644      2499.4404    2480.1204    
2936.5957    39.3497      104.2267     17.4603      2499.4460    2480.1260    
2936.7480    40.6470      127.4417     16.4720      2499.4517    2480.1316    
2936.9004    41.9445      81.3422      13.9598      2499.4573    2480.1372    
2937.0527    44.1055      65.4040      11.8985      2499.4629    2480.1428    
2937.2053    42.8085      57.0498      10.7773      2499.4683    2480.1482    
2937.3577    42.3762      95.3780      12.3069      2499.4736    2480.1538    
2937.5100    42.3765      120.0769     14.8039      2499.4790    2480.1592    
2937.6624    43.2411      134.7479     17.6737      2499.4846    2480.1646    
2937.8149    43.6728      233.7112     24.7432      2499.4897    2480.1699    
