~Version Information Block
VERS .                 2.00:  CWLS LOG ASCII STANDARD - VERSION 2.00
WRAP .                   NO:  One line per depth step
~Well Information Block
#MNEM.UNIT        Data Type   Information
#---------- ----------------  -----------
STRT .M              0.0000:  START DEPTH
STOP .M           2748.9912:  STOP DEPTH
STEP .M              0.1524:  STEP
NULL .              -999.25:  NULL VALUE
COMP .                     :  COMPANY
WELL .               GABO13:  LOCATION
FLD  .                     :  FIELD
LOC  .   6.617986, 5.233868:  LOCATION
CTRY .                     :  COUNTRY
STAT .                     :  STATE
CNTY .                     :  COUNTY
API  .                     :  API NUMBER
UWI  .                     :  UNIQUE WELL ID
SRVC .                     :  SERVICE COMPANY
DATE .                     :  LOG DATE
~Curve Information Block
#MNEM.UNIT         API CODE   Curve Description
#---------- ----------------  -----------------
DEPTH.M                    :  Depth
BS_COMP.INCHES             :  Bit Size
CALI_COMP.INCHES          0:  Caliper
DRHO_COMP.G/C3             :  Density Correction Log
DT_COMP.US/F              0:  Compressional Sonic
ECART_COMP.                :  Neutron Density Seperation
GR_COMP.GAPI              0:  Gamma Ray
NPHI_COMP.V/V              :  Neutron Porosity
PEF_COMP.B/E              0:  Photo Electric Factor
RHOB_COMP.G/C3            0:  Bulk Density
RDeep_COMP.OHMM           0:  Deep Resistivity
RShal_COMP.OHMM           0:  Shallow Resistivity
SP_COMP.MV                0:  Spontaneous Potential
TVDSS_COMP.M               :  Reference TVD sub-sea log.
TVD_COMP.M                 :  Reference TVD log.
~Parameter Information Block
#MNEM.UNIT            Value   Description
#---------- ----------------  -----------
SET  .                  LCS:  
~Other Information Block
#        DEPTH        BS_COMP      CALI_COMP      DRHO_COMP        DT_COMP     ECART_COMP        GR_COMP      NPHI_COMP       PEF_COMP      RHOB_COMP      RDeep_COMP     RShal_COMP        SP_COMP     TVDSS_COMP       TVD_COMP 
~A
# ...
     2679.8016        12.2500        12.9736       0.164264       105.0331      -999.2500       104.7247       0.663504         3.6145         2.3059         1.4107         1.0347        -5.7428      2664.9274      2678.7274
     2679.9540        12.2500        12.9591       0.178121       105.0779      -999.2500       105.2025       0.613812         3.6316         2.3123         1.4342         1.0427       -10.1015      2665.0796      2678.8796
     2680.1064        12.2500        12.8133       0.184460       105.0713      -999.2500       108.1292       0.553443         3.7212         2.3422         1.4898         1.0548        -6.8595      2665.2318      2679.0318
     2680.2588        12.2500        12.6595       0.178184       105.0782      -999.2500       111.3095       0.538944         3.8519         2.3830         1.5671         1.0753        -1.6214      2665.3841      2679.1841
     2680.4112        12.2500        12.5732       0.165184       105.0896      -999.2500       112.1130       0.557977         3.9982         2.4173         1.6502         1.1232         0.3498      2665.5363      2679.3363
     2680.5636        12.2500        12.5474       0.153591       105.0263      -999.2500       108.8821       0.575692         4.0912         2.4317         1.7282         1.2164         0.5881      2665.6885      2679.4885
     2680.7160        12.2500        12.2337       0.140468       104.9246      -999.2500       106.1158       0.576556         4.0259         2.4147         1.7915         1.3501         0.5883      2665.8407      2679.6407
     2680.8684        12.2500        11.9649       0.120198       104.8445      -999.2500       106.5432       0.579163         3.9110         2.3741         1.8436         1.4908         0.5851      2665.9930      2679.7930
     2681.0208        12.2500        11.8675       0.104040       104.8485      -999.2500       107.0797       0.598081         3.8716         2.3277         1.9030         1.6214         0.5835      2666.1452      2679.9452
     2681.1732        12.2500        11.8851       0.107893       104.9360      -999.2500       104.6207       0.615703         3.8987         2.3017         2.0061         1.7190         0.5821      2666.2974      2680.0974
     2681.3256        12.2500        11.9534       0.130834       104.9906      -999.2500       100.7654       0.593633         3.8982         2.3288         2.2084         1.7361         0.5707      2666.4496      2680.2496
     2681.4780        12.2500        11.9383       0.149816       105.0000      -999.2500        99.3530       0.555537         3.8954         2.3930         2.5091         1.7193         0.5531      2666.6019      2680.4019
     2681.6304        12.2500        11.8886       0.147100       105.0000      -999.2500        99.3421       0.530999         3.9365         2.4483         2.8375         1.7757         0.5410      2666.7541      2680.5541
     2681.7828        12.2500        11.8795       0.120918       105.0000      -999.2500        99.1573       0.525146         3.9916         2.4688         3.1163         2.0163         0.5380      2666.9063      2680.7063
     2681.9352        12.2500        11.9491       0.088771       105.0000      -999.2500        98.7569       0.536085         3.9891         2.4623         3.2959         2.5378         0.5367      2667.0585      2680.8585
     2682.0876        12.2500        12.0344       0.080019       105.0000      -999.2500        99.8167       0.561030         3.9381         2.4535         3.3846         3.2148         0.5337      2667.2108      2681.0108
     2682.2400        12.2500        12.0933       0.090244       105.0000      -999.2500       100.2324       0.593940         3.8777         2.4547         3.3856         3.6388         0.5336      2667.3630      2681.1630
     2682.3924        12.2500        12.1138       0.099931       105.0000      -999.2500        99.2538       0.623484         3.8294         2.4656         3.2675         3.5786         0.5394      2667.5152      2681.3152
     2682.5448        12.2500        12.0855       0.100067       105.0000      -999.2500        99.0847       0.631985         3.8093         2.4791         3.0140         3.1812         0.5464      2667.6674      2681.4674
     2682.6972        12.2500        12.0972       0.097588       105.0000      -999.2500        97.7308       0.615151         3.8257         2.4825         2.7323         2.7990         0.5451      2667.8197      2681.6197
     2682.8496        12.2500        12.1445       0.098451       105.0000      -999.2500        94.2007       0.601521         3.8569         2.4767         2.5438         2.5629         0.5329      2667.9719      2681.7719
     2683.0020        12.2500        12.1909       0.103734       105.0000      -999.2500        89.5601       0.592420         3.8618         2.4688         2.4621         2.4179         0.5178      2668.1241      2681.9241
     2683.1544        12.2500        12.2030       0.113302       105.0000      -999.2500        85.7480       0.566967         3.8427         2.4616         2.4304         2.2845         0.5078      2668.2763      2682.0763
     2683.3068        12.2500        12.2170       0.123934       105.0000      -999.2500        84.6599       0.542875         3.8926         2.4491         2.4067         2.1268         0.4983      2668.4286      2682.2286
     2683.4592        12.2500        12.2319       0.127928       105.0000      -999.2500        84.2928       0.533613         3.9696         2.4217         2.3842         1.9674         0.4924      2668.5808      2682.3808
     2683.6116        12.2500        12.1685       0.121089       105.0000      -999.2500        83.6851       0.534181         3.9914         2.3829         2.3685         1.8269         0.4926      2668.7330      2682.5330
     2683.7640        12.2500        11.9421       0.109247       105.0000      -999.2500        82.8852       0.544760         3.9471         2.3465         2.3615         1.7011         0.4954      2668.8852      2682.6852
     2683.9164        12.2500        11.7476       0.107429       105.0000      -999.2500        81.8595       0.575888         3.8980         2.3231         2.3554         1.5703         0.4966      2669.0375      2682.8375
     2684.0688        12.2500        11.8796       0.111570       105.0000      -999.2500        80.7440       0.609287         3.8768         2.3082         2.3476         1.4305         0.4916      2669.1897      2682.9897
     2684.2212        12.2500        12.1832       0.110171       105.0000      -999.2500        79.6449       0.627868         3.8734         2.2931         2.3446         1.2964         0.4891      2669.3419      2683.1419
     2684.3736        12.2500        12.4138       0.099708       105.0000      -999.2500        78.6560       0.632324         3.8762         2.2758         2.3496         1.1834         0.4927      2669.4941      2683.2941
     2684.5260        12.2500        12.4127       0.086770        95.8528      -999.2500        78.1816    -999.250000         3.5450      -999.2500      -999.2500      -999.2500         0.4460      2669.6464      2683.4464
     2684.6784        12.2500        12.2592       0.080258      -999.2500      -999.2500      -999.2500    -999.250000      -999.2500      -999.2500      -999.2500      -999.2500         0.2704      2669.7986      2683.5986
     2684.8308        12.2500        12.0601       0.084248      -999.2500      -999.2500      -999.2500    -999.250000      -999.2500      -999.2500      -999.2500      -999.2500         0.0856      2669.9508      2683.7508
     2684.9832        12.2500        11.8501       0.097027      -999.2500      -999.2500      -999.2500    -999.250000      -999.2500      -999.2500      -999.2500      -999.2500         0.0105      2670.1030      2683.9030
     2685.1356        12.2500        11.5887       0.111842      -999.2500      -999.2500      -999.2500    -999.250000      -999.2500      -999.2500      -999.2500      -999.2500         0.0000      2670.2553      2684.0553
