~Version Information Block
VERS .                 2.00:  CWLS LOG ASCII STANDARD - VERSION 2.00
WRAP .                   NO:  One line per depth step
~Well Information Block
#MNEM.UNIT        Data Type   Information
#---------- ----------------  -----------
STRT .M              0.0000:  START DEPTH
STOP .M           2799.8928:  STOP DEPTH
STEP .M              0.1524:  STEP
NULL .              -999.25:  NULL VALUE
COMP .                     :  COMPANY
WELL .              GABO-18:  WELL
FLD  .                     :  FIELD
LOC  .   6.635779, 5.238893:  LOCATION
CTRY .                     :  COUNTRY
STAT .                     :  STATE
CNTY .                     :  COUNTY
API  .                     :  API NUMBER
UWI  .                     :  UNIQUE WELL ID
SRVC .                     :  SERVICE COMPANY
DATE .                     :  LOG DATE
~Curve Information Block
#MNEM.UNIT         API CODE   Curve Description
#---------- ----------------  -----------------
DEPTH.M                    :  Reference Depth
BS_COMP.INCHES             :  Bit Size
CALI_COMP.INCHES          0:  Caliper
DRHO_COMP.G/C3            0:  Density Correction Log
ECART_COMP.                :  Neutron Density Seperation
GR   .GAPI                0:  Gamma Ray
GR_COMP.GAPI              0:  Gamma Ray Composite
NPHI .V/V                  :  Neutron Porosity
NPHI_COMP.V/V              :  Neutron Porosity Composite
PEF_COMP.B/E              0:  Photo Electric Factor
RHOB_COMP.G/C3            0:  Bulk Density
RT   .OHMM                0:  True or Deep Resistivity
RT_COMP.OHMM              0:  True or Deep Resistivity Composite
RXO  .OHMM                0:  Invaded Zone Resistivity
RXO_COMP.OHMM             0:  Invaded Zone Resistivity composite
SP_COMP.MV                0:  Spontaneous Potential
TVDSS_COMP.M               :  Reference tvdss log.
TVD_COMP.M                 :  Reference tvd log.
~Parameter Information Block
#MNEM.UNIT            Value   Description
#---------- ----------------  -----------
SET  .                  LCS:  
~Other Information Block
#        DEPTH        BS_COMP      CALI_COMP      DRHO_COMP     ECART_COMP             GR        GR_COMP           NPHI      NPHI_COMP       PEF_COMP      RHOB_COMP             RT        RT_COMP            RXO       RXO_COMP        SP_COMP     TVDSS_COMP       TVD_COMP 
~A
# ...
     2154.0216        12.2500        13.8601       0.089892         1.6248        88.4830        88.4830         0.1438       0.143765         4.5385         2.5416        22.2895        22.2895        16.2536        16.2536       -10.1706      2005.8383      2023.9383
     2154.1740        12.2500        13.7011       0.082291         2.8513        92.9815        92.9815         0.1527       0.152663         4.6210         2.5881        27.0766        27.0766        16.6028        16.6028        -9.8699      2005.9607      2024.0607
     2154.3264        12.2500        13.6728       0.065816         3.8044       100.7922       100.7922         0.1758       0.175776         4.2812         2.5973        28.4159        28.4159        14.9749        14.9749       -10.7496      2006.0832      2024.1832
     2154.4788        12.2500        13.5999       0.045557         4.4632       106.8674       106.8674         0.2091       0.209083         3.9319         2.5747        25.7345        25.7345        12.1340        12.1340       -12.0494      2006.2056      2024.3056
     2154.6312        12.2500        13.5072       0.025345         4.7693       108.1355       108.1355         0.2491       0.249102         3.6801         2.5233        20.2373        20.2373         8.9542         8.9542       -13.6710      2006.3281      2024.4281
     2154.7836        12.2500        13.4154       0.012386         4.5709        99.5118        99.5118         0.2889       0.288863         3.5300         2.4471        15.7627        15.7627         7.3658         7.3658       -15.8883      2006.4506      2024.5506
     2154.9360        12.2500        13.3293       0.015768         3.5581        83.5390        83.5390         0.2858       0.285814         3.1967         2.4015        13.0405        13.0405         7.0439         7.0439       -17.2475      2006.5730      2024.6730
     2155.0884        12.2500        13.2018       0.022426         2.0175        65.4220        65.4220         0.2568       0.256770         2.7827         2.3729        11.6560        11.6560         6.8657         6.8657       -18.7163      2006.6955      2024.7955
     2155.2408        12.2500        13.0541       0.028610         0.2139        48.1325        48.1325         0.2147       0.214710         2.3562         2.3528        11.2799        11.2799         6.7242         6.7242       -20.4066      2006.8180      2024.9180
     2155.3932        12.2500        12.9324       0.030899        -1.4613        35.5730        35.5730         0.1782       0.178163         2.0110         2.3300        11.4353        11.4353         6.6953         6.6953       -22.2856      2006.9405      2025.0405
     2155.5456        12.2500        13.0428       0.028813        -1.9000        31.9904        31.9904         0.1783       0.178281         1.9487         2.3079        12.6143        12.6143         7.2597         7.2597       -23.0034      2007.0629      2025.1629
     2155.6980        12.2500        13.0431       0.025547        -2.2005        30.9414        30.9414         0.1816       0.181645         1.9546         2.2872        13.1790        13.1790         7.7582         7.7582       -23.6628      2007.1854      2025.2854
     2155.8504        12.2500        12.9605       0.024520        -2.4048        31.4295        31.4295         0.1862       0.186190         1.9954         2.2694        13.0652        13.0652         8.0860         8.0860       -23.8119      2007.3079      2025.4079
     2156.0028        12.2500        12.8347       0.029163        -2.4936        32.8144        32.8144         0.1916       0.191557         2.0486         2.2561        12.3212        12.3212         8.1747         8.1747       -22.9246      2007.4303      2025.5303
     2156.1552        12.2500        12.7662       0.037542        -1.9000        42.4516        42.4516         0.2075       0.207534         2.2786         2.2591        11.6673        11.6673         8.3119         8.3119       -21.1867      2007.5528      2025.6528
     2156.3076        12.2500        12.7808       0.057778        -0.5990        57.9936        57.9936         0.2399       0.239884         2.5675         2.2702        10.8319        10.8319         7.6684         7.6684       -16.3635      2007.6753      2025.7753
     2156.4600        12.2500        12.8974       0.084723         1.1634        76.4197        76.4197         0.2888       0.288768         2.8548         2.2769         9.4121         9.4121         6.4100         6.4100        -9.9749      2007.7978      2025.8978
     2156.6124        12.2500        13.1108       0.112356         3.2293        94.8137        94.8137         0.3537       0.353680         3.0903         2.2720         7.2827         7.2827         4.7485         4.7485        -3.5324      2007.9203      2026.0203
     2156.7648        12.2500        13.4057       0.116943         5.7926       105.3430       105.3430         0.4306       0.430579         3.1917         2.2720         5.9224         5.9224         3.5803         3.5803        -1.4079      2008.0427      2026.1427
     2156.9172        12.2500        13.6344       0.119759         7.8854       108.2428       108.2428         0.4691       0.469056         3.1557         2.3125         5.3412         5.3412         2.9998         2.9998        -0.4071      2008.1652      2026.2652
     2157.0696        12.2500        13.8260       0.110531         8.8481       109.3407       109.3407         0.4731       0.473097         3.0973         2.3539         5.1681         5.1681         2.7668         2.7668        -0.7296      2008.2877      2026.3877
     2157.2220        12.2500        13.9006       0.085685         8.5275       110.7287       110.7287         0.4504       0.450430         3.0778         2.3757         5.2283         5.2283         2.7599         2.7599        -2.0546      2008.4102      2026.5102
     2157.3744        12.2500        13.7698       0.049117         7.5462       110.5618       110.5618         0.4306       0.430587         3.1585         2.3597         5.4363         5.4363         2.8826         2.8826        -2.4038      2008.5327      2026.6327
     2157.5268        12.2500        13.7462       0.031585         7.3577       111.9510       111.9510         0.4322       0.432248         3.1517         2.3475         5.3084         5.3084         3.0173         3.0173        -2.1819      2008.6552      2026.7552
     2157.6792        12.2500        13.6312       0.021832         7.2607       113.2325       113.2325         0.4362       0.436196         3.1202         2.3360         5.1495         5.1495         3.1529         3.1529        -2.5281      2008.7777      2026.8777
     2157.8316        12.2500        13.4867       0.015891         7.1831       114.1573       114.1573         0.4392       0.439197         3.1096         2.3272         5.0187         5.0187         3.2693         3.2693        -3.6242      2008.9001      2027.0001
     2157.9840        12.2500        13.3700       0.010556         7.4116       115.1883       115.1883         0.4456       0.445597         3.2033         2.3279         4.8686         4.8686         3.3189         3.3189        -5.1870      2009.0226      2027.1226
     2158.1364        12.2500        13.3975       0.008636         7.5171       114.1008       114.1008         0.4422       0.442155         3.2977         2.3389         4.8373         4.8373         3.2250         3.2250        -5.9261      2009.1451      2027.2451
     2158.2888        12.2500        13.3814       0.006666         7.1029       118.6209       118.6209         0.4280       0.428024         3.3241         2.3418         4.8923         4.8923         3.1674         3.1674        -6.8500      2009.2676      2027.3676
     2158.4412        12.2500        13.3468       0.004173         6.4085       128.3535       128.3535         0.4111       0.411093         3.3142         2.3353         5.0628         5.0628         3.2083         3.2083        -8.3020      2009.3901      2027.4901
