~Version Information Block
VERS .                 2.00:  CWLS LOG ASCII STANDARD - VERSION 2.00
WRAP .                   NO:  One line per depth step
~Well Information Block
#MNEM.UNIT        Data Type   Information
#---------- ----------------  -----------
STRT .M           1084.4784:  START DEPTH
STOP .M           2540.6604:  STOP DEPTH
STEP .M              0.1524:  STEP
NULL .              -999.25:  NULL VALUE
COMP .                     :  COMPANY
WELL .               GABA17:  WELL
FLD  .                     :  FIELD
LOC  .   6.675366, 5.270403:  LOCATION
CTRY .                     :  COUNTRY
STAT .                     :  STATE
CNTY .                     :  COUNTY
API  .                     :  API NUMBER
UWI  .                     :  UNIQUE WELL ID
SRVC .                     :  SERVICE COMPANY
DATE .                     :  LOG DATE
~Curve Information Block
#MNEM.UNIT         API CODE   Curve Description
#---------- ----------------  -----------------
DEPTH.M                    :  Reference Depth
BS_COMP.INCHES             :  Bit Size
DRHO_COMP.G/C3             :  Density Correction
GR_COMP.GAPI               :  Gamma Ray
LLS_COMP.OHMM             0:  Resistivity
NPHI_COMP.V/V              :  Neutron Porosity
PEF_COMP.B/E               :  Photo Electric Factor
RHOB_COMP.G/C3             :  Bulk Density
RT_COMP.OHMM               :  True Resistivity
RXO_COMP.OHMM              :  Invaded Zone Resistivity
TVDSS_COMP.M               :  Reference TVD sub-sea log.
TVD_COMP.M                 :  Reference TVD log.
~Parameter Information Block
#MNEM.UNIT            Value   Description
#---------- ----------------  -----------
SET  .                  LCS:  
DEPTH_BOTTOM.M         2530:  Downhole depth
DEPTH_TOP.M            1787:  Downhole depth
UNDER_SAMPLING_RATE.      1:  Full sampling rate if equal to 1
~Other Information Block
#        DEPTH        BS_COMP      DRHO_COMP        GR_COMP       LLS_COMP      NPHI_COMP       PEF_COMP      RHOB_COMP        RT_COMP       RXO_COMP     TVDSS_COMP       TVD_COMP 
~A
     1783.9944         9.8750    -999.250000        50.8240        21.0083    -999.250000      -999.2500      -999.2500      -999.2500      -999.2500      1764.2150      1782.2150
     1784.1468         9.8750    -999.250000        56.6459        21.5557    -999.250000      -999.2500      -999.2500      -999.2500      -999.2500      1764.3668      1782.3668
     1784.2992         9.8750    -999.250000        54.9965        23.6493    -999.250000      -999.2500      -999.2500      -999.2500      -999.2500      1764.5186      1782.5186
     1784.4516         9.8750    -999.250000        46.6997        26.7220    -999.250000      -999.2500      -999.2500      -999.2500      -999.2500      1764.6703      1782.6703
     1784.6040         9.8750    -999.250000        35.8418        29.6875    -999.250000      -999.2500      -999.2500      -999.2500      -999.2500      1764.8221      1782.8221
     1784.7564         9.8750    -999.250000        26.5361        31.6799    -999.250000      -999.2500      -999.2500      -999.2500      -999.2500      1764.9738      1782.9738
     1784.9088         9.8750    -999.250000        20.4440        32.6280    -999.250000      -999.2500      -999.2500      -999.2500      -999.2500      1765.1256      1783.1256
     1785.0612         9.8750    -999.250000        17.2406        32.9676    -999.250000      -999.2500      -999.2500      -999.2500      -999.2500      1765.2774      1783.2774
     1785.2136         9.8750    -999.250000        16.1345        33.0881    -999.250000      -999.2500      -999.2500      -999.2500      -999.2500      1765.4291      1783.4291
     1785.3660         9.8750    -999.250000        16.0712        33.0466    -999.250000      -999.2500      -999.2500      -999.2500      -999.2500      1765.5809      1783.5809
     1785.5184         9.8750    -999.250000        16.2836        32.8849    -999.250000      -999.2500      -999.2500      -999.2500      -999.2500      1765.7327      1783.7327
     1785.6708         9.8750    -999.250000        16.1686        32.6713    -999.250000      -999.2500      -999.2500      -999.2500      -999.2500      1765.8844      1783.8844
     1785.8232         9.8750    -999.250000        15.7319        32.4942    -999.250000      -999.2500      -999.2500      -999.2500      -999.2500      1766.0362      1784.0362
     1785.9756         9.8750    -999.250000        15.4366        32.3964    -999.250000      -999.2500      -999.2500      -999.2500      -999.2500      1766.1880      1784.1880
     1786.1280         9.8750    -999.250000        15.7812        32.3590    -999.250000      -999.2500      -999.2500      -999.2500      -999.2500      1766.3397      1784.3397
     1786.2804         9.8750    -999.250000        16.8458        32.3019    -999.250000      -999.2500      -999.2500      -999.2500      -999.2500      1766.4915      1784.4915
     1786.4328         9.8750    -999.250000        17.9977        32.1412    -999.250000      -999.2500      -999.2500      -999.2500      -999.2500      1766.6433      1784.6433
     1786.5852         9.8750    -999.250000        18.6017        31.8646    -999.250000      -999.2500      -999.2500      -999.2500      -999.2500      1766.7950      1784.7950
     1786.7376         9.8750    -999.250000        18.6619        31.5269    -999.250000      -999.2500      -999.2500      -999.2500      -999.2500      1766.9468      1784.9468
     1786.8900         9.8750    -999.250000        18.5006        31.2277    -999.250000      -999.2500      -999.2500      -999.2500      -999.2500      1767.0986      1785.0986
     1787.0424         9.8750    -999.250000        18.3780        31.0341    -999.250000      -999.2500      -999.2500        25.4012        31.0730      1767.2503      1785.2503
     1787.1948         9.8750    -999.250000        18.2142        30.9381    -999.250000      -999.2500      -999.2500        25.4043        31.0193      1767.4021      1785.4021
     1787.3472         9.8750    -999.250000        17.9157        30.9158    -999.250000      -999.2500      -999.2500        25.4073        30.9656      1767.5538      1785.5538
     1787.4996         9.8750    -999.250000        17.6639        30.9117    -999.250000      -999.2500      -999.2500        25.4103        30.9117      1767.7056      1785.7056
     1787.6520         9.8750       0.056909        17.5944        30.8852       0.297386         1.7631         2.1057        25.3820        30.8193      1767.8574      1785.8574
     1787.8044         9.8750       0.052198        17.5090        30.8043       0.295805         1.7625         2.1084        25.3537        30.7267      1768.0091      1786.0091
     1787.9568         9.8750       0.040729        17.1249        30.6584       0.295283         1.7617         2.1113        25.3253        30.6340      1768.1609      1786.1609
     1788.1092         9.8750       0.033270        16.4852        30.4797       0.297451         1.7651         2.1126        25.2968        30.5810      1768.3127      1786.3127
     1788.2616         9.8750       0.035824        15.9522        30.3434       0.302426         1.7754         2.1109        25.2682        30.5436      1768.4644      1786.4644
     1788.4140         9.8750       0.042805        15.8309        30.3590       0.307950         1.7866         2.1069        25.2396        30.5063      1768.6162      1786.6162
     1788.5664         9.8750       0.048296        16.0459        30.5826       0.311890         1.7931         2.1015        25.3672        30.6742      1768.7680      1786.7680
     1788.7188         9.8750       0.052493        16.2035        31.0187       0.314311         1.7959         2.0962        25.6970        31.1081      1768.9197      1786.9197
     1788.8712         9.8750       0.058750        16.0347        31.5363       0.315832         1.7954         2.0915        26.0269        31.5420      1769.0715      1787.0715
     1789.0236         9.8750       0.067969        15.6152        31.9770       0.316706         1.7939         2.0874        26.3126        31.9136      1769.2232      1787.2232
     1789.1760         9.8750       0.075304        15.2863        32.2205       0.316184         1.8004         2.0850        26.3573        31.9454      1769.3750      1787.3750
     1789.3284         9.8750       0.075512        15.4088        32.1992       0.313396         1.8229         2.0859        26.4020        31.9772      1769.5268      1787.5268
     1789.4808         9.8750       0.068327        15.8967        32.0326       0.307331         1.8509         2.0913        26.4468        32.0091      1769.6785      1787.6785
     1789.6332         9.8750       0.056930        16.3808        31.8778       0.296911         1.8761         2.1011        26.4427        32.0239      1769.8303      1787.8303
     1789.7856         9.8750       0.045015        16.5273        31.8769       0.283304         1.9005         2.1130        26.4316        32.0363      1769.9821      1787.9821
     1789.9380         9.8750       0.034812        16.2192        32.0192       0.269201         1.9178         2.1246        26.4205        32.0486      1770.1338      1788.1338
     1790.0904         9.8750       0.026689        15.7476        32.1040       0.257147         1.9258         2.1343        26.2145        31.7724      1770.2856      1788.2856
     1790.2428         9.8750       0.021619        15.4171        31.8998       0.250402         1.9341         2.1405        25.8749        31.2983      1770.4373      1788.4373
     1790.3952         9.8750       0.018812        15.2282        31.2239       0.249221         1.9501         2.1431        25.5353        30.8241      1770.5891      1788.5891
     1790.5476         9.8750       0.016577        15.0279        30.1684       0.252479         1.9611         2.1431        25.0792        30.2010      1770.7409      1788.7409
     1790.7000         9.8750       0.014917        14.6684        28.9837       0.256056         1.9490         2.1442        24.3667        29.2497      1770.8926      1788.8926
