~Version Information Block
VERS .                 2.00:  CWLS LOG ASCII STANDARD - VERSION 2.00
WRAP .                   NO:  One line per depth step
~Well Information Block
#MNEM.UNIT        Data Type   Information
#---------- ----------------  -----------
STRT .M           1084.4784:  START DEPTH
STOP .M           2540.6604:  STOP DEPTH
STEP .M              0.1524:  STEP
NULL .              -999.25:  NULL VALUE
COMP .                     :  COMPANY
WELL .               GABA17:  WELL
FLD  .                     :  FIELD
LOC  .   6.675366, 5.270403:  LOCATION
CTRY .                     :  COUNTRY
STAT .                     :  STATE
CNTY .                     :  COUNTY
API  .                     :  API NUMBER
UWI  .                     :  UNIQUE WELL ID
SRVC .                     :  SERVICE COMPANY
DATE .                     :  LOG DATE
~Curve Information Block
#MNEM.UNIT         API CODE   Curve Description
#---------- ----------------  -----------------
DEPTH.M                    :  Reference Depth
BS_COMP.INCHES             :  Bit Size
DRHO_COMP.G/C3             :  Density Correction
GR_COMP.GAPI               :  Gamma Ray
LLS_COMP.OHMM             0:  Resistivity
NPHI_COMP.V/V              :  Neutron Porosity
PEF_COMP.B/E               :  Photo Electric Factor
RHOB_COMP.G/C3             :  Bulk Density
RT_COMP.OHMM               :  True Resistivity
RXO_COMP.OHMM              :  Invaded Zone Resistivity
TVDSS_COMP.M               :  Reference TVD sub-sea log.
TVD_COMP.M                 :  Reference TVD log.
~Parameter Information Block
#MNEM.UNIT            Value   Description
#---------- ----------------  -----------
SET  .                  LCS:  
DEPTH_BOTTOM.M         2530:  Downhole depth
DEPTH_TOP.M            1787:  Downhole depth
UNDER_SAMPLING_RATE.      1:  Full sampling rate if equal to 1
~Other Information Block
#        DEPTH        BS_COMP      DRHO_COMP        GR_COMP       LLS_COMP      NPHI_COMP       PEF_COMP      RHOB_COMP        RT_COMP       RXO_COMP     TVDSS_COMP       TVD_COMP 
~A
# ...
     2133.7524         9.8750       0.025146        24.9237        32.6633       0.227185         1.6870         2.1807        25.2037        32.9917      2112.1607      2130.1607
     2133.9048         9.8750       0.024921        24.6673        33.5528       0.229467         1.6747         2.1761        25.8553        33.6926      2112.3127      2130.3127
     2134.0572         9.8750       0.025779        24.6448        34.4775       0.230417         1.6639         2.1745        26.4240        34.2606      2112.4646      2130.4646
     2134.2096         9.8750       0.027562        25.0016        35.1261       0.228989         1.6550         2.1751        26.8550        34.6074      2112.6165      2130.6165
     2134.3620         9.8750       0.027942        25.4243        35.3044       0.227182         1.6469         2.1754        27.2859        34.9542      2112.7685      2130.7685
     2134.5144         9.8750       0.026653        25.5006        35.2644       0.228400         1.6363         2.1730        27.7072        35.2962      2112.9204      2130.9204
     2134.6668         9.8750       0.025808        25.1646        35.3433       0.233683         1.6266         2.1670        28.0354        35.5932      2113.0723      2131.0723
     2134.8192         9.8750       0.027961        24.5722        35.6779       0.240352         1.6239         2.1597        28.3637        35.8901      2113.2243      2131.2243
     2134.9716         9.8750       0.032136        23.7540        36.1724       0.245666         1.6277         2.1535        28.6919        36.1870      2113.3762      2131.3762
     2135.1240         9.8750       0.033930        22.7998        36.5476       0.248699         1.6297         2.1490        28.8281        36.1971      2113.5282      2131.5282
     2135.2764         9.8750       0.032114        21.7785        36.5371       0.250162         1.6265         2.1458        28.9203        36.1415      2113.6801      2131.6801
     2135.4288         9.8750       0.029749        20.7712        36.2625       0.250801         1.6214         2.1436        29.0124        36.0860      2113.8320      2131.8320
     2135.5812         9.8750       0.029188        20.0834        35.8290       0.251194         1.6201         2.1420        28.9243        35.8172      2113.9840      2131.9840
     2135.7336         9.8750       0.031015        20.1210        35.3534       0.252133         1.6224         2.1415        28.6780        35.3614      2114.1359      2132.1359
     2135.8860         9.8750       0.034011        20.8362        34.8764       0.253643         1.6252         2.1421        28.4318        34.9057      2114.2879      2132.2879
     2136.0384         9.8750       0.037130        21.6386        34.4598       0.254928         1.6286         2.1439        28.2294        34.5119      2114.4398      2132.4398
     2136.1908         9.8750       0.039479        21.9029        34.1588       0.255764         1.6327         2.1461        28.1574        34.3018      2114.5917      2132.5917
     2136.3432         9.8750       0.039774        21.4965        33.9995       0.256795         1.6363         2.1476        28.0854        34.0918      2114.7437      2132.7437
     2136.4956         9.8750       0.039021        21.0767        33.8821       0.258511         1.6386         2.1485        28.0135        33.8818      2114.8956      2132.8956
     2136.6480         9.8750       0.039836        21.2642        33.6620       0.260381         1.6407         2.1488        27.8184        33.4983      2115.0476      2133.0476
     2136.8004         9.8750       0.042615        21.8146        33.2914       0.260763         1.6437         2.1494        27.6197        33.1097      2115.1995      2133.1995
     2136.9528         9.8750       0.045704        22.2486        32.7787       0.257678         1.6484         2.1509        27.4210        32.7212      2115.3515      2133.3515
     2137.1052         9.8750       0.048145        22.3392        32.2043       0.251919         1.6525         2.1529        27.0405        32.1308      2115.5034      2133.5034
     2137.2576         9.8750       0.049502        22.0223        31.5877       0.245200         1.6531         2.1552        26.5784        31.4500      2115.6553      2133.6553
     2137.4100         9.8750       0.050049        21.5258        30.8795       0.240009         1.6498         2.1578        26.1162        30.7692      2115.8073      2133.8073
     2137.5624         9.8750       0.049133        20.9580        30.0120       0.237371         1.6452         2.1616        25.5056        29.9006      2115.9592      2133.9592
     2137.7148         9.8750       0.047616        20.4204        28.9418       0.235838         1.6433         2.1656        24.6810        28.7612      2116.1112      2134.1112
     2137.8672         9.8750       0.047241        20.1479        27.7153       0.233758         1.6477         2.1684        23.8563        27.6217      2116.2631      2134.2631
     2138.0196         9.8750       0.049048        20.2686        26.4684       0.230663         1.6577         2.1692        23.0467        26.5112      2116.4151      2134.4151
     2138.1720         9.8750       0.052970        20.7170        25.3245       0.227650         1.6688         2.1690        22.3390        25.5969      2116.5670      2134.5670
     2138.3244         9.8750       0.058487        21.2239        24.3826       0.226226         1.6746         2.1704        21.6313        24.6826      2116.7189      2134.7189
     2138.4768         9.8750       0.064422        21.5150        23.6794       0.226230         1.6751         2.1749        20.9236        23.7683      2116.8709      2134.8709
     2138.6292         9.8750       0.068044        21.8697        23.3490       0.226001         1.6761         2.1826        20.8712        23.7788      2117.0228      2135.0228
     2138.7816         9.8750       0.068200        22.8014        23.3856       0.224611         1.6811         2.1924        20.9366        23.9553      2117.1748      2135.1748
     2138.9340         9.8750       0.065805        24.4976        23.8665       0.222626         1.6898         2.2030        21.0019        24.1319      2117.3267      2135.3267
     2139.0864         9.8750       0.061351        26.7619        24.6557       0.221777         1.7010         2.2135        21.3653        24.6415      2117.4787      2135.4787
     2139.2388         9.8750       0.054428        29.7107        25.5815       0.224689         1.7167         2.2238        21.9565        25.4057      2117.6306      2135.6306
     2139.3912         9.8750       0.047759        33.2395        26.3777       0.232203         1.7348         2.2326        22.5476        26.1698      2117.7826      2135.7826
     2139.5436         9.8750       0.044136        36.8221        26.8507       0.243577         1.7460         2.2370        22.9689        26.7106      2117.9345      2135.9345
     2139.6960         9.8750       0.044085        39.5526        26.9680       0.254753         1.7472         2.2360        22.9664        26.6940      2118.0865      2136.0865
     2139.8484         9.8750       0.048606        40.5149        26.8511       0.261487         1.7469         2.2283        22.9639        26.6773      2118.2384      2136.2384
     2140.0008         9.8750       0.055438        40.2602        26.6598       0.263356         1.7490         2.2160        22.9614        26.6612      2118.3903      2136.3903
     2140.1532         9.8750       0.060855        39.2053        26.5322       0.258809         1.7480         2.1996        22.9670        26.7371      2118.5423      2136.5423
     2140.3056         9.8750       0.060681        37.5844        26.5835       0.248027         1.7424         2.1833        22.9727        26.8131      2118.6942      2136.6942
     2140.4580         9.8750       0.052468        35.0194        26.8089       0.231396         1.7349         2.1741        22.9783        26.8890      2118.8462      2136.8462
