~Version Information Block
VERS .                 2.00:  CWLS LOG ASCII STANDARD - VERSION 2.00
WRAP .                   NO:  One line per depth step
~Well Information Block
#MNEM.UNIT        Data Type   Information
#---------- ----------------  -----------
STRT .M              0.0000:  START DEPTH
STOP .M           2748.9912:  STOP DEPTH
STEP .M              0.1524:  STEP
NULL .              -999.25:  NULL VALUE
COMP .                     :  COMPANY
WELL .               GABO13:  LOCATION
FLD  .                     :  FIELD
LOC  .   6.617986, 5.233868:  LOCATION
CTRY .                     :  COUNTRY
STAT .                     :  STATE
CNTY .                     :  COUNTY
API  .                     :  API NUMBER
UWI  .                     :  UNIQUE WELL ID
SRVC .                     :  SERVICE COMPANY
DATE .                     :  LOG DATE
~Curve Information Block
#MNEM.UNIT         API CODE   Curve Description
#---------- ----------------  -----------------
DEPTH.M                    :  Depth
BS_COMP.INCHES             :  Bit Size
CALI_COMP.INCHES          0:  Caliper
DRHO_COMP.G/C3             :  Density Correction Log
DT_COMP.US/F              0:  Compressional Sonic
ECART_COMP.                :  Neutron Density Seperation
GR_COMP.GAPI              0:  Gamma Ray
NPHI_COMP.V/V              :  Neutron Porosity
PEF_COMP.B/E              0:  Photo Electric Factor
RHOB_COMP.G/C3            0:  Bulk Density
RDeep_COMP.OHMM           0:  Deep Resistivity
RShal_COMP.OHMM           0:  Shallow Resistivity
SP_COMP.MV                0:  Spontaneous Potential
TVDSS_COMP.M               :  Reference TVD sub-sea log.
TVD_COMP.M                 :  Reference TVD log.
~Parameter Information Block
#MNEM.UNIT            Value   Description
#---------- ----------------  -----------
SET  .                  LCS:  
~Other Information Block
#        DEPTH        BS_COMP      CALI_COMP      DRHO_COMP        DT_COMP     ECART_COMP        GR_COMP      NPHI_COMP       PEF_COMP      RHOB_COMP      RDeep_COMP     RShal_COMP        SP_COMP     TVDSS_COMP       TVD_COMP 
~A
# ...
     2630.4240        12.2500        12.3060       0.044288       102.1412         6.6648       110.3085       0.456739         4.6537         2.2721         2.1045         1.6030        -2.3930      2615.6199      2629.4199
     2630.5764        12.2500        12.4544       0.042142        99.7736         6.2323       112.8288       0.418811         4.4582         2.3137         2.1941         1.7166        -2.8509      2615.7722      2629.5722
     2630.7288        12.2500        12.3638       0.051259        97.9347         5.8491       120.3780       0.381674         4.1943         2.3564         2.2469         1.7773        -3.0009      2615.9244      2629.7244
     2630.8812        12.2500        12.1775       0.058699        96.8933         6.7419       129.4079       0.387122         4.0249         2.3918         2.2784         1.7396        -2.7641      2616.0766      2629.8766
     2631.0336        12.2500        12.0801       0.050495        97.4521         8.8950       133.9403       0.445137         3.9552         2.4027         2.2976         1.6540        -2.3832      2616.2289      2630.0289
     2631.1860        12.2500        12.0974       0.027000        99.6729        10.9133       131.0592       0.521423         3.9287         2.3765         2.3122         1.6154        -2.1212      2616.3811      2630.1811
     2631.3384        12.2500        12.0485       0.006497       101.8258        10.9856       120.1815       0.554863         3.9020         2.3245         2.3552         1.7075        -2.1987      2616.5333      2630.3333
     2631.4908        12.2500        11.9728       0.003071       102.0271         9.2932       112.6722       0.527176         3.8438         2.2861         2.5083         1.9151        -2.7463      2616.6855      2630.4855
     2631.6432        12.2500        11.9108       0.009507       100.6953         7.4366       110.7671       0.476091         3.7794         2.2785         2.8550         2.1639        -3.9057      2616.8378      2630.6378
     2631.7956        12.2500        11.8847       0.014784        98.6661         6.4914       110.9219       0.437702         3.7873         2.2951         3.4723         2.4462        -5.6564      2616.9900      2630.7900
     2631.9480        12.2500        11.9482       0.015589        96.2486         6.4974       107.1720       0.416758         3.9570         2.3303         4.3788         2.8985        -7.7324      2617.1422      2630.9422
     2632.1004        12.2500        12.0005       0.019877        93.7994         6.4626       101.5644       0.382306         4.2614         2.3860         5.3784         3.8094        -9.7562      2617.2944      2631.0944
     2632.2528        12.2500        12.0251       0.038385        90.6459         5.9143        96.2697       0.331731         4.5333         2.4429         6.2494         5.2596       -11.4080      2617.4467      2631.2467
     2632.4052        12.2500        12.0367       0.065010        86.9312         5.2945        91.9734       0.292475         4.6661         2.4773         6.8993         6.8613       -12.6003      2617.5989      2631.3989
     2632.5576        12.2500        12.0390       0.078536        84.5131         5.1574        89.2864       0.286460         4.6308         2.4804         7.3039         7.8077       -13.4127      2617.7511      2631.5511
     2632.7100        12.2500        12.0390       0.064723        85.6476         5.2758        91.0868       0.300703         4.4525         2.4626         7.4371         7.3644       -13.8882      2617.9034      2631.7034
     2632.8624        12.2500        12.0390       0.041684        89.4727         5.1601        97.0293       0.318260         4.3033         2.4275         7.3229         6.0953       -13.9119      2618.0556      2631.8556
     2633.0148        12.2500        12.0487       0.026056        93.9536         4.8482       102.5601       0.337748         4.2217         2.3795         7.1142         4.7584       -13.5173      2618.2078      2632.0078
     2633.1672        12.2500        12.0796       0.020605        97.3663         4.5687       102.6747       0.354645         4.1062         2.3374         7.1398         3.7313       -13.0682      2618.3600      2632.1600
     2633.3196        12.2500        12.1380       0.023363        98.3257         4.3104        93.5205       0.350240         3.8951         2.3318         7.9120         3.2056       -13.1462      2618.5122      2632.3122
     2633.4720        12.2500        12.1519       0.032537        97.5985         4.0900        79.1836       0.330248         3.6510         2.3541         9.6635         3.1146       -13.7000      2618.6645      2632.4645
     2633.6244        12.2500        12.1334       0.042876        97.6085         3.5713        64.5500       0.306079         3.4491         2.3685        12.4463         3.3815       -14.4879      2618.8167      2632.6167
     2633.7768        12.2500        12.1132       0.046458        99.2000         2.2681        52.7542       0.279331         3.2980         2.3479        16.4377         3.9838       -15.3385      2618.9689      2632.7689
     2633.9292        12.2500        12.0659       0.037957       100.5289         0.0889        47.5845       0.247838         3.1395         2.2915        22.2174         4.8498       -15.9589      2619.1211      2632.9211
     2634.0816        12.2500        12.0478       0.024549       101.0736        -2.2981        48.0710       0.213936         2.9648         2.2286        31.3174         5.8811       -16.1797      2619.2734      2633.0734
     2634.2340        12.2500        12.0471       0.013786       100.4425        -4.2275        51.0539       0.183056         2.8574         2.1836        47.1103         7.0604       -16.2074      2619.4256      2633.2256
     2634.3864        12.2500        12.0412       0.007976        98.5608        -5.5461        54.2094       0.157139         2.8427         2.1609        75.0530         8.6388       -16.2720      2619.5778      2633.3778
     2634.5388        12.2500        12.0390       0.006737        96.6755        -6.5305        54.5909       0.132821         2.8364         2.1522       116.8547        11.4284       -16.3741      2619.7300      2633.5300
     2634.6912        12.2500        12.0472       0.007505        95.8147        -7.4926        52.7602       0.107425         2.7969         2.1464       158.1424        16.5425       -16.3483      2619.8822      2633.6822
     2634.8436        12.2500        12.0780       0.007589        95.8666        -8.5035        52.3968       0.085140         2.7435         2.1330       190.4242        23.6506       -16.2002      2620.0345      2633.8345
     2634.9960        12.2500        12.1202       0.005156        96.3785        -9.5079        55.9262       0.070977         2.6508         2.1063       214.2617        29.6125       -16.0728      2620.1867      2633.9867
     2635.1484        12.2500        12.1327      -0.000766        96.9745       -10.2313        65.2575       0.069521         2.4658         2.0726       231.3586        29.8527       -16.0569      2620.3389      2634.1389
     2635.3008        12.2500        12.0999      -0.008455        97.5012       -10.0374        71.8839       0.085974         2.2437         2.0548       241.2352        24.2801       -16.1250      2620.4911      2634.2911
     2635.4532        12.2500        12.0637      -0.013775        98.2958        -8.9710        73.9455       0.114049         2.0715         2.0613       240.0150        17.5276       -16.4358      2620.6433      2634.4433
     2635.6056        12.2500        12.0593      -0.012539        99.6333        -7.7503        74.0613       0.138904         1.9871         2.0809       229.2116        12.7498       -16.7669      2620.7956      2634.5956
     2635.7580        12.2500        12.1125      -0.004865       101.3979        -7.1301        75.3879       0.147916         1.9824         2.0970       215.8411        10.5397       -16.7285      2620.9478      2634.7478
