~Version Information Block
VERS .                 2.00:  CWLS LOG ASCII STANDARD - VERSION 2.00
WRAP .                   NO:  One line per depth step
~Well Information Block
#MNEM.UNIT        Data Type   Information
#---------- ----------------  -----------
STRT .M              0.0000:  START DEPTH
STOP .M           2731.4652:  STOP DEPTH
STEP .M              0.1524:  STEP
NULL .              -999.25:  NULL VALUE
COMP .                     :  COMPANY
WELL .              GABO-19:  WELL
FLD  .                     :  FIELD
LOC  .   6.687920, 5.237424:  LOCATION
CTRY .                     :  COUNTRY
STAT .                     :  STATE
CNTY .                     :  COUNTY
API  .                     :  API NUMBER
UWI  .                     :  UNIQUE WELL ID
SRVC .                     :  SERVICE COMPANY
DATE .                     :  LOG DATE
~Curve Information Block
#MNEM.UNIT         API CODE   Curve Description
#---------- ----------------  -----------------
DEPTH.M                    :  Reference TVD log.
BS_COMP.INCHES             :  BIT SIZE
DRHO_COMP.G/C3            0:  Density Correction
GR_COMP.GAPI              0:  Gamma Ray
LLS_COMP.OHMM             0:  Deep Laterolog resistivity
NPHI_COMP.V/V              :  Neutron Porosity
PEF_COMP.B/E              0:  Photo Electric Facotr
RHOB_COMP.G/C3            0:  Bulk Density
RT_COMP.OHMM              0:  True Resistivity
RXO_COMP.OHMM             0:  Invaded Zone Resistivity
SP_COMP.MV                0:  Spontaneous Potential
TVDSS_COMP.M               :  Reference TVD sub-sea log.
TVD_COMP.M                 :  Reference TVD log.
~Parameter Information Block
#MNEM.UNIT            Value   Description
#---------- ----------------  -----------
SET  .                  LCS:  
~Other Information Block
#        DEPTH        BS_COMP      DRHO_COMP        GR_COMP       LLS_COMP      NPHI_COMP       PEF_COMP      RHOB_COMP        RT_COMP       RXO_COMP        SP_COMP     TVDSS_COMP       TVD_COMP 
~A
# ...
     1594.7136         9.8750    -999.250000        33.3717        23.3856    -999.250000      -999.2500      -999.2500        29.7427        12.7427        67.0152      1506.0062      1524.0062
     1594.8660         9.8750    -999.250000        31.2680        23.9983    -999.250000      -999.2500      -999.2500        30.6590        11.0368        66.9574      1506.1385      1524.1385
     1595.0184         9.8750    -999.250000        30.5268        24.8479    -999.250000      -999.2500      -999.2500        32.1413         9.3305        66.9122      1506.2708      1524.2708
     1595.1708         9.8750    -999.250000        30.3959        25.6531    -999.250000      -999.2500      -999.2500        33.7860         7.9031        66.9207      1506.4031      1524.4031
     1595.3232         9.8750    -999.250000        30.7773        25.8617    -999.250000      -999.2500      -999.2500        34.6515         7.0439        67.0495      1506.5354      1524.5354
     1595.4756         9.8750    -999.250000        31.4106        25.4276    -999.250000      -999.2500      -999.2500        34.4753         6.8249        67.2271      1506.6677      1524.6677
     1595.6280         9.8750    -999.250000        31.6308        24.9763    -999.250000      -999.2500      -999.2500        34.0602         6.8614        67.2068      1506.8000      1524.8000
     1595.7804         9.8750    -999.250000        30.9567        25.1824    -999.250000      -999.2500      -999.2500        34.4491         6.8532        66.8002      1506.9323      1524.9323
     1595.9328         9.8750    -999.250000        29.3160        26.5163    -999.250000      -999.2500      -999.2500        36.3974         6.9385        66.0489      1507.0646      1525.0646
     1596.0852         9.8750    -999.250000        27.2323        28.7654    -999.250000      -999.2500      -999.2500        39.5659         7.4388        65.2563      1507.1968      1525.1968
     1596.2376         9.8750    -999.250000        25.5776        30.8315    -999.250000      -999.2500      -999.2500        42.2194         8.3678        64.7785      1507.3291      1525.3291
     1596.3900         9.8750    -999.250000        25.1610        30.9343    -999.250000      -999.2500      -999.2500        41.9006         9.1495        64.7820      1507.4614      1525.4614
     1596.5424         9.8750    -999.250000        26.6929        28.0773    -999.250000      -999.2500      -999.2500        37.5903         9.3876        65.3833      1507.5937      1525.5937
     1596.6948         9.8750    -999.250000        29.3785        24.4094    -999.250000      -999.2500      -999.2500        32.3614         9.0596        66.2281      1507.7259      1525.7259
     1596.8472         9.8750    -999.250000        31.5209        22.0191    -999.250000      -999.2500      -999.2500        29.0108         8.0464        66.7002      1507.8582      1525.8582
     1596.9996         9.8750    -999.250000        32.0438        21.3893    -999.250000      -999.2500      -999.2500        28.1724         7.1169        66.5088      1507.9908      1525.9908
     1597.1520         9.8750    -999.250000        30.8043        23.1514    -999.250000      -999.2500      -999.2500        30.7226         6.9662        65.6974      1508.1227      1526.1227
     1597.3044         9.8750    -999.250000        29.0684        26.8304    -999.250000      -999.2500      -999.2500        35.8975         7.4584        64.8603      1508.2549      1526.2549
     1597.4568         9.8750    -999.250000        27.5049        31.7250    -999.250000      -999.2500      -999.2500        42.5225         8.0837        64.4194      1508.3872      1526.3872
     1597.6092         9.8750    -999.250000        26.4558        35.0342    -999.250000      -999.2500      -999.2500        46.7480         8.4207        64.4250      1508.5194      1526.5194
     1597.7616         9.8750    -999.250000        26.7520        33.9381    -999.250000      -999.2500      -999.2500        45.0565         8.8918        64.9037      1508.6517      1526.6517
     1597.9140         9.8750    -999.250000        29.0127        30.1359    -999.250000      -999.2500      -999.2500        39.9257         9.2616        65.6005      1508.7839      1526.7839
     1598.0664         9.8750    -999.250000        32.8009        26.1968    -999.250000      -999.2500      -999.2500        34.7156         8.3181        66.1040      1508.9161      1526.9161
     1598.2188         9.8750    -999.250000        35.7515        23.6938    -999.250000      -999.2500      -999.2500        31.5078         6.8299        66.0171      1509.0483      1527.0483
     1598.3712         9.8750    -999.250000        35.9448        23.0730    -999.250000      -999.2500      -999.2500        30.9774         6.1303        65.2241      1509.1806      1527.1806
     1598.5236         9.8750    -999.250000        33.4835        24.2068    -999.250000      -999.2500      -999.2500        33.0178         6.5559        64.0475      1509.3128      1527.3128
     1598.6760         9.8750    -999.250000        29.8027        26.8453    -999.250000      -999.2500      -999.2500        37.3273         7.9442        62.8887      1509.4450      1527.4450
     1598.8284         9.8750    -999.250000        26.5193        30.0445    -999.250000      -999.2500      -999.2500        42.5759         9.3365        62.0232      1509.5772      1527.5772
     1598.9808         9.8750    -999.250000        24.5522        32.3609    -999.250000      -999.2500      -999.2500        46.6313         9.4717        61.4885      1509.7094      1527.7094
     1599.1332         9.8750    -999.250000        24.3417        32.8872    -999.250000      -999.2500      -999.2500        47.9934         8.5478        61.2913      1509.8416      1527.8416
     1599.2856         9.8750    -999.250000        25.3490        32.0911    -999.250000      -999.2500      -999.2500        47.1779         7.4681        61.4385      1509.9738      1527.9738
     1599.4380         9.8750    -999.250000        26.6622        30.4268    -999.250000      -999.2500      -999.2500        44.7917         6.7615        61.9891      1510.1060      1528.1060
     1599.5904         9.8750    -999.250000        27.9107        28.2601    -999.250000      -999.2500      -999.2500        41.4797         6.6102        62.8270      1510.2382      1528.2382
     1599.7428         9.8750    -999.250000        29.7373        25.8508    -999.250000      -999.2500      -999.2500        37.7092         6.8378        63.6715      1510.3704      1528.3704
     1599.8952         9.8750    -999.250000        32.5526        23.5540    -999.250000      -999.2500      -999.2500        34.1101         6.6568        64.2059      1510.5026      1528.5026
     1600.0476         9.8750    -999.250000        35.8603        21.6995    -999.250000      -999.2500      -999.2500        31.2431         5.8046        64.2003      1510.6348      1528.6348
     1600.2000         9.8750    -999.250000        38.5112        20.2760    -999.250000      -999.2500      -999.2500        29.0845         5.0561        63.8618      1510.7669      1528.7669
     1600.3524         9.8750    -999.250000        40.2792        19.2855    -999.250000      -999.2500      -999.2500        27.6009         4.8429        63.4497      1510.8991      1528.8991
     1600.5048         9.8750    -999.250000        42.0724        18.5296    -999.250000      -999.2500      -999.2500        26.4309         4.9959        63.1589      1511.0313      1529.0313
     1600.6572         9.8750    -999.250000        44.1886        17.9316    -999.250000      -999.2500      -999.2500        25.4336         5.3214        62.9931      1511.1635      1529.1635
     1600.8096         9.8750    -999.250000        45.9697        17.4342    -999.250000      -999.2500      -999.2500        24.5526         5.6876        62.8319      1511.2956      1529.2956
     1600.9620         9.8750    -999.250000        46.8434        17.0875    -999.250000      -999.2500      -999.2500        23.8867         6.2301        62.6506      1511.4278      1529.4278
