~Version Information Block
VERS .                 2.00:  CWLS LOG ASCII STANDARD - VERSION 2.00
WRAP .                   NO:  One line per depth step
~Well Information Block
#MNEM.UNIT        Data Type   Information
#---------- ----------------  -----------
STRT .M              0.0000:  START DEPTH
STOP .M           2731.4652:  STOP DEPTH
STEP .M              0.1524:  STEP
NULL .              -999.25:  NULL VALUE
COMP .                     :  COMPANY
WELL .              GABO-19:  WELL
FLD  .                     :  FIELD
LOC  .   6.687920, 5.237424:  LOCATION
CTRY .                     :  COUNTRY
STAT .                     :  STATE
CNTY .                     :  COUNTY
API  .                     :  API NUMBER
UWI  .                     :  UNIQUE WELL ID
SRVC .                     :  SERVICE COMPANY
DATE .                     :  LOG DATE
~Curve Information Block
#MNEM.UNIT         API CODE   Curve Description
#---------- ----------------  -----------------
DEPTH.M                    :  Reference TVD log.
BS_COMP.INCHES             :  BIT SIZE
DRHO_COMP.G/C3            0:  Density Correction
GR_COMP.GAPI              0:  Gamma Ray
LLS_COMP.OHMM             0:  Deep Laterolog resistivity
NPHI_COMP.V/V              :  Neutron Porosity
PEF_COMP.B/E              0:  Photo Electric Facotr
RHOB_COMP.G/C3            0:  Bulk Density
RT_COMP.OHMM              0:  True Resistivity
RXO_COMP.OHMM             0:  Invaded Zone Resistivity
SP_COMP.MV                0:  Spontaneous Potential
TVDSS_COMP.M               :  Reference TVD sub-sea log.
TVD_COMP.M                 :  Reference TVD log.
~Parameter Information Block
#MNEM.UNIT            Value   Description
#---------- ----------------  -----------
SET  .                  LCS:  
~Other Information Block
#        DEPTH        BS_COMP      DRHO_COMP        GR_COMP       LLS_COMP      NPHI_COMP       PEF_COMP      RHOB_COMP        RT_COMP       RXO_COMP        SP_COMP     TVDSS_COMP       TVD_COMP 
~A
# ...
     1287.4752         9.8750    -999.250000        77.5570        31.4972    -999.250000      -999.2500      -999.2500        51.4769        10.2607        57.7415      1232.0923      1250.0923
     1287.6276         9.8750    -999.250000        72.5844        31.0589    -999.250000      -999.2500      -999.2500        50.2541        10.1023        57.9013      1232.2315      1250.2315
     1287.7800         9.8750    -999.250000        67.9918        30.6395    -999.250000      -999.2500      -999.2500        48.9958         9.5035        58.0148      1232.3707      1250.3707
     1287.9324         9.8750    -999.250000        62.2159        30.9575    -999.250000      -999.2500      -999.2500        49.0372         9.0866        58.0447      1232.5099      1250.5099
     1288.0848         9.8750    -999.250000        54.6093        32.2488    -999.250000      -999.2500      -999.2500        50.7893         9.3036        58.0593      1232.6491      1250.6491
     1288.2372         9.8750    -999.250000        46.1166        34.4762    -999.250000      -999.2500      -999.2500        54.1455        10.4084        58.2068      1232.7882      1250.7882
     1288.3896         9.8750    -999.250000        38.6904        37.1853    -999.250000      -999.2500      -999.2500        58.3236        12.5130        58.5505      1232.9274      1250.9274
     1288.5420         9.8750    -999.250000        33.9191        39.8761    -999.250000      -999.2500      -999.2500        62.5325        15.8367        59.0757      1233.0666      1251.0666
     1288.6944         9.8750    -999.250000        31.4456        42.2193    -999.250000      -999.2500      -999.2500        66.2279        19.0085        59.6398      1233.2058      1251.2058
     1288.8468         9.8750    -999.250000        30.7385        43.9692    -999.250000      -999.2500      -999.2500        68.9488        19.9391        60.1036      1233.3450      1251.3450
     1288.9992         9.8750    -999.250000        30.3821        45.1659    -999.250000      -999.2500      -999.2500        70.7175        19.3356        60.4421      1233.4841      1251.4841
     1289.1516         9.8750    -999.250000        29.3830        45.7335    -999.250000      -999.2500      -999.2500        71.4230        18.3993        60.6787      1233.6233      1251.6233
     1289.3040         9.8750    -999.250000        27.7073        45.9084    -999.250000      -999.2500      -999.2500        71.5136        17.8501        60.8735      1233.7625      1251.7625
     1289.4564         9.8750    -999.250000        25.8406        45.8202    -999.250000      -999.2500      -999.2500        71.1990        17.7691        61.0139      1233.9016      1251.9016
     1289.6088         9.8750    -999.250000        24.5294        45.6584    -999.250000      -999.2500      -999.2500        70.7331        17.7487        61.0649      1234.0408      1252.0408
     1289.7612         9.8750    -999.250000        24.1163        45.5131    -999.250000      -999.2500      -999.2500        70.2303        17.4702        60.9878      1234.1800      1252.1800
     1289.9136         9.8750    -999.250000        24.1141        45.4411    -999.250000      -999.2500      -999.2500        69.8302        16.8927        60.8628      1234.3191      1252.3191
     1290.0660         9.8750    -999.250000        24.1177        45.4944    -999.250000      -999.2500      -999.2500        69.6794        16.2067        60.8147      1234.4583      1252.4583
     1290.2184         9.8750    -999.250000        23.9760        45.6995    -999.250000      -999.2500      -999.2500        69.8525        15.6894        60.9336      1234.5974      1252.5974
     1290.3708         9.8750    -999.250000        23.4309        46.0764    -999.250000      -999.2500      -999.2500        70.4184        15.6250        61.2154      1234.7366      1252.7366
     1290.5232         9.8750    -999.250000        22.3770        46.5637    -999.250000      -999.2500      -999.2500        71.3507        16.1153        61.5404      1234.8757      1252.8757
     1290.6756         9.8750    -999.250000        21.3089        47.0226    -999.250000      -999.2500      -999.2500        72.5043        16.8713        61.8042      1235.0148      1253.0148
     1290.8280         9.8750    -999.250000        20.9193        47.2517    -999.250000      -999.2500      -999.2500        73.5346        16.8651        61.9807      1235.1540      1253.1540
     1290.9804         9.8750    -999.250000        21.3789        47.1488    -999.250000      -999.2500      -999.2500        74.1514        15.5013        62.0971      1235.2931      1253.2931
     1291.1328         9.8750    -999.250000        22.5120        46.7366    -999.250000      -999.2500      -999.2500        74.2592        13.8821        62.1653      1235.4322      1253.4322
     1291.2852         9.8750    -999.250000        23.9651        46.1595    -999.250000      -999.2500      -999.2500        74.0182        13.2015        62.1680      1235.5714      1253.5714
     1291.4376         9.8750    -999.250000        25.3159        45.5350    -999.250000      -999.2500      -999.2500        73.5699        13.8785        62.0825      1235.7105      1253.7105
     1291.5900         9.8750    -999.250000        26.2245        44.9240    -999.250000      -999.2500      -999.2500        73.0107        15.3190        61.9506      1235.8496      1253.8496
     1291.7424         9.8750    -999.250000        26.6163        44.4453    -999.250000      -999.2500      -999.2500        72.5499        16.3989        61.8983      1235.9887      1253.9887
     1291.8948         9.8750    -999.250000        26.8336        44.2129    -999.250000      -999.2500      -999.2500        72.4579        16.6389        62.0347      1236.1279      1254.1279
     1292.0472         9.8750    -999.250000        26.7944        44.3213    -999.250000      -999.2500      -999.2500        72.9554        16.5842        62.4224      1236.2670      1254.2670
     1292.1996         9.8750    -999.250000        25.9604        44.5919    -999.250000      -999.2500      -999.2500        73.7597        16.8309        62.9368      1236.4061      1254.4061
     1292.3520         9.8750    -999.250000        23.9220        44.7481    -999.250000      -999.2500      -999.2500        74.4159        17.5083        63.4624      1236.5452      1254.5452
     1292.5044         9.8750    -999.250000        21.6647        44.6449    -999.250000      -999.2500      -999.2500        74.6953        18.1809        63.9602      1236.6843      1254.6843
     1292.6568         9.8750    -999.250000        20.1115        44.3471    -999.250000      -999.2500      -999.2500        74.7569        18.3623        64.4490      1236.8234      1254.8234
     1292.8092         9.8750    -999.250000        19.2427        44.1256    -999.250000      -999.2500      -999.2500        75.0440        18.1378        64.9300      1236.9625      1254.9625
     1292.9616         9.8750    -999.250000        18.5519        44.1845    -999.250000      -999.2500      -999.2500        75.8490        17.9300        65.3548      1237.1016      1255.1016
     1293.1140         9.8750    -999.250000        17.6879        44.4972    -999.250000      -999.2500      -999.2500        77.0198        18.1222        65.6990      1237.2407      1255.2407
     1293.2664         9.8750    -999.250000        16.9270        44.9406    -999.250000      -999.2500      -999.2500        78.2443        18.3600        65.9728      1237.3797      1255.3797
     1293.4188         9.8750    -999.250000        16.4731        45.3273    -999.250000      -999.2500      -999.2500        79.1962        18.1091        66.2175      1237.5188      1255.5188
     1293.5712         9.8750    -999.250000        16.1188        45.5335    -999.250000      -999.2500      -999.2500        79.7097        17.8050        66.4508      1237.6579      1255.6579
     1293.7236         9.8750    -999.250000        15.8646        45.5252    -999.250000      -999.2500      -999.2500        79.7964        18.3049        66.6863      1237.7970      1255.7970
