~Version Information Block
VERS .                 2.00:  CWLS LOG ASCII STANDARD - VERSION 2.00
WRAP .                   NO:  One line per depth step
~Well Information Block
#MNEM.UNIT        Data Type   Information
#---------- ----------------  -----------
STRT .M              0.0000:  START DEPTH
STOP .M           2748.9912:  STOP DEPTH
STEP .M              0.1524:  STEP
NULL .              -999.25:  NULL VALUE
COMP .                     :  COMPANY
WELL .               GABO13:  LOCATION
FLD  .                     :  FIELD
LOC  .   6.617986, 5.233868:  LOCATION
CTRY .                     :  COUNTRY
STAT .                     :  STATE
CNTY .                     :  COUNTY
API  .                     :  API NUMBER
UWI  .                     :  UNIQUE WELL ID
SRVC .                     :  SERVICE COMPANY
DATE .                     :  LOG DATE
~Curve Information Block
#MNEM.UNIT         API CODE   Curve Description
#---------- ----------------  -----------------
DEPTH.M                    :  Depth
BS_COMP.INCHES             :  Bit Size
CALI_COMP.INCHES          0:  Caliper
DRHO_COMP.G/C3             :  Density Correction Log
DT_COMP.US/F              0:  Compressional Sonic
ECART_COMP.                :  Neutron Density Seperation
GR_COMP.GAPI              0:  Gamma Ray
NPHI_COMP.V/V              :  Neutron Porosity
PEF_COMP.B/E              0:  Photo Electric Factor
RHOB_COMP.G/C3            0:  Bulk Density
RDeep_COMP.OHMM           0:  Deep Resistivity
RShal_COMP.OHMM           0:  Shallow Resistivity
SP_COMP.MV                0:  Spontaneous Potential
TVDSS_COMP.M               :  Reference TVD sub-sea log.
TVD_COMP.M                 :  Reference TVD log.
~Parameter Information Block
#MNEM.UNIT            Value   Description
#---------- ----------------  -----------
SET  .                  LCS:  
~Other Information Block
#        DEPTH        BS_COMP      CALI_COMP      DRHO_COMP        DT_COMP     ECART_COMP        GR_COMP      NPHI_COMP       PEF_COMP      RHOB_COMP      RDeep_COMP     RShal_COMP        SP_COMP     TVDSS_COMP       TVD_COMP 
~A
# ...
     1999.4880        12.2500        16.2806       0.062267       140.4926      -999.2500        88.1746       0.849460         1.5415         1.6561         5.3347         3.5202        -0.8708      1985.4533      1999.2533
     1999.6404        12.2500        15.8558       0.050843       139.4575      -999.2500        91.1537       0.764219         1.4302         1.7289         5.0043         3.5137        -0.8084      1985.6057      1999.4057
     1999.7928        12.2500        15.7280       0.038274       138.3434      -999.2500        95.4600       0.732723         1.4407         1.8655         4.6384         3.1454        -0.6232      1985.7580      1999.5580
     1999.9452        12.2500        15.7738       0.024020       138.8555      -999.2500       100.5527       0.794899         1.5888         2.0149         4.3099         2.6485        -0.3727      1985.9104      1999.7104
     2000.0976        12.2500        15.8948       0.012640       138.4228      -999.2500        95.8590       0.818629         1.7495         2.1038         4.1500         2.3140        -0.2904      1986.0628      1999.8628
     2000.2500        12.2500        15.9145       0.008823       136.0790      -999.2500        78.9818       0.694372         1.8308         2.1261         4.2137         2.2299        -0.3262      1986.2152      2000.0152
     2000.4024        12.2500        15.7848       0.014925       132.1039      -999.2500        56.0234       0.488055         1.8431         2.1163         4.4767         2.3815        -0.3828      1986.3675      2000.1675
     2000.5548        12.2500        15.5542       0.027533       125.9666      -999.2500        36.9515       0.341306         1.8357         2.1057         4.8792         2.7696        -0.4591      1986.5199      2000.3199
     2000.7072        12.2500        15.5118       0.033494       117.7599      -999.2500        30.8343       0.283250         1.8292         2.1070         5.3225         3.3510        -0.4666      1986.6723      2000.4723
     2000.8596        12.2500        15.4534       0.030407       109.7641      -999.2500        31.6758       0.263668         1.7942         2.1177         5.7134         3.9018        -0.3539      1986.8246      2000.6246
     2001.0120        12.2500        15.3483       0.022850       104.1389      -999.2500        34.8913       0.254775         1.7268         2.1287         5.9962         4.2941        -0.2246      1986.9770      2000.7770
     2001.1644        12.2500        15.3136       0.014024       101.8185      -999.2500        38.6791       0.252599         1.6643         2.1335         6.1309         4.5057        -0.1338      1987.1294      2000.9294
     2001.3168        12.2500        15.3262       0.005710       102.2423      -999.2500        41.2036       0.257462         1.6544         2.1349         6.0968         4.4817         0.1103      1987.2818      2001.0818
     2001.4692        12.2500        15.2932      -0.000234       103.6784      -999.2500        42.5384       0.276593         1.6954         2.1353         5.9548         4.2673         0.4953      1987.4341      2001.2341
     2001.6216        12.2500        15.2227      -0.001965       104.8826      -999.2500        42.7511       0.301404         1.7613         2.1299         5.7770         3.9695         0.7760      1987.5865      2001.3865
     2001.7740        12.2500        15.1508       0.000676       105.4912      -999.2500        42.0958       0.311157         1.8280         2.1160         5.6103         3.6916         0.8377      1987.7389      2001.5389
     2001.9264        12.2500        15.1012       0.004583       105.7043      -999.2500        43.7132       0.293872         1.8756         2.1033         5.4955         3.5351         0.8336      1987.8913      2001.6913
     2002.0788        12.2500        15.0628       0.006406       105.7728      -999.2500        47.7682       0.267537         1.9053         2.1029         5.4528         3.5278         0.8065      1988.0436      2001.8436
     2002.2312        12.2500        15.0394       0.005815       105.8820      -999.2500        52.4956       0.249458         1.9151         2.1124         5.4771         3.6428         0.7859      1988.1960      2001.9960
     2002.3836        12.2500        15.0456       0.003824       105.8751      -999.2500        56.1860       0.246595         1.8879         2.1250         5.5576         3.8253         0.8133      1988.3484      2002.1484
     2002.5360        12.2500        15.1139       0.001273       105.2465      -999.2500        55.6728       0.257564         1.8206         2.1379         5.6844         3.9816         0.9383      1988.5007      2002.3007
     2002.6884        12.2500        15.2642      -0.000933       104.0468      -999.2500        50.9728       0.261200         1.7773         2.1522         5.8465         4.0385         1.2385      1988.6531      2002.4531
     2002.8408        12.2500        15.4097      -0.001443       102.6275      -999.2500        45.0325       0.244133         1.8020         2.1658         6.0359         4.0000         1.4028      1988.8055      2002.6055
     2002.9932        12.2500        15.4970       0.000729       101.3490      -999.2500        39.5406       0.214650         1.8680         2.1754         6.2527         3.9260         1.3085      1988.9579      2002.7579
     2003.1456        12.2500        15.5160       0.004314       100.4851      -999.2500        35.2460       0.191015         1.9064         2.1810         6.4993         3.8977         1.2176      1989.1102      2002.9102
     2003.2980        12.2500        15.5160       0.004542        99.8491      -999.2500        36.3211       0.177164         1.8868         2.1867         6.7486         3.9530         1.1724      1989.2626      2003.0626
     2003.4504        12.2500        15.5294       0.000859        99.3482      -999.2500        36.8681       0.169471         1.8407         2.1950         6.9211         4.0837         1.1223      1989.4150      2003.2150
     2003.6028        12.2500        15.5655      -0.004435        98.9517      -999.2500        35.1910       0.169354         1.8031         2.2046         6.9349         4.2555         1.0670      1989.5674      2003.3674
     2003.7552        12.2500        15.6297      -0.008668        98.7408      -999.2500        34.3631       0.179279         1.7868         2.2101         6.7854         4.4140         0.9726      1989.7197      2003.5197
     2003.9076        12.2500        15.6490      -0.009378        99.1590      -999.2500        36.0840       0.195107         1.7846         2.2038         6.6199         4.4957         0.8210      1989.8721      2003.6721
     2004.0600        12.2500        15.6615      -0.008553       100.0646      -999.2500        38.7380       0.216450         1.8025         2.1871         6.5045         4.4774         0.8448      1990.0245      2003.8245
     2004.2124        12.2500        15.5981      -0.008636       101.2553      -999.2500        40.3166       0.240763         1.8362         2.1699         6.4294         4.4130         0.9879      1990.1768      2003.9768
     2004.3648        12.2500        15.3544      -0.007570       102.4614      -999.2500        39.3278       0.254317         1.8638         2.1634         6.3861         4.3799         1.0973      1990.3292      2004.1292
     2004.5172        12.2500        15.2490       0.000993       102.8460      -999.2500        37.9215       0.239803         1.8612         2.1702         6.3624         4.4088         1.3586      1990.4816      2004.2816
     2004.6696        12.2500        15.2290       0.013293       102.3217      -999.2500        36.9625       0.216669         1.8289         2.1798         6.3420         4.4798         1.5815      1990.6340      2004.4340
     2004.8220        12.2500        15.2563       0.021463       101.5187      -999.2500        37.1051       0.202448         1.7981         2.1882         6.3148         4.5446         1.5555      1990.7863      2004.5863
