~Version Information Block
VERS .                 2.00:  CWLS LOG ASCII STANDARD - VERSION 2.00
WRAP .                   NO:  One line per depth step
~Well Information Block
#MNEM.UNIT        Data Type   Information
#---------- ----------------  -----------
STRT .M              0.0000:  START DEPTH
STOP .M           2950.4637:  STOP DEPTH
STEP .M              0.1524:  STEP
NULL .              -999.25:  NULL VALUE
COMP .                     :  COMPANY
WELL .               GABO15:  WELL
FLD  .                     :  FIELD
LOC  .   6.656416, 5.257802:  LOCATION
CTRY .                     :  COUNTRY
STAT .                     :  STATE
CNTY .                     :  COUNTY
API  .                     :  API NUMBER
UWI  .                     :  UNIQUE WELL ID
SRVC .                     :  SERVICE COMPANY
DATE .                     :  LOG DATE
~Curve Information Block
#MNEM.UNIT         API CODE   Curve Description
#---------- ----------------  -----------------
DEPTH.M                    :  Reference Depth.
BS_COMP.INCHES             :  Bit Size
CALI_COMP.INCHES          0:  Caliper
DRHO_COMP.G/C3            0:  Density Correction
DT_COMP.US/F              0:  Compressional Sonic
ECART_COMP.                :  Neutron Density Seperation
GR_COMP.GAPI               :  Gamma Ray
NPHI_COMP.V/V             0:  Neutron Porosity
PEF_COMP.B/E              0:  Photo Electric Factor
RHOB_COMP.G/C3            0:  Bulk Density
RT_COMP.OHMM              0:  True or Deep Resistivity
RXO_COMP.OHMM             0:  Invaded Zone Resistivity
SP_COMP.MV                 :  Values changed using TEXT_EDIT
TVDSS_COMP.M               :  Reference TVD sub-sea log.
TVD_COMP.M                 :  Reference TVD log.
~Parameter Information Block
#MNEM.UNIT            Value   Description
#---------- ----------------  -----------
SET  .                  LCS:  
MFST .DEGF               80:  Mud filtrate sample temperature
RMFS .OHMM              1.9:  Resistivity of Filtrate sample
SP_SH.MV                  0:  Shale baseline value for SP
~Other Information Block
COMMENT:
$$MUX      Data from LAS tape
$$MUX      fevsbd 09/10/97 ng95603  ASCII:      GABO15.fod
$$MUX
$$MUX
#        DEPTH        BS_COMP      CALI_COMP      DRHO_COMP        DT_COMP     ECART_COMP        GR_COMP      NPHI_COMP       PEF_COMP      RHOB_COMP        RT_COMP       RXO_COMP        SP_COMP     TVDSS_COMP       TVD_COMP 
~A
# ...
     2614.4218         9.8750        11.0880    -999.250000        96.6248         7.7465       121.4818       0.400993         3.4831         2.4190         2.3572         1.7669       -71.1951      2404.4861      2424.4861
     2614.5742         9.8750        11.0759    -999.250000        97.5929         7.6867       120.5893       0.397990         3.5300         2.4210         2.4168         1.7704       -70.5923      2404.6216      2424.6216
     2614.7266         9.8750        11.0511       0.006017        99.4359         7.6935       118.6537       0.394000         3.5138         2.4280         2.4319         1.8600       -70.3266      2404.7571      2424.7571
     2614.8790         9.8750        11.0902       0.013000       100.5927         7.7737       117.7058       0.394012         3.4398         2.4320         2.4187         1.8044       -71.0922      2404.8925      2424.8925
     2615.0314         9.8750        11.1641       0.012997       101.0305         7.9203       118.8624       0.399007         3.3529         2.4310         2.3839         1.9261       -70.7830      2405.0280      2425.0280
     2615.1838         9.8750        11.2029       0.011993       101.1878         8.0593       120.2648       0.401980         3.3239         2.4330         2.2890         1.8033       -71.1796      2405.1635      2425.1635
     2615.3362         9.8750        11.1799       0.008988       100.4069         7.7718       119.7943       0.393968         3.2678         2.4320         2.1706         1.7510       -71.6955      2405.2989      2425.2989
     2615.4886         9.8750        11.1389    -999.250000        99.6888         7.1595       118.7057       0.380995         3.1749         2.4230         2.1547         1.8239       -71.2017      2405.4344      2425.4344
     2615.6410         9.8750        11.0860    -999.250000        99.7809         6.9545       119.8336       0.379032         3.1373         2.4160         2.1766         1.7860       -72.0655      2405.5698      2425.5698
     2615.7934         9.8750        11.0681    -999.250000        99.6881         7.4483       122.1115       0.392032         3.2796         2.4190         2.1917         1.7359       -72.6953      2405.7053      2425.7053
     2615.9458         9.8750        11.1110       0.004002        99.0008         8.1398       123.1263       0.404985         3.5213         2.4320         2.2663         1.8533       -72.0704      2405.8408      2425.8408
     2616.0982         9.8750        11.1069       0.004998        98.5945         8.0584       123.6566       0.398954         3.6269         2.4380         2.3258         1.7557       -71.4781      2405.9762      2425.9762
     2616.2506         9.8750        11.0509       0.004002        98.8747         7.4057       123.9025       0.379973         3.5939         2.4370         2.3428         1.6730       -71.2282      2406.1117      2426.1117
     2616.4030         9.8750        11.0291       0.005017        99.2496         7.0204       122.4440       0.369005         3.5591         2.4360         2.3410         1.7547       -70.9891      2406.2472      2426.2472
     2616.5554         9.8750        11.0571       0.012017        99.4687         7.1680       118.7726       0.371034         3.5920         2.4400         2.3329         1.8338       -70.8967      2406.3826      2426.3826
     2616.7078         9.8750        11.1020       0.019002        99.5629         7.7346       115.3234       0.385054         3.5817         2.4450         2.3084         1.7952       -71.0924      2406.5181      2426.5181
     2616.8602         9.8750        11.1149       0.019995        99.6249         8.2674       113.4353       0.407049         3.4667         2.4350         2.2482         1.8404       -70.7935      2406.6535      2426.6535
     2617.0126         9.8750        11.0698       0.018000       100.0935         8.5732       112.3463       0.427015         3.3408         2.4170         2.1935         1.8579       -71.2284      2406.7890      2426.7890
     2617.1650         9.8750        11.0058       0.018000       101.1238         8.5125       113.2888       0.432978         3.2670         2.4040         2.1748         1.7190       -71.0651      2406.9245      2426.9245
     2617.3174         9.8750        10.9359       0.017995       101.3747         8.1925       116.4905       0.423968         3.2751         2.4030         2.1382         1.7226       -71.6739      2407.0599      2427.0599
     2617.4698         9.8750        10.9021       0.015993       101.4379         7.8593       119.1705       0.410973         3.3220         2.4080         2.1586         1.7861       -70.8856      2407.1954      2427.1954
     2617.6222         9.8750        10.9390       0.012997       102.9363         7.5730       118.5415       0.399990         3.3269         2.4120         2.1700         1.8149       -70.8917      2407.3308      2427.3308
     2617.7746         9.8750        10.9379       0.012012       104.0927         7.4403       116.2971       0.396007         3.2974         2.4120         2.1157         1.7153       -69.8802      2407.4663      2427.4663
     2617.9270         9.8750        10.8910       0.017015       104.1559         7.5615       116.3470       0.399029         3.4476         2.4130         2.0530         1.8481       -71.2284      2407.6018      2427.6018
     2618.0794         9.8750        10.8790       0.022995       103.7195         8.1822       117.5901       0.411024         4.1005         2.4241         1.9190         1.7307       -71.0434      2407.7372      2427.7372
     2618.2318         9.8750        10.8768       0.020988       101.5964         9.0752       115.9845       0.420998         5.1090         2.4521         1.8161         1.5585       -71.5324      2407.8727      2427.8727
     2618.3842         9.8750        10.8028       0.016005        98.6913         9.8604       109.6379       0.419971         5.5257         2.4931         1.9710         1.4863       -71.8428      2408.0082      2428.0082
     2618.5366         9.8750        10.7091       0.018012        97.0958        10.0183       102.2432       0.407971         4.9894         2.5210         2.2887         1.6054       -71.6192      2408.1436      2428.1436
     2618.6890         9.8750        10.7422       0.023005        96.5636         9.3375        99.4743       0.395988         4.3273         2.5069         2.6419         2.3053       -72.9182      2408.2791      2428.2791
     2618.8414         9.8750        10.8140       0.025005        96.2194         8.3118       101.6528       0.390993         4.0551         2.4639         2.8064         3.2360       -73.3425      2408.4145      2428.4145
     2618.9938         9.8750        10.8128       0.027039        95.2511         7.6733       106.5127       0.387976         4.0933         2.4370         2.6732         2.7945       -72.9567      2408.5500      2428.5500
     2619.1462         9.8750        10.7379       0.043051        94.7506         7.6806       111.7257       0.377956         4.2299         2.4541         2.4209         1.5848       -72.4676      2408.6855      2428.6855
     2619.2986         9.8750        10.6782       0.064017        94.5942         7.9193       114.4802       0.359946         4.2035         2.4961         2.2913         1.5501       -72.1196      2408.8209      2428.8209
     2619.4510         9.8750        10.7563       0.070951        93.7200         7.6240       112.9240       0.337949         3.9947         2.5180         2.3658         1.7871       -72.0626      2408.9564      2428.9564
     2619.6034         9.8750        10.8832       0.050922        93.0638         6.5438       107.1885       0.316973         3.8565         2.4989         2.5154         1.8342       -72.0948      2409.0919      2429.0919
     2619.7558         9.8750        10.9670    -999.250000        92.7813         5.3793       101.2463       0.306002         4.0646         2.4590         2.5687         1.7479       -72.4160      2409.2273      2429.2273
