~Version Information Block
VERS .                 2.00:  CWLS LOG ASCII STANDARD - VERSION 2.00
WRAP .                   NO:  One line per depth step
~Well Information Block
#MNEM.UNIT        Data Type   Information
#---------- ----------------  -----------
STRT .M              0.0000:  START DEPTH
STOP .M           2757.2208:  STOP DEPTH
STEP .M              0.1524:  STEP
NULL .              -999.25:  NULL VALUE
COMP .                     :  COMPANY
WELL .               GABO14:  WELL
FLD  .                     :  FIELD
LOC  .   6.639036, 5.241653:  LOCATION
CTRY .                     :  COUNTRY
STAT .                     :  STATE
CNTY .                     :  COUNTY
API  .                     :  API NUMBER
UWI  .                     :  UNIQUE WELL ID
SRVC .                     :  SERVICE COMPANY
DATE .                     :  LOG DATE
~Curve Information Block
#MNEM.UNIT         API CODE   Curve Description
#---------- ----------------  -----------------
DEPTH.M                    :  Reference Depth
BS_COMP.INCHES             :  Bit Size
CALI_COMP.INCHES          0:  Caliper
DRHO_COMP.G/C3            0:  Density Correction 
DT_COMP.US/F              0:  Compressional Sonic
ECART_COMP.                :  Neutron Density Seperation
GR_COMP.GAPI              0:  Gamma Ray
NPHI_COMP.V/V             0:  Neutron Porosity
PEF_COMP.B/E              0:  Photo Electric Factor
RHOB_COMP.G/C3            0:  Bulk Density
RT_COMP.OHMM              0:  True or Deep Resistivity
RXO_COMP.OHMM             0:  Invaded Zone Resistivity
SP_COMP.MV                0:  Spontaneous Potential
TVDSS_COMP.M               :  Reference TVD sub-sea log.
TVD_COMP.M                 :  Reference TVD log.
~Parameter Information Block
#MNEM.UNIT            Value   Description
#---------- ----------------  -----------
SET  .                  LCS:  
~Other Information Block
#        DEPTH        BS_COMP      CALI_COMP      DRHO_COMP        DT_COMP     ECART_COMP        GR_COMP      NPHI_COMP       PEF_COMP      RHOB_COMP        RT_COMP       RXO_COMP        SP_COMP     TVDSS_COMP       TVD_COMP 
~A
# ...
     2524.0488        12.2500        13.2660       0.067931       107.7178         7.9767        92.2246       0.447986         2.9995         2.3522         1.8669         1.7719        94.8459      2436.4180      2452.4180
     2524.2012        12.2500        13.2950       0.054013       107.4209         8.3921        93.5439       0.461065         2.9480         2.3512         1.8540         1.7582        94.8201      2436.5695      2452.5695
     2524.3536        12.2500        13.3282       0.045033       107.1540         8.5580        92.8129       0.463842         2.9484         2.3548         1.8440         1.8022        94.8332      2436.7209      2452.7209
     2524.5060        12.2500        13.3890       0.044975       106.6708         8.4621        92.7928       0.453384         3.0362         2.3675         1.8370         1.8420        94.8923      2436.8724      2452.8724
     2524.6584        12.2500        13.4385       0.038963       106.3908         7.9567        95.6081       0.440287         3.1707         2.3640         1.8330         1.8369        94.9608      2437.0239      2453.0239
     2524.8108        12.2500        13.3769       0.025026       106.3441         7.4633        98.9635       0.435036         3.2307         2.3481         1.8300         1.8219        94.9088      2437.1753      2453.1753
     2524.9632        12.2500        13.2973       0.019022       106.3599         7.4004       101.4533       0.434915         3.1999         2.3452         1.8250         1.8100        94.8541      2437.3268      2453.3268
     2525.1156        12.2500        13.2910       0.018983       106.5787         7.4027       101.4968       0.429620         3.1618         2.3541         1.8179         1.8060        94.8848      2437.4783      2453.4783
     2525.2680        12.2500        13.2848       0.014998       106.7335         7.0758        96.9098       0.417599         3.1446         2.3578         1.8059         1.8151        95.0643      2437.6298      2453.6298
     2525.4204        12.2500        13.2342       0.011006       106.6258         6.6988        90.1907       0.408835         3.1280         2.3535         1.7909         1.8300        95.3619      2437.7812      2453.7812
     2525.5728        12.2500        13.2363       0.009007       106.8300         6.4639        87.2657       0.406094         3.1584         2.3464         1.7749         1.8249        95.3275      2437.9327      2453.9327
     2525.7252        12.2500        13.2990       0.009004       107.3144         6.3629        91.0236       0.407587         3.2003         2.3388         1.7620         1.8050        94.9667      2438.0842      2454.0842
     2525.8776        12.2500        13.3549       0.010005       107.6409         6.5398        96.6505       0.413783         3.1744         2.3374         1.7520         1.7940        94.6623      2438.2357      2454.2357
     2526.0300        12.2500        13.3787       0.011993       107.6091         6.8322        98.9137       0.420893         3.1077         2.3401         1.7440         1.7871        94.5071      2438.3872      2454.3872
     2526.1824        12.2500        13.3339       0.011987       107.6414         7.0672        96.9227       0.427857         3.0793         2.3403         1.7390         1.8141        94.5377      2438.5387      2454.5387
     2526.3348        12.2500        13.2682       0.008994       107.7315         7.1334        93.2797       0.432980         3.1343         2.3350         1.7360         1.8369        94.7131      2438.6902      2454.6902
     2526.4872        12.2500        13.2681       0.005010       107.1379         7.0147        92.9851       0.432642         3.2276         2.3297         1.7320         1.8069        94.7452      2438.8417      2454.8417
     2526.6396        12.2500        13.2909       0.004016       106.3880         6.9663        96.8417       0.431000         3.3026         2.3300         1.7320         1.7723        94.5507      2438.9932      2454.9932
     2526.7920        12.2500        13.2930       0.007006       105.6700         7.1896       100.0877       0.429720         3.3903         2.3433         1.7370         1.8375        94.4806      2439.1447      2455.1447
     2526.9444        12.2500        13.3011       0.010985       105.1892         7.4530        98.5587       0.422276         3.5397         2.3689         1.7420         1.9498        94.6330      2439.2961      2455.2961
     2527.0968        12.2500        13.3263       0.011000       105.4717         7.5150        93.9570       0.411082         3.6310         2.3906         1.7460         1.9096        94.6428      2439.4476      2455.4476
     2527.2492        12.2500        13.4121       0.010996       106.1125         7.3366        91.0992       0.405024         3.5233         2.3918         1.7429         1.8080        94.3493      2439.5992      2455.5992
     2527.4016        12.2500        13.5078       0.010008       106.9552         6.9916        92.3392       0.405548         3.3031         2.3737         1.7269         1.7980        93.9540      2439.7507      2455.7507
     2527.5540        12.2500        13.5470       0.010996       107.4850         6.5804        95.0243       0.405818         3.1460         2.3527         1.7019         1.7990        93.7066      2439.9022      2455.9022
     2527.7064        12.2500        13.5799       0.010996       107.7207         6.1732        97.0082       0.401461         3.1045         2.3396         1.6759         1.7880        93.6104      2440.0537      2456.0537
     2527.8588        12.2500        13.5898       0.010004       108.1262         5.8586        98.9761       0.396716         3.0984         2.3317         1.6509         1.7939        93.4661      2440.2052      2456.2052
     2528.0112        12.2500        13.5531       0.010000       108.4071         5.6680       100.6504       0.395055         3.0641         2.3250         1.6299         1.7668        93.2571      2440.3567      2456.3567
     2528.1636        12.2500        13.5430       0.010008       108.6738         5.8357        99.3114       0.402028         3.0258         2.3217         1.6139         1.7129        93.5287      2440.5082      2456.5082
     2528.3160        12.2500        13.5348       0.012005       109.0948         6.4563        95.3538       0.418091         3.0148         2.3260         1.5969         1.6889        94.4074      2440.6597      2456.6597
     2528.4684        12.2500        13.4941       0.014993       109.2800         7.1754        94.1205       0.435036         3.0306         2.3337         1.5759         1.6719        94.9867      2440.8112      2456.8112
     2528.6208        12.2500        13.4590       0.015988       109.0454         7.5927        96.8678       0.444998         3.0508         2.3380         1.5529         1.6580        94.9160      2440.9628      2456.9628
     2528.7732        12.2500        13.4343       0.013991       108.6702         7.6079        98.9460       0.446709         3.0689         2.3359         1.5279         1.6691        94.9225      2441.1143      2457.1143
     2528.9256        12.2500        13.4734       0.010006       108.2335         7.3557        97.2487       0.441915         3.1002         2.3313         1.5100         1.6980        95.2931      2441.2658      2457.2658
     2529.0780        12.2500        13.5837       0.008016       108.1106         7.0406        93.1089       0.432990         3.1386         2.3304         1.5010         1.7028        95.5603      2441.4173      2457.4173
     2529.2304        12.2500        13.5998       0.010018       108.5007         6.7638        89.2633       0.422297         3.1790         2.3344         1.4960         1.6547        95.6411      2441.5689      2457.5689
     2529.3828        12.2500        13.5665       0.016007       108.6706         6.5915        88.6187       0.414082         3.2183         2.3394         1.4879         1.5898        95.6740      2441.7204      2457.7204
