~Version Information Block
VERS .                 2.00:  CWLS LOG ASCII STANDARD - VERSION 2.00
WRAP .                   NO:  One line per depth step
~Well Information Block
#MNEM.UNIT        Data Type   Information
#---------- ----------------  -----------
STRT .M           1550.0604:  START DEPTH
STOP .M           3909.9744:  STOP DEPTH
STEP .M              0.1524:  STEP
NULL .              -999.25:  NULL VALUE
COMP .                     :  COMPANY
WELL .               GABO52:  WELL
FLD  .                     :  FIELD
LOC  .   6.643655, 5.227736:  LOCATION
CTRY .                     :  COUNTRY
STAT .                     :  STATE
CNTY .                     :  COUNTY
API  .                     :  API NUMBER
UWI  .                     :  UNIQUE WELL ID
SRVC .                     :  SERVICE COMPANY
DATE .                     :  LOG DATE
~Curve Information Block
#MNEM.UNIT         API CODE   Curve Description
#---------- ----------------  -----------------
DEPTH.M                    :  Depth
DRHO .G/C3                 :  Density Correction Log
DTS_COMP.US/F              :  Shear Sonic 
DT_COMP.US/F               :  Compressional Sonic
GR_COMP.GAPI               :  Gamma Ray
HCAL .INCHES               :  Caliper
NPHI_COMP.V/V              :  Neutron Porosity
PEF_COMP.B/E               :  Photo Electric Factor
RDEEP_COMP.OHMM            :  Deep Resistivity
RHOB_COMP.G/C3             :  Bulk Density
RSHAL_COMP.OHMM            :  Shallow Resistivity
TVD  .M                    :  Reference TVD
TVDSS.M                    :  Reference TVDss
~Parameter Information Block
#MNEM.UNIT            Value   Description
#---------- ----------------  -----------
SET  .                  LCS:  
~Other Information Block
#        DEPTH           DRHO       DTS_COMP        DT_COMP        GR_COMP           HCAL      NPHI_COMP       PEF_COMP     RDEEP_COMP      RHOB_COMP     RSHAL_COMP            TVD          TVDSS 
~A
# ...
     3282.3912       0.148764       208.6737        98.8811       111.2169         9.9826       0.453408         3.5097         1.5986         2.4323         1.8087      2894.2517      2874.1316
     3282.5436       0.142875       209.7396        98.1705       115.9475         9.9153       0.465649         3.5204         1.5894         2.4158         1.7914      2894.3665      2874.2463
     3282.6960       0.128065       209.8708       100.2048       118.9846        10.0163       0.493817         3.5006         1.5546         2.3981         1.7501      2894.4812      2874.3611
     3282.8484       0.108718       206.8053       100.8970       124.9711         9.5786       0.420770         3.4762         1.5225         2.4212         1.7037      2894.5959      2874.4758
     3283.0008       0.086939       203.5038       100.1191       124.6579         9.7357       0.381542         3.5173         1.5538         2.4419         1.7506      2894.7107      2874.5906
     3283.1532       0.091294       201.7023        98.7890       123.4963         9.7133       0.403568         3.5920         1.5972         2.4698         1.7901      2894.8254      2874.7053
     3283.3056       0.105521       197.5123        99.4164       127.8501        10.3867       0.444365         3.6205         1.6208         2.4797         1.8193      2894.9402      2874.8201
     3283.4580       0.120438       191.3312        98.9910       128.7205         9.2307       0.449857         3.5858         1.6386         2.5182         1.8260      2895.0549      2874.9348
     3283.6104       0.100259       184.3969        95.8446       119.1438         9.1297       0.384116         3.5697         1.7767         2.5490         2.0650      2895.1711      2875.0510
     3283.7628       0.061942       176.1766        91.8479       110.9075         8.9726       0.342535         3.6346         1.9481         2.5776         2.1939      2895.2881      2875.1680
     3283.9152       0.026626       170.0537        88.4360       108.0534         9.4776       0.315280         3.7547         2.1758         2.5899         2.4132      2895.4048      2875.2847
     3284.0676       0.007471       165.4840        85.4415       108.0727         9.0624       0.319440         3.8226         2.3584         2.5827         2.6447      2895.5225      2875.4023
     3284.2200       0.006822       162.1786        82.3971       110.7091         9.0848       0.320941         3.8063         2.5338         2.5748         2.8035      2895.6416      2875.5215
     3284.3724       0.017780       161.9410        81.5801       116.6953         9.1073       0.336643         3.7157         2.4882         2.5873         2.7097      2895.7605      2875.6404
     3284.5248       0.030319       163.3598        82.5187       124.4683         9.0848       0.328480         3.6485         2.3776         2.5945         2.5739      2895.8794      2875.7593
     3284.6772       0.035190       166.2230        84.7082       128.7603         9.0848       0.332358         3.6263         2.3006         2.5745         2.4972      2895.9985      2875.8784
     3284.8296       0.042703       168.4464        87.4105       125.2709         9.1185       0.338876         3.6260         2.2607         2.5577         2.4108      2896.1177      2875.9976
     3284.9820       0.049843       170.0631        88.0245       122.0215         9.0961       0.333329         3.6170         2.1822         2.5597         2.3398      2896.2366      2876.1165
     3285.1344       0.066571       171.5471        87.3166       120.5695         9.1073       0.322075         3.6275         2.1106         2.5664         2.2561      2896.3557      2876.2356
     3285.2868       0.093066       172.5207        87.6569       118.5467         9.1522       0.318227         3.6728         2.0504         2.5615         2.1701      2896.4746      2876.3545
     3285.4392       0.123069       175.3618        89.3179       116.0310         9.1746       0.336499         3.7121         1.9998         2.5582         2.1277      2896.5938      2876.4736
     3285.5916       0.125084       179.7626        90.7252       114.0330         9.2644       0.376922         3.6955         1.9777         2.5375         2.1355      2896.7126      2876.5925
     3285.7440       0.115592       181.4238        92.1740       114.6657         9.2644       0.401967         3.6485         1.9409         2.5167         2.0780      2896.8318      2876.7117
     3285.8964       0.107563       183.2155        93.9266       116.9987         9.1297       0.453801         3.6187         1.8188         2.4624         1.9188      2896.9507      2876.8306
     3286.0488       0.130207       185.4211        94.1774       119.1227         9.3317       0.447078         3.6180         1.7247         2.4478         1.8089      2897.0698      2876.9497
     3286.2012       0.144512       190.5601        94.8301       120.2327         9.0848       0.437639         3.6097         1.6200         2.4435         1.7252      2897.1887      2877.0686
     3286.3536       0.147913       193.8495        97.1144       119.3802         9.2532       0.409695         3.5992         1.5476         2.4618         1.6404      2897.3079      2877.1877
     3286.5060       0.135536       195.8017        98.0508       117.6573         9.5225       0.420961         3.5740         1.5289         2.4772         1.6090      2897.4268      2877.3066
     3286.6584       0.121821       196.8463        98.0824       116.7931         9.4215       0.442063         3.5469         1.5333         2.4771         1.6161      2897.5459      2877.4258
     3286.8108       0.121130       201.0824        98.5163       117.3864         9.4664       0.481353         3.5247         1.5364         2.4784         1.6302      2897.6650      2877.5449
     3286.9632       0.135142       204.2251        98.6599       117.8099         9.6011       0.450437         3.5456         1.5368         2.4649         1.6433      2897.7839      2877.6638
     3287.1156       0.152466       198.4426        98.9729       119.0149         9.8480       0.441911         3.5979         1.5614         2.4609         1.6798      2897.9031      2877.7830
     3287.2680       0.153636       197.7399        97.3612       115.6618         9.3878       0.396282         3.6494         1.5791         2.4669         1.7216      2898.0220      2877.9019
     3287.4204       0.139344       199.9389        95.6660       113.1675         9.4103       0.452663         3.6805         1.6087         2.4745         1.7510      2898.1409      2878.0208
     3287.5728       0.127326       196.9496        95.0226       111.8722         9.4215       0.489339         3.6678         1.6336         2.4787         1.7574      2898.2600      2878.1399
     3287.7252       0.117293       195.3633        94.9794       113.1118         9.5113       0.480803         3.6118         1.6154         2.4659         1.7494      2898.3792      2878.2590
     3287.8776       0.112581       199.2367        95.1881       114.9722         9.4440       0.452055         3.5217         1.6139         2.4752         1.7431      2898.4980      2878.3779
     3288.0300       0.101011       198.7340        96.0820       118.0606         9.6909       0.404142         3.4625         1.6019         2.4759         1.7268      2898.6172      2878.4971
     3288.1824       0.095387       197.7514        97.5278       120.5766         9.5674       0.414815         3.4414         1.5890         2.4913         1.7147      2898.7361      2878.6160
     3288.3348       0.082804       194.5178        96.6539       121.2449         9.4215       0.395837         3.4510         1.5771         2.4772         1.7077      2898.8552      2878.7351
     3288.4872       0.076473       191.4126        97.1877       120.8334         9.3317       0.391286         3.4639         1.5744         2.4737         1.7094      2898.9741      2878.8540
     3288.6396       0.071031       192.2326        97.4570       119.1606         9.3766       0.376881         3.4794         1.5657         2.4681         1.7039      2899.0933      2878.9731
