~Version Information Block
VERS .                 2.00:  CWLS LOG ASCII STANDARD - VERSION 2.00
WRAP .                   NO:  One line per depth step
~Well Information Block
#MNEM.UNIT        Data Type   Information
#---------- ----------------  -----------
STRT .M              0.0000:  START DEPTH
STOP .M           2950.4637:  STOP DEPTH
STEP .M              0.1524:  STEP
NULL .              -999.25:  NULL VALUE
COMP .                     :  COMPANY
WELL .               GABO15:  WELL
FLD  .                     :  FIELD
LOC  .   6.656416, 5.257802:  LOCATION
CTRY .                     :  COUNTRY
STAT .                     :  STATE
CNTY .                     :  COUNTY
API  .                     :  API NUMBER
UWI  .                     :  UNIQUE WELL ID
SRVC .                     :  SERVICE COMPANY
DATE .                     :  LOG DATE
~Curve Information Block
#MNEM.UNIT         API CODE   Curve Description
#---------- ----------------  -----------------
DEPTH.M                    :  Reference Depth.
BS_COMP.INCHES             :  Bit Size
CALI_COMP.INCHES          0:  Caliper
DRHO_COMP.G/C3            0:  Density Correction
DT_COMP.US/F              0:  Compressional Sonic
ECART_COMP.                :  Neutron Density Seperation
GR_COMP.GAPI               :  Gamma Ray
NPHI_COMP.V/V             0:  Neutron Porosity
PEF_COMP.B/E              0:  Photo Electric Factor
RHOB_COMP.G/C3            0:  Bulk Density
RT_COMP.OHMM              0:  True or Deep Resistivity
RXO_COMP.OHMM             0:  Invaded Zone Resistivity
SP_COMP.MV                 :  Values changed using TEXT_EDIT
TVDSS_COMP.M               :  Reference TVD sub-sea log.
TVD_COMP.M                 :  Reference TVD log.
~Parameter Information Block
#MNEM.UNIT            Value   Description
#---------- ----------------  -----------
SET  .                  LCS:  
MFST .DEGF               80:  Mud filtrate sample temperature
RMFS .OHMM              1.9:  Resistivity of Filtrate sample
SP_SH.MV                  0:  Shale baseline value for SP
~Other Information Block
COMMENT:
$$MUX      Data from LAS tape
$$MUX      fevsbd 09/10/97 ng95603  ASCII:      GABO15.fod
$$MUX
$$MUX
#        DEPTH        BS_COMP      CALI_COMP      DRHO_COMP        DT_COMP     ECART_COMP        GR_COMP      NPHI_COMP       PEF_COMP      RHOB_COMP        RT_COMP       RXO_COMP        SP_COMP     TVDSS_COMP       TVD_COMP 
~A
# ...
     2120.6458         9.8750        10.5641       0.002008       109.7500         1.9869       110.6879       0.346984         2.7189         2.2210        10.8719         4.8127       -59.3019      1972.2454      1992.2454
     2120.7982         9.8750        10.5960       0.005008       108.9690         2.0673       110.6481       0.340984         2.6829         2.2351        10.4339         4.4008       -57.9459      1972.3712      1992.3712
     2120.9506         9.8750        10.6020       0.008000       108.2810         2.2869       107.7374       0.334986         2.6410         2.2560        10.1737         5.0790       -58.5130      1972.4971      1992.4971
     2121.1030         9.8750        10.6131       0.007992       107.8130         2.3801       103.1029       0.330003         2.6241         2.2690        10.0691         5.3927       -58.1813      1972.6229      1992.6229
     2121.2554         9.8750        10.6460       0.004992       107.8750         2.4139       100.8651       0.331022         2.6461         2.2690         9.9643         5.3826       -58.4869      1972.7487      1992.7487
     2121.4078         9.8750        10.6560       0.002000       108.5000         2.6210       103.1251       0.339035         2.6771         2.2660         9.7325         5.0525       -58.8192      1972.8745      1992.8745
     2121.5602         9.8750        10.6432       0.002005       109.4381         2.9936       109.0524       0.352024         2.7060         2.2630         9.4547         4.8338       -58.7374      1973.0004      1993.0004
     2121.7126         9.8750        10.7073       0.003997       110.7810         3.0729       116.9367       0.361024         2.7120         2.2519         9.2223         4.5120       -59.2924      1973.1262      1993.1262
     2121.8650         9.8750        10.8071    -999.250000       111.6880         2.9133       122.3327       0.370035         2.7061         2.2289         9.0892         4.3435       -59.6230      1973.2520      1993.2520
     2122.0174         9.8750        10.8502    -999.250000       111.5630         2.9071       124.0453       0.383019         2.7442         2.2070         9.1795         3.7065       -58.6936      1973.3778      1993.3778
     2122.1698         9.8750        10.9143    -999.250000       111.2500         3.0800       123.4160       0.389978         2.8282         2.2040         9.3651         3.7596       -58.3044      1973.5036      1993.5036
     2122.3222         9.8750        11.0253       0.001005       110.6250         3.0728       121.1947       0.381959         2.8929         2.2170         9.3369         3.9953       -57.7296      1973.6294      1993.6294
     2122.4746         9.8750        11.1352       0.003003       109.5310         2.8932       118.1459       0.366986         2.8688         2.2330         9.1852         4.1697       -57.9537      1973.7552      1993.7552
     2122.6270         9.8750        11.2190       0.004000       109.4380         2.8474       114.4153       0.362027         2.7879         2.2390         8.8908         4.1663       -57.3560      1973.8809      1993.8809
     2122.7794         9.8750        11.2006       0.004000       110.4060         3.1209       111.9676       0.372033         2.7360         2.2360         8.6517         3.7959       -56.5771      1974.0067      1994.0067
     2122.9318         9.8750        11.0628       0.003995       110.8750         3.4403       111.4535       0.384003         2.7422         2.2320         8.8335         3.6349       -55.1074      1974.1325      1994.1325
     2123.0842         9.8750        10.9842       0.002000       110.5310         3.5532       111.6412       0.384973         2.8224         2.2360         9.0996         3.7659       -54.9149      1974.2582      1994.2582
     2123.2366         9.8750        11.0702       0.002005       109.9380         3.5001       111.7346       0.374978         2.9602         2.2500         8.9777         3.9827       -55.8104      1974.3840      1994.3840
     2123.3890         9.8750        11.1408       0.004003       109.8440         3.5346       111.9745       0.367027         3.0460         2.2650         8.4144         4.1590       -56.6179      1974.5098      1994.5098
     2123.5414         9.8750        11.0797       0.005000       110.4690         4.0087       114.0087       0.377062         3.0510         2.2720         7.5826         4.1327       -56.6170      1974.6355      1994.6355
     2123.6938         9.8750        10.9607       0.004989       110.7190         4.7747       117.2081       0.400043         3.0681         2.2720         7.0144         3.6139       -55.9369      1974.7613      1994.7613
     2123.8462         9.8750        10.8478    -999.250000       110.4060         5.2863       119.0790       0.415992         3.1059         2.2710         6.8126         3.5124       -55.6859      1974.8870      1994.8870
     2123.9986         9.8750        10.7699    -999.250000       109.6559         5.1643       119.4510       0.412935         3.0828         2.2700         7.0292         3.7863       -54.6727      1975.0127      1995.0127
     2124.1510         9.8750        10.7249    -999.250000       108.4060         4.2841       118.7308       0.388927         3.0040         2.2660         7.5683         4.1522       -54.0828      1975.1385      1995.1385
     2124.3034         9.8750        10.7010       0.001033       107.5000         3.3265       117.5418       0.361978         3.0064         2.2630         8.0361         4.2967       -53.7188      1975.2642      1995.2642
     2124.4558         9.8750        10.7071       0.013051       106.9060         3.2830       115.6186       0.354043         3.1513         2.2741         8.0050         4.1997       -53.7460      1975.3899      1995.3899
     2124.6082         9.8750        10.7421       0.032041       106.2500         4.3764       113.2795       0.370046         3.2701         2.3021         7.7257         4.3448       -53.5370      1975.5156      1995.5156
     2124.7606         9.8750        10.7770       0.046997       105.3130         5.5004       112.7545       0.386995         3.2981         2.3300         7.5043         4.5887       -52.4968      1975.6413      1995.6413
     2124.9130         9.8750        10.7890       0.045959       104.8440         5.6519       114.4287       0.384959         3.3341         2.3410         7.2192         4.3293       -52.6837      1975.7671      1995.7671
     2125.0654         9.8750        10.7890       0.030965       106.1881         5.1122       116.8952       0.369976         3.3729         2.3390         6.9354         4.0140       -52.6930      1975.8928      1995.8928
     2125.2178         9.8750        10.7729       0.017981       107.9381         4.6939       118.4522       0.361035         3.3376         2.3330         6.8452         4.0687       -51.4852      1976.0185      1996.0185
     2125.3702         9.8750        10.7439       0.011005       109.8751         4.9078       118.1522       0.374057         3.1906         2.3220         6.7053         3.9945       -50.8258      1976.1442      1996.1442
     2125.5226         9.8750        10.7089       0.013024       112.3130         5.3270       116.7477       0.395022         3.0598         2.3080         6.3793         3.9151       -50.1905      1976.2699      1996.2699
     2125.6750         9.8750        10.6862       0.022014       113.4380         5.4532       115.9216       0.403000         2.9898         2.3010         5.9742         3.9084       -49.9269      1976.3956      1996.3956
     2125.8274         9.8750        10.7603       0.026978       113.5000         5.3932       115.7800       0.403011         2.9098         2.2980         5.5387         4.0539       -49.4829      1976.5212      1996.5212
     2125.9798         9.8750        10.8670       0.018973       113.3130         5.3472       115.4005       0.407035         2.8328         2.2890         5.1764         3.6904       -49.9201      1976.6469      1996.6469
