~Version Information Block
VERS .                 2.00:  CWLS LOG ASCII STANDARD - VERSION 2.00
WRAP .                   NO:  One line per depth step
~Well Information Block
#MNEM.UNIT        Data Type   Information
#---------- ----------------  -----------
STRT .M              0.0000:  START DEPTH
STOP .M           2757.2208:  STOP DEPTH
STEP .M              0.1524:  STEP
NULL .              -999.25:  NULL VALUE
COMP .                     :  COMPANY
WELL .               GABO14:  WELL
FLD  .                     :  FIELD
LOC  .   6.639036, 5.241653:  LOCATION
CTRY .                     :  COUNTRY
STAT .                     :  STATE
CNTY .                     :  COUNTY
API  .                     :  API NUMBER
UWI  .                     :  UNIQUE WELL ID
SRVC .                     :  SERVICE COMPANY
DATE .                     :  LOG DATE
~Curve Information Block
#MNEM.UNIT         API CODE   Curve Description
#---------- ----------------  -----------------
DEPTH.M                    :  Reference Depth
BS_COMP.INCHES             :  Bit Size
CALI_COMP.INCHES          0:  Caliper
DRHO_COMP.G/C3            0:  Density Correction 
DT_COMP.US/F              0:  Compressional Sonic
ECART_COMP.                :  Neutron Density Seperation
GR_COMP.GAPI              0:  Gamma Ray
NPHI_COMP.V/V             0:  Neutron Porosity
PEF_COMP.B/E              0:  Photo Electric Factor
RHOB_COMP.G/C3            0:  Bulk Density
RT_COMP.OHMM              0:  True or Deep Resistivity
RXO_COMP.OHMM             0:  Invaded Zone Resistivity
SP_COMP.MV                0:  Spontaneous Potential
TVDSS_COMP.M               :  Reference TVD sub-sea log.
TVD_COMP.M                 :  Reference TVD log.
~Parameter Information Block
#MNEM.UNIT            Value   Description
#---------- ----------------  -----------
SET  .                  LCS:  
~Other Information Block
#        DEPTH        BS_COMP      CALI_COMP      DRHO_COMP        DT_COMP     ECART_COMP        GR_COMP      NPHI_COMP       PEF_COMP      RHOB_COMP        RT_COMP       RXO_COMP        SP_COMP     TVDSS_COMP       TVD_COMP 
~A
# ...
     2578.9128        12.2500        13.4184       0.015005        95.7185         4.8470        87.6246       0.349974         2.9556         2.3591         2.3269         2.4366        92.1406      2490.9904      2506.9904
     2579.0652        12.2500        13.3751       0.010010        95.5922         5.0396        91.4113       0.356396         2.9498         2.3580         2.3000         2.3397        92.5162      2491.1420      2507.1420
     2579.2176        12.2500        13.3562       0.008020        95.1554         5.6316        96.3436       0.362791         2.9221         2.3769         2.2951         2.2671        92.5595      2491.2937      2507.2937
     2579.3700        12.2500        13.1395       0.011042        95.0049         6.6691       100.1388       0.374123         2.8963         2.4099         2.3283         2.2971        92.4401      2491.4453      2507.4453
     2579.5224        12.2500        13.0595       0.024017        96.1882         7.6924       103.4808       0.384095         2.9389         2.4445         2.4085         2.3227        92.7075      2491.5969      2507.5969
     2579.6748        12.2500        13.1106       0.039973        96.2237         7.9120       106.3436       0.372120         3.1032         2.4754         2.5336         2.2437        93.3218      2491.7486      2507.7486
     2579.8272        12.2500        13.0660       0.047958        93.7222         7.1211       106.2257       0.331147         3.3883         2.5041         2.6704         2.1684        93.5206      2491.9002      2507.9002
     2579.9796        12.2500        13.0269       0.044954        90.8622         5.7641       104.2103       0.280378         3.7343         2.5209         2.7752         2.2803        93.1690      2492.0519      2508.0519
     2580.1320        12.2500        12.9856       0.030978        87.7569         4.5891       102.1047       0.249263         3.9907         2.5140         2.8281         3.0811        92.6709      2492.2035      2508.2035
     2580.2844        12.2500        12.8481       0.013038        85.5450         4.0447       101.0671       0.249887         3.9662         2.4858         2.8542         4.3211        91.9124      2492.3552      2508.3552
     2580.4368        12.2500        12.7605       0.006071        85.0624         4.1648       102.0701       0.274122         3.6518         2.4514         2.8983         4.8285        90.7842      2492.5068      2508.5068
     2580.5892        12.2500        12.8016       0.017041        84.9263         4.4152       103.8004       0.301871         3.2771         2.4176         2.9612         4.2174        89.6245      2492.6584      2508.6584
     2580.7416        12.2500        12.9904       0.036963        85.9781         4.0770       104.6208       0.313582         3.0277         2.3812         2.9978         3.1037        88.0531      2492.8101      2508.8101
     2580.8940        12.2500        13.2698       0.045917        88.1842         2.9230       103.5771       0.299535         2.9068         2.3469         2.9574         2.5591        85.6518      2492.9617      2508.9617
     2581.0464        12.2500        13.4702       0.033975        91.1397         1.6743        99.4791       0.272465         2.8643         2.3296         2.8233         2.8302        83.6664      2493.1134      2509.1134
     2581.1988        12.2500        13.4500       0.017022        94.7100         1.3648        94.4141       0.257607         2.8718         2.3389         2.6504         3.6122        83.2740      2493.2650      2509.2650
     2581.3512        12.2500        13.1738       0.007045        96.4002         2.3697        92.5138       0.268044         2.9017         2.3717         2.5157         4.1327        84.7272      2493.4167      2509.4167
     2581.5036        12.2500        12.8797       0.009070        94.9907         3.8206        95.8721       0.290932         2.9415         2.4061         2.4469         3.5850        87.6912      2493.5683      2509.5683
     2581.6560        12.2500        12.7947       0.027999        92.7468         4.7248       102.6859       0.306934         3.0453         2.4247         2.4320         2.8536        90.4115      2493.7199      2509.7199
     2581.8084        12.2500        13.1474       0.044912        91.9836         5.0582       106.0361       0.309746         3.2616         2.4367         2.4349         2.7593        91.7476      2493.8716      2509.8716
     2581.9608        12.2500        13.8076       0.038944        91.8910         5.3375       103.3759       0.309746         3.5027         2.4506         2.4138         2.8325        92.3858      2494.0232      2510.0232
     2582.1132        12.2500        14.0756       0.020042        91.8911         5.6290        99.7325       0.314663         3.5879         2.4570         2.3669         2.7102        92.8336      2494.1749      2510.1749
     2582.2656        12.2500        13.7292       0.013055        91.9055         5.7603        99.3695       0.325372         3.4629         2.4457         2.3320         2.5113        92.9846      2494.3265      2510.3265
     2582.4180        12.2500        13.2201       0.019995        91.8010         5.6279       101.9275       0.333684         3.2708         2.4253         2.3260         2.3326        93.1304      2494.4782      2510.4782
     2582.5704        12.2500        13.0213       0.024969        92.7707         5.4640       103.2485       0.335517         3.1844         2.4140         2.3340         2.2291        93.4789      2494.6298      2510.6298
     2582.7228        12.2500        13.1706       0.021982        93.9045         5.5189       102.8972       0.333541         3.2348         2.4200         2.3460         2.2443        93.6900      2494.7814      2510.7814
     2582.8752        12.2500        13.4707       0.015030        93.5248         5.7345       104.4209       0.332947         3.3111         2.4318         2.3540         2.3221        93.7029      2494.9331      2510.9331
     2583.0276        12.2500        13.6590       0.016033        92.0115         6.0408       108.0451       0.338998         3.3211         2.4370         2.3499         2.3347        93.9165      2495.0847      2511.0847
     2583.1800        12.2500        13.5896       0.024995        90.9252         6.3932       111.4610       0.352626         3.2948         2.4319         2.3349         2.2616        94.5357      2495.2364      2511.2364
     2583.3324        12.2500        13.4182       0.031954        91.7096         6.7229       113.3959       0.367220         3.3002         2.4241         2.3118         2.1636        94.9549      2495.3880      2511.3880
     2583.4848        12.2500        13.3204       0.026982        93.3023         6.9160       114.5820       0.375421         3.3423         2.4201         2.2748         2.0758        94.9289      2495.5397      2511.5397
     2583.6372        12.2500        13.3265       0.018021        94.5996         6.8606       115.5487       0.377223         3.3749         2.4143         2.2197         2.0349        95.3913      2495.6913      2511.6913
     2583.7896        12.2500        13.4575       0.015019        95.9578         6.6950       115.9613       0.379550         3.3539         2.4022         2.1467         2.0068        96.4343      2495.8430      2511.8430
     2583.9420        12.2500        13.7086       0.016993        97.1296         6.7512       114.0850       0.387175         3.2846         2.3923         2.0687         1.9669        97.2396      2495.9946      2511.9946
     2584.0944        12.2500        13.8250       0.017008        98.2546         7.1546       108.2342       0.397143         3.2107         2.3958         1.9967         1.9540        97.6400      2496.1463      2512.1463
     2584.2468        12.2500        13.6758       0.019034        99.3618         7.6840       100.5164       0.406043         3.1757         2.4075         1.9358         1.9609        97.8789      2496.2979      2512.2979
