~Version Section
VERS.   2.0:  CWLS Log ASCII Standard - Version 2.0
WRAP.    NO:  One data record per depth sample.
~Well Information Section
#MNEM.UNIT      VALUE                    DESCRIPTION
#---------      ----------               -----------
STRT.M                   0               :START DEPTH
STOP.M          3180.43555               :STOP DEPTH
STEP.M               .1524               :STEP
NULL.          -999.250000               :NULL VALUE
COMP.                                    :Oil Company
WELL.         GABO-21                    :Non unique well name
FLD.              FNG00147               :Field name
LOC.  6.610748, 5.225944                 :Location
PROV.                                    :Province
SRVC.                                    :Service
DATE.           2013-08-16               :Date unloaded
UWI.          			               :Unique well id
~Curve Information Section
#MNEM.UNIT                   API CODE                 Curve Description
#---------                   ----------               -----------------
BOREHOLE-DEPTH.M                                   :DEPTH
GR.GAPI                                   :
RT.OHMM                                   :
RXO.OHMM                                   :
TVD.M                                   :
TVDSS.M                                   :
~A
# ...
2238.4512    114.7631     3.5175       3.2671       2185.2056    2165.8855    
2238.6035    113.0229     3.4298       3.0932       2185.3264    2166.0066    
2238.7561    111.1962     3.1352       3.0225       2185.4475    2166.1274    
2238.9084    107.7150     3.2361       3.0854       2185.5684    2166.2483    
2239.0608    99.1009      4.0337       3.7545       2185.6892    2166.3691    
2239.2131    92.1403      4.5245       4.2069       2185.8101    2166.4900    
2239.3657    85.2674      4.7312       4.7045       2185.9309    2166.6108    
2239.5181    86.9204      4.7743       4.5423       2186.0515    2166.7317    
2239.6704    83.6125      4.4726       5.0481       2186.1724    2166.8523    
2239.8228    78.3911      4.4451       4.4368       2186.2932    2166.9731    
2239.9753    67.8636      4.5264       4.2582       2186.4138    2167.0938    
2240.1277    55.5106      3.7971       3.8120       2186.5344    2167.2146    
2240.2800    46.7239      4.0207       3.9702       2186.6553    2167.3352    
2240.4324    39.9373      4.7455       4.3970       2186.7759    2167.4558    
2240.5847    41.6772      4.9387       4.6720       2186.8965    2167.5764    
2240.7373    41.7637      5.1949       4.9801       2187.0171    2167.6970    
2240.8896    43.4170      5.2755       5.3758       2187.1377    2167.8176    
2241.0420    41.7632      5.3176       5.0382       2187.2583    2167.9382    
2241.1943    40.0230      5.4633       5.4036       2187.3789    2168.0588    
2241.3469    38.3695      5.5158       5.2862       2187.4993    2168.1792    
2241.4993    38.2832      5.4594       5.0222       2187.6199    2168.2998    
2241.6516    38.2832      5.1481       5.0241       2187.7402    2168.4204    
2241.8040    38.1966      5.2340       4.9044       2187.8606    2168.5408    
2241.9565    36.4565      4.9623       4.7547       2187.9812    2168.6611    
2242.1089    34.8895      4.9845       4.5187       2188.1016    2168.7815    
2242.2612    36.6299      4.6839       4.4150       2188.2219    2168.9021    
2242.4136    40.2834      4.6280       4.5151       2188.3423    2169.0225    
2242.5659    46.9845      4.4575       4.2856       2188.4626    2169.1426    
2242.7185    50.3785      4.2923       3.9826       2188.5830    2169.2629    
2242.8708    53.6856      4.2425       3.9928       2188.7034    2169.3833    
2243.0232    53.6856      4.1927       3.9265       2188.8235    2169.5037    
2243.1755    53.7710      4.1607       3.9384       2188.9438    2169.6238    
2243.3281    48.6375      4.1152       4.0352       2189.0642    2169.7441    
2243.4805    46.8970      4.3830       4.0244       2189.1843    2169.8643    
2243.6328    43.4170      4.3819       4.1472       2189.3044    2169.9846    
2243.7852    41.7632      4.6981       4.4076       2189.4246    2170.1045    
2243.9377    40.1099      4.7793       4.5314       2189.5449    2170.2249    
2244.0901    41.7635      4.7515       4.6640       2189.6648    2170.3450    
2244.2424    41.6772      4.7275       4.5919       2189.7849    2170.4651    
2244.3948    41.6769      4.7050       4.6699       2189.9050    2170.5852    
2244.5471    40.0236      4.6823       4.4699       2190.0251    2170.7051    
2244.6997    41.7632      4.6485       4.4875       2190.1453    2170.8252    
2244.8521    40.1096      4.7126       4.4342       2190.2651    2170.9453    
2245.0044    40.1094      4.8130       4.5524       2190.3853    2171.0652    
2245.1567    38.4561      4.5653       4.3771       2190.5051    2171.1851    
2245.3093    40.0230      4.5574       4.4690       2190.6250    2171.3052    
2245.4617    38.2832      4.4787       4.3006       2190.7451    2171.4250    
2245.6140    38.2829      4.4990       4.3553       2190.8650    2171.5449    
2245.7664    36.7157      4.3560       4.2532       2190.9846    2171.6648    
2245.9189    36.8023      4.4029       4.0571       2191.1045    2171.7847    
2246.0713    38.4561      4.2974       4.1052       2191.2244    2171.9043    
2246.2236    40.1096      4.1362       4.0531       2191.3442    2172.0242    
2246.3760    40.1094      4.1200       3.9313       2191.4641    2172.1440    
2246.5283    38.3692      4.0843       3.8842       2191.5837    2172.2639    
2246.6809    36.6293      4.0108       3.6947       2191.7036    2172.3835    
2246.8333    36.5433      3.9401       3.6245       2191.8232    2172.5032    
2246.9856    38.1969      3.6405       3.5974       2191.9431    2172.6230    
2247.1379    38.1972      3.7252       3.5244       2192.0625    2172.7427    
2247.2905    40.0231      3.6197       3.4922       2192.1824    2172.8623    
2247.4429    38.3698      3.5594       3.5048       2192.3020    2172.9819    
2247.5952    40.0230      3.5255       3.4855       2192.4214    2173.1016    
2247.7476    38.1975      3.3785       3.2818       2192.5410    2173.2212    
2247.9001    41.6778      3.2910       3.1602       2192.6606    2173.3406    
2248.0525    45.4190      3.2334       2.9952       2192.7803    2173.4602    
2248.2048    61.0810      2.9830       2.8462       2192.8997    2173.5796    
2248.3572    80.3101      2.8383       2.6625       2193.0193    2173.6992    
2248.5095    106.4114     2.4412       2.2627       2193.1387    2173.8186    
2248.6621    127.3777     2.2811       2.2073       2193.2581    2173.9380    
2248.8145    137.9025     2.5215       2.2484       2193.3774    2174.0576    
2248.9668    134.2487     2.6826       2.4423       2193.4968    2174.1770    
2249.1191    125.2876     3.0417       2.9049       2193.6162    2174.2964    
2249.2717    107.7995     3.5478       3.5453       2193.7356    2174.4155    
2249.4241    88.5711      3.8684       3.6509       2193.8550    2174.5349    
2249.5764    66.1240      4.3383       4.3597       2193.9744    2174.6543    
2249.7288    57.1656      4.5844       4.4762       2194.0935    2174.7737    
2249.8813    55.5989      4.7756       4.7114       2194.2129    2174.8928    
2250.0337    59.1653      4.9246       4.9402       2194.3320    2175.0122    
2250.1860    61.0777      4.9795       4.8413       2194.4514    2175.1313    
2250.3384    60.9914      5.0853       5.0552       2194.5706    2175.2505    
2250.4907    60.9920      5.1314       4.9865       2194.6897    2175.3696    
2250.6433    64.2997      5.1517       5.1479       2194.8088    2175.4888    
2250.7957    67.7799      5.2022       5.0266       2194.9280    2175.6079    
2250.9480    71.0871      5.0638       5.0159       2195.0471    2175.7271    
2251.1003    71.1734      5.0189       4.6476       2195.1660    2175.8462    
2251.2529    71.2594      4.9874       4.6971       2195.2852    2175.9651    
2251.4053    69.6922      4.9226       4.9529       2195.4043    2176.0842    
2251.5576    69.7785      4.8682       4.6083       2195.5232    2176.2034    
2251.7100    69.7784      4.9341       4.5769       2195.6421    2176.3223    
2251.8625    69.6047      4.8870       4.6805       2195.7612    2176.4412    
2252.0149    62.7310      4.9206       4.7166       2195.8801    2176.5603    
2252.1672    59.1647      4.9152       4.9233       2195.9990    2176.6792    
2252.3196    57.5117      4.9238       4.7920       2196.1179    2176.7981    
2252.4719    60.9054      4.7776       5.0911       2196.2368    2176.9170    
2252.6245    62.6450      4.9367       4.7920       2196.3557    2177.0356    
2252.7769    60.9045      4.8033       4.9599       2196.4746    2177.1545    
2252.9292    57.5108      4.9129       4.8551       2196.5935    2177.2734    
2253.0815    55.7706      4.8462       4.9656       2196.7122    2177.3921    
2253.2341    53.9445      4.8219       4.7767       2196.8308    2177.5110    
2253.3865    53.8579      4.8911       4.8690       2196.9497    2177.6296    
2253.5388    52.1181      4.7512       4.7979       2197.0684    2177.7483    
2253.6912    52.2044      4.9225       4.8125       2197.1870    2177.8672    
2253.8435    52.2044      4.9097       4.8132       2197.3057    2177.9856    
