~Version Information Block
VERS .                 2.00:  CWLS LOG ASCII STANDARD - VERSION 2.00
WRAP .                   NO:  One line per depth step
~Well Information Block
#MNEM.UNIT        Data Type   Information
#---------- ----------------  -----------
STRT .M              0.0000:  START DEPTH
STOP .M           2950.4637:  STOP DEPTH
STEP .M              0.1524:  STEP
NULL .              -999.25:  NULL VALUE
COMP .                     :  COMPANY
WELL .               GABO15:  WELL
FLD  .                     :  FIELD
LOC  .   6.656416, 5.257802:  LOCATION
CTRY .                     :  COUNTRY
STAT .                     :  STATE
CNTY .                     :  COUNTY
API  .                     :  API NUMBER
UWI  .                     :  UNIQUE WELL ID
SRVC .                     :  SERVICE COMPANY
DATE .                     :  LOG DATE
~Curve Information Block
#MNEM.UNIT         API CODE   Curve Description
#---------- ----------------  -----------------
DEPTH.M                    :  Reference Depth.
BS_COMP.INCHES             :  Bit Size
CALI_COMP.INCHES          0:  Caliper
DRHO_COMP.G/C3            0:  Density Correction
DT_COMP.US/F              0:  Compressional Sonic
ECART_COMP.                :  Neutron Density Seperation
GR_COMP.GAPI               :  Gamma Ray
NPHI_COMP.V/V             0:  Neutron Porosity
PEF_COMP.B/E              0:  Photo Electric Factor
RHOB_COMP.G/C3            0:  Bulk Density
RT_COMP.OHMM              0:  True or Deep Resistivity
RXO_COMP.OHMM             0:  Invaded Zone Resistivity
SP_COMP.MV                 :  Values changed using TEXT_EDIT
TVDSS_COMP.M               :  Reference TVD sub-sea log.
TVD_COMP.M                 :  Reference TVD log.
~Parameter Information Block
#MNEM.UNIT            Value   Description
#---------- ----------------  -----------
SET  .                  LCS:  
MFST .DEGF               80:  Mud filtrate sample temperature
RMFS .OHMM              1.9:  Resistivity of Filtrate sample
SP_SH.MV                  0:  Shale baseline value for SP
~Other Information Block
COMMENT:
$$MUX      Data from LAS tape
$$MUX      fevsbd 09/10/97 ng95603  ASCII:      GABO15.fod
$$MUX
$$MUX
#        DEPTH        BS_COMP      CALI_COMP      DRHO_COMP        DT_COMP     ECART_COMP        GR_COMP      NPHI_COMP       PEF_COMP      RHOB_COMP        RT_COMP       RXO_COMP        SP_COMP     TVDSS_COMP       TVD_COMP 
~A
# ...
     2186.4826         9.8750        12.6532    -999.250000       106.1879         0.3005        58.8861       0.294011         2.0069         2.2250        13.3610         2.3070       -67.3528      2026.7836      2046.7836
     2186.6350         9.8750        12.3405    -999.250000       106.4690         0.4936        60.0180       0.298005         1.9710         2.2280        13.5053         2.4651       -67.6464      2026.9117      2046.9117
     2186.7874         9.8750        12.5321    -999.250000       106.0310         0.5799        58.1483       0.299987         1.9772         2.2290        13.4594         2.2745       -66.9670      2027.0399      2047.0399
     2186.9398         9.8750        12.9388    -999.250000       104.9381         0.5532        55.2649       0.294968         2.0674         2.2360        13.0721         1.8793       -65.9773      2027.1680      2047.1680
     2187.0922         9.8750        13.2545    -999.250000       102.8752         0.4935        54.8556       0.282971         2.2103         2.2531        12.4243         1.6905       -66.0925      2027.2961      2047.2961
     2187.2446         9.8750        13.4472    -999.250000        99.6564         0.5674        59.1771       0.271992         2.3040         2.2750        11.7836         1.7596       -65.2829      2027.4243      2047.4243
     2187.3970         9.8750        13.5280    -999.250000        97.5632         0.8275        67.0712       0.269005         2.2969         2.2930        11.3594         1.7847       -66.2979      2027.5524      2047.5524
     2187.5494         9.8750        13.1675    -999.250000        96.8751         1.1339        76.0818       0.271000         2.2589         2.3050        11.2754         1.8232       -66.0258      2027.6806      2047.6806
     2187.7018         9.8750        12.2234    -999.250000        96.7810         1.3333        83.0630       0.270992         2.2278         2.3150        11.6314         2.1480       -66.1503      2027.8088      2047.8088
     2187.8542         9.8750        11.6408    -999.250000        97.7499         1.3326        83.0592       0.267984         2.1537         2.3200        12.1767         2.9589       -66.0704      2027.9370      2047.9370
     2188.0066         9.8750        11.5628    -999.250000        99.2808         1.0724        76.0385       0.261992         2.0317         2.3170        12.7344         3.6670       -65.5292      2028.0652      2048.0652
     2188.1590         9.8750        11.5020    -999.250000       100.6248         0.7125        66.8950       0.259008         1.9369         2.3039        13.1293         4.2891       -66.0987      2028.1934      2048.1934
     2188.3114         9.8750        11.5214    -999.250000       101.3439         0.4129        59.7999       0.262013         1.9060         2.2840        13.1630         4.1047       -65.7167      2028.3217      2048.3217
     2188.4638         9.8750        11.6611    -999.250000       101.5310         0.2594        54.9285       0.266997         1.9019         2.2680        13.0576         3.4668       -64.3355      2028.4499      2048.4499
     2188.6162         9.8750        12.0728    -999.250000       101.5310         0.0256        51.3930       0.265981         1.8799         2.2580        13.2475         2.6106       -62.9872      2028.5781      2048.5781
     2188.7686         9.8750        12.3817    -999.250000       101.4690        -0.3879        49.5359       0.258995         1.8449         2.2489        13.6957         2.1028       -61.9329      2028.7064      2048.7064
     2188.9210         9.8750        11.8871    -999.250000       101.5000        -0.8339        48.3689       0.257021         1.8069         2.2299        14.4481         1.7307       -61.1328      2028.8347      2048.8347
     2189.0734         9.8750        11.1928    -999.250000       102.0309        -1.0467        46.0761       0.265032         1.7529         2.2059        15.3732         2.2728       -60.4629      2028.9630      2048.9630
     2189.2258         9.8750        11.1027    -999.250000       103.1559        -1.0674        42.3649       0.277000         1.7080         2.1850        16.2216         3.5464       -60.4341      2029.0913      2049.0913
     2189.3782         9.8750        11.3487    -999.250000       104.0939        -1.3282        38.5935       0.276960         1.6941         2.1720        17.1721         3.6068       -59.9180      2029.2196      2049.2196
     2189.5306         9.8750        11.6028    -999.250000       104.4689        -1.9079        35.4343       0.261960         1.7191         2.1680        18.1487         3.0656       -59.7157      2029.3479      2049.3479
     2189.6830         9.8750        11.8966       0.007016       104.5940        -2.3462        34.0490       0.247003         1.7711         2.1710        18.8008         2.5383       -59.2953      2029.4763      2049.4763
     2189.8354         9.8750        12.1291       0.013000       104.3130        -2.1721        34.7831       0.248032         1.8130         2.1780        19.0619         2.3433       -59.4136      2029.6046      2049.6046
     2189.9878         9.8750        12.1601       0.012984       103.6881        -1.7127        35.5536       0.260024         1.8149         2.1810        19.2664         2.1316       -58.4113      2029.7329      2049.7329
     2190.1402         9.8750        12.1991    -999.250000       103.2501        -1.4736        35.0439       0.269000         1.7779         2.1780        19.3020         1.9173       -57.2888      2029.8613      2049.8613
     2190.2926         9.8750        12.2317    -999.250000       103.0940        -1.5745        33.8889       0.268976         1.7531         2.1730        19.4012         1.9345       -57.3578      2029.9897      2049.9897
     2190.4450         9.8750        12.1205    -999.250000       103.3440        -1.9944        33.1152       0.259981         1.7721         2.1670        19.5336         2.1412       -56.6971      2030.1181      2050.1181
     2190.5974         9.8750        11.9503    -999.250000       103.7809        -2.4071        32.4520       0.253005         1.8071         2.1580        19.4498         2.5880       -57.2634      2030.2465      2050.2465
     2190.7498         9.8750        11.6712    -999.250000       103.9690        -2.5597        32.0885       0.255019         1.8280         2.1470        19.3559         3.3186       -57.3668      2030.3749      2050.3749
     2190.9022         9.8750        11.3585    -999.250000       104.2500        -2.4469        33.0391       0.262003         1.8370         2.1410        19.5014         4.1705       -56.9652      2030.5033      2050.5033
     2191.0546         9.8750        11.1843    -999.250000       104.6880        -2.5143        36.0733       0.262981         1.8349         2.1360        19.6349         4.4407       -56.2388      2030.6318      2050.6318
     2191.2070         9.8750        11.3051    -999.250000       104.7500        -2.8877        39.9109       0.255978         1.8149         2.1290        19.7768         3.8399       -55.5482      2030.7602      2050.7602
     2191.3594         9.8750        11.3470    -999.250000       104.2811        -3.2532        41.7332       0.248005         1.7769         2.1240        19.6397         3.7538       -56.2219      2030.8887      2050.8887
     2191.5118         9.8750        10.9836    -999.250000       103.7501        -3.1856        41.4528       0.250029         1.7319         2.1240        19.1706         3.3551       -55.6216      2031.0172      2051.0172
     2191.6642         9.8750        10.8418    -999.250000       103.3750        -2.7790        41.3976       0.261027         1.6990         2.1260        18.6853         3.5015       -54.8948      2031.1457      2051.1457
     2191.8166         9.8750        10.7703    -999.250000       102.6881        -2.3861        43.8854       0.271003         1.6831         2.1290        18.4617         3.1942       -54.0190      2031.2742      2051.2742
