~Version Section
VERS.   2.0:  CWLS Log ASCII Standard - Version 2.0
WRAP.    NO:  One data record per depth sample.
~Well Information Section
#MNEM.UNIT      VALUE                    DESCRIPTION
#---------      ----------               -----------
STRT.M                   0               :START DEPTH
STOP.M          3180.43555               :STOP DEPTH
STEP.M               .1524               :STEP
NULL.          -999.250000               :NULL VALUE
COMP.                                    :Oil Company
WELL.         GABO-21                    :Non unique well name
FLD.              FNG00147               :Field name
LOC.  6.610748, 5.225944                 :Location
PROV.                                    :Province
SRVC.                                    :Service
DATE.           2013-08-16               :Date unloaded
UWI.          			               :Unique well id
~Curve Information Section
#MNEM.UNIT                   API CODE                 Curve Description
#---------                   ----------               -----------------
BOREHOLE-DEPTH.M                                   :DEPTH
GR.GAPI                                   :
RT.OHMM                                   :
RXO.OHMM                                   :
TVD.M                                   :
TVDSS.M                                   :
~A
# ...
1678.8384    25.9296      37.0027      41.0093      1677.4949    1658.1749    
1678.9908    24.2758      40.4092      47.1653      1677.6464    1658.3264    
1679.1432    24.4485      39.2012      47.3706      1677.7979    1658.4778    
1679.2957    26.3613      36.0839      40.9403      1677.9493    1658.6293    
1679.4480    31.5817      31.6812      30.8924      1678.1007    1658.7806    
1679.6005    35.0620      31.6810      30.8924      1678.2522    1658.9323    
1679.7528    38.5423      26.7670      29.9786      1678.4036    1659.0836    
1679.9053    42.2818      21.5280      20.9789      1678.5551    1659.2351    
1680.0576    52.5500      18.9568      18.3700      1678.7065    1659.3865    
1680.2100    62.9045      16.7782      17.7513      1678.8580    1659.5380    
1680.3624    71.2598      14.0597      13.3793      1679.0094    1659.6895    
1680.5148    73.1726      13.5477      12.4971      1679.1608    1659.8408    
1680.6672    74.7400      12.4672      10.5229      1679.3123    1659.9923    
1680.8196    72.8272      12.4673      10.5230      1679.4637    1660.1437    
1680.9720    70.8280      15.0343      15.5604      1679.6151    1660.2950    
1681.1244    63.8674      16.0820      17.0712      1679.7666    1660.4467    
1681.2769    57.0794      16.9566      16.9372      1679.9180    1660.5980    
1681.4292    50.2052      16.9565      16.9370      1680.0695    1660.7494    
1681.5817    46.8113      14.0610      13.9074      1680.2208    1660.9008    
1681.7340    45.5027      11.5943      11.9272      1680.3722    1661.0522    
1681.8865    44.2807      9.3805       8.9544       1680.5236    1661.2036    
1682.0388    51.1549      9.3806       8.9545       1680.6750    1661.3551    
1682.1912    55.5120      13.8921      10.5625      1680.8265    1661.5065    
1682.3436    51.5999      18.9809      15.3155      1680.9779    1661.6580    
1682.4960    39.7642      18.9809      15.3158      1681.1293    1661.8093    
1682.6484    31.6680      21.3746      24.0211      1681.2806    1661.9607    
1682.8008    35.1483      22.3757      28.6424      1681.4321    1662.1121    
1682.9532    38.4560      25.4002      28.3825      1681.5835    1662.2635    
1683.1056    41.7636      25.4002      28.3824      1681.7349    1662.4149    
1683.2581    41.9362      26.3650      25.1429      1681.8864    1662.5663    
1683.4104    42.1089      26.6432      26.0864      1682.0377    1662.7177    
1683.5629    45.4165      28.0914      25.2105      1682.1890    1662.8690    
1683.7152    45.2438      29.6440      26.0711      1682.3405    1663.0204    
1683.8677    45.0711      29.6441      26.0713      1682.4918    1663.1718    
1684.0200    41.6772      33.7521      31.9318      1682.6432    1663.3232    
1684.1724    41.5908      35.6098      35.2616      1682.7946    1663.4746    
1684.3248    38.1105      40.0613      29.4642      1682.9459    1663.6259    
1684.4772    34.7165      40.0613      29.4647      1683.0973    1663.7773    
1684.6296    31.3227      39.6152      43.8788      1683.2487    1663.9287    
1684.7820    31.4090      38.8380      40.1650      1683.4000    1664.0800    
1684.9344    33.2356      38.4390      32.4422      1683.5514    1664.2314    
1685.0868    36.6295      36.8582      35.2545      1683.7028    1664.3828    
1685.2393    38.1969      35.4750      33.4204      1683.8541    1664.5341    
1685.3916    38.0242      34.9818      32.6483      1684.0055    1664.6855    
1685.5441    34.8030      30.6150      26.0888      1684.1569    1664.8369    
1685.6964    36.6295      27.8815      24.2441      1684.3082    1664.9882    
1685.8489    38.5424      22.9116      27.9161      1684.4596    1665.1396    
1686.0012    43.9356      22.9114      27.9158      1684.6108    1665.2909    
1686.1536    53.1542      17.8133      17.6509      1684.7622    1665.4423    
1686.3060    62.2870      15.4235      15.7284      1684.9136    1665.5936    
1686.4584    86.3036      11.3171      10.9655      1685.0649    1665.7449    
1686.6108    103.1872     8.5166       7.7221       1685.2162    1665.8962    
1686.7632    120.2430     8.0383       7.4323       1685.3676    1666.0476    
1686.9156    123.5505     7.3904       6.5910       1685.5189    1666.1989    
1687.0680    123.5505     7.3209       6.7797       1685.6702    1666.3502    
1687.2205    123.2914     7.3209       6.7797       1685.8215    1666.5015    
1687.3728    118.2437     7.3125       6.6201       1685.9728    1666.6528    
1687.5253    116.5899     7.1722       6.9415       1686.1241    1666.8042    
1687.6776    116.8490     6.9493       6.5407       1686.2755    1666.9554    
1687.8301    121.9830     5.9944       5.9132       1686.4268    1667.1068    
1687.9824    123.7232     6.0966       6.0043       1686.5781    1667.2581    
1688.1348    125.2042     5.8104       5.8473       1686.7294    1667.4094    
1688.2872    122.0695     5.4412       5.3378       1686.8807    1667.5607    
1688.4396    127.0308     5.4714       5.2042       1687.0320    1667.7120    
1688.5920    127.1172     5.0876       4.6131       1687.1832    1667.8632    
1688.7444    128.6846     5.2854       5.0370       1687.3345    1668.0145    
1688.8969    127.2036     5.3223       4.9728       1687.4858    1668.1658    
1689.0492    130.8565     5.4300       4.9011       1687.6371    1668.3171    
1689.2017    134.1640     5.6666       5.3150       1687.7883    1668.4683    
1689.3540    133.7321     6.2470       5.7631       1687.9396    1668.6196    
1689.5065    124.3405     7.1424       6.2343       1688.0909    1668.7709    
1689.6588    104.6806     8.9871       8.2872       1688.2421    1668.9221    
1689.8113    73.7035      15.0758      15.0670      1688.3934    1669.0734    
1689.9636    49.7733      19.5252      21.5321      1688.5447    1669.2247    
1690.1160    34.7166      21.6333      26.1818      1688.6959    1669.3759    
1690.2684    32.8901      23.3476      30.7853      1688.8472    1669.5272    
1690.4208    31.2364      30.8032      32.4886      1688.9984    1669.6783    
1690.5732    31.2364      35.0038      27.0364      1689.1497    1669.8296    
1690.7256    31.3227      35.2338      31.5042      1689.3009    1669.9810    
1690.8781    31.2362      39.1475      29.3737      1689.4521    1670.1321    
1691.0304    27.8423      38.9499      31.4095      1689.6033    1670.2833    
1691.1829    26.1022      44.0668      33.2675      1689.7546    1670.4346    
1691.3352    24.3621      45.0325      34.7126      1689.9058    1670.5858    
1691.4877    24.2757      44.9207      28.6436      1690.0570    1670.7371    
1691.6400    22.5356      50.3672      32.1726      1690.2083    1670.8882    
1691.7925    20.9682      49.7857      37.7143      1690.3594    1671.0394    
1691.9448    22.7083      49.4712      33.7714      1690.5106    1671.1906    
1692.0972    24.4485      56.1421      40.2683      1690.6617    1671.3418    
1692.2496    26.1022      56.1418      40.2681      1690.8130    1671.4930    
1692.4020    24.4484      48.7400      37.8301      1690.9642    1671.6442    
1692.5544    24.3620      57.8215      36.0379      1691.1154    1671.7954    
1692.7068    22.6219      61.7282      41.2208      1691.2666    1671.9467    
1692.8593    22.6219      55.1915      50.9688      1691.4178    1672.0978    
1693.0116    22.7083      54.9332      43.1587      1691.5690    1672.2490    
1693.1641    24.4484      59.2428      41.8512      1691.7202    1672.4001    
1693.3164    24.4484      57.0733      49.3874      1691.8713    1672.5513    
1693.4689    24.4484      49.2763      31.9378      1692.0225    1672.7025    
1693.6212    24.4485      60.0412      44.7677      1692.1737    1672.8538    
1693.7737    26.1022      58.8765      51.9555      1692.3248    1673.0048    
1693.9260    26.1886      54.0045      46.4148      1692.4760    1673.1560    
1694.0784    27.9288      56.8776      45.2373      1692.6272    1673.3073    
1694.2308    29.6690      57.1182      40.6222      1692.7783    1673.4583    
