~Version Information Block
VERS .                 2.00:  CWLS LOG ASCII STANDARD - VERSION 2.00
WRAP .                   NO:  One line per depth step
~Well Information Block
#MNEM.UNIT        Data Type   Information
#---------- ----------------  -----------
STRT .M              0.0000:  START DEPTH
STOP .M           2757.2208:  STOP DEPTH
STEP .M              0.1524:  STEP
NULL .              -999.25:  NULL VALUE
COMP .                     :  COMPANY
WELL .               GABO14:  WELL
FLD  .                     :  FIELD
LOC  .   6.639036, 5.241653:  LOCATION
CTRY .                     :  COUNTRY
STAT .                     :  STATE
CNTY .                     :  COUNTY
API  .                     :  API NUMBER
UWI  .                     :  UNIQUE WELL ID
SRVC .                     :  SERVICE COMPANY
DATE .                     :  LOG DATE
~Curve Information Block
#MNEM.UNIT         API CODE   Curve Description
#---------- ----------------  -----------------
DEPTH.M                    :  Reference Depth
BS_COMP.INCHES             :  Bit Size
CALI_COMP.INCHES          0:  Caliper
DRHO_COMP.G/C3            0:  Density Correction 
DT_COMP.US/F              0:  Compressional Sonic
ECART_COMP.                :  Neutron Density Seperation
GR_COMP.GAPI              0:  Gamma Ray
NPHI_COMP.V/V             0:  Neutron Porosity
PEF_COMP.B/E              0:  Photo Electric Factor
RHOB_COMP.G/C3            0:  Bulk Density
RT_COMP.OHMM              0:  True or Deep Resistivity
RXO_COMP.OHMM             0:  Invaded Zone Resistivity
SP_COMP.MV                0:  Spontaneous Potential
TVDSS_COMP.M               :  Reference TVD sub-sea log.
TVD_COMP.M                 :  Reference TVD log.
~Parameter Information Block
#MNEM.UNIT            Value   Description
#---------- ----------------  -----------
SET  .                  LCS:  
~Other Information Block
#        DEPTH        BS_COMP      CALI_COMP      DRHO_COMP        DT_COMP     ECART_COMP        GR_COMP      NPHI_COMP       PEF_COMP      RHOB_COMP        RT_COMP       RXO_COMP        SP_COMP     TVDSS_COMP       TVD_COMP 
~A
# ...
     2238.7560        12.2500        12.8747       0.002011        97.6791        -0.9556        56.2430       0.250784         2.0725         2.2342         9.5463         6.1688        62.8291      2154.3464      2170.3464
     2238.9084        12.2500        12.6293       0.003010        99.2390        -1.4653        46.1053       0.251352         1.9115         2.2078         9.3953         6.1149        63.0714      2154.4960      2170.4960
     2239.0608        12.2500        12.5233       0.006003       100.3464        -1.9686        40.0021       0.248334         1.7845         2.1877         9.2315         6.0984        63.3833      2154.6456      2170.6456
     2239.2132        12.2500        12.5100       0.009003       100.8743        -2.1962        35.3895       0.247001         1.7048         2.1785         9.1107         5.9712        63.4535      2154.7952      2170.7952
     2239.3656        12.2500        12.5000       0.011985       100.7148        -2.2069        33.5217       0.246243         1.6774         2.1792         9.0348         5.7925        63.5560      2154.9449      2170.9449
     2239.5180        12.2500        12.4899       0.010990        99.7763        -2.2004        34.7902       0.241335         1.6821         2.1878         8.9859         5.6850        63.7817      2155.0945      2171.0945
     2239.6704        12.2500        12.4729       0.007987        98.7477        -2.3030        36.8208       0.231100         1.6850         2.1997         8.9548         5.6819        63.9302      2155.2441      2171.2441
     2239.8228        12.2500        12.4340    -999.250000        98.2321        -2.5350        38.5555       0.219730         1.6762         2.2070         8.9096         5.8848        63.9688      2155.3937      2171.3937
     2239.9752        12.2500        12.4121    -999.250000        97.8126        -2.8248        40.4233       0.210995         1.6843         2.2071         8.8234         6.0564        63.9301      2155.5433      2171.5433
     2240.1276        12.2500        12.4140    -999.250000        97.7394        -2.9934        42.4714       0.208183         1.7237         2.2034         8.6963         5.9142        63.9534      2155.6929      2171.6929
     2240.2800        12.2500        12.4140    -999.250000        98.9475        -3.0071        44.7774       0.208005         1.7554         2.2030         8.5421         5.5240        64.0483      2155.8425      2171.8425
     2240.4324        12.2500        12.4242    -999.250000       101.0589        -3.1118        49.0717       0.209017         1.7581         2.1960         8.3509         5.0855        64.3383      2155.9921      2171.9921
     2240.5848        12.2500        12.4652       0.002993       103.7026        -3.2470        54.5211       0.217351         1.7806         2.1754         8.1006         4.9658        64.8532      2156.1417      2172.1417
     2240.7372        12.2500        12.5208    -999.250000       106.9326        -3.2895        57.3948       0.235028         1.8026         2.1438         7.7813         5.1415        65.1165      2156.2914      2172.2914
     2240.8896        12.2500        12.5138    -999.250000       109.2657        -3.4725        56.6827       0.254135         1.7858         2.1028         7.4042         5.2567        65.0072      2156.4410      2172.4410
     2241.0420        12.2500        12.4673    -999.250000       109.1938        -3.7346        53.9699       0.267104         1.7654         2.0681         7.0022         5.1818        64.8352      2156.5906      2172.5906
     2241.1944        12.2500        12.4821    -999.250000       107.1627        -3.6601        50.8461       0.276595         1.7712         2.0560         6.6085         4.9250        64.6479      2156.7402      2172.7402
     2241.3468        12.2500        12.5161    -999.250000       105.1090        -2.9628        48.0083       0.287528         1.7952         2.0726         6.2770         4.6985        64.6346      2156.8898      2172.8898
     2241.4992        12.2500        12.5590       0.027942       105.1126        -1.8432        48.0898       0.300731         1.8060         2.1066         6.0536         4.5906        64.9866      2157.0394      2173.0394
     2241.6516        12.2500        12.5774       0.029939       105.9092        -0.9740        52.4889       0.310232         1.8113         2.1342         5.9580         4.2748        65.5572      2157.1890      2173.1890
     2241.8040        12.2500        12.4670       0.018004       106.6294        -0.5939        60.4374       0.310100         1.8683         2.1535         5.9518         3.7842        66.0312      2157.3387      2173.3387
     2241.9564        12.2500        12.3800       0.010067       107.5913        -0.3414        69.1392       0.308353         1.9714         2.1690         5.9165         3.3868        66.0687      2157.4883      2173.4883
     2242.1088        12.2500        12.5454       0.019060       106.9952         0.0769        74.0292       0.311605         2.0527         2.1845         5.8074         3.1155        65.7873      2157.6379      2173.6379
     2242.2612        12.2500        12.7650       0.038983       105.9376         0.5576        73.6235       0.320858         2.0458         2.1931         5.6735         3.2236        65.4119      2157.7875      2173.7875
     2242.4136        12.2500        12.7064       0.049932       105.8620         0.7369        69.7700       0.333260         1.9580         2.1814         5.5549         3.5830        64.9601      2157.9371      2173.9371
     2242.5660        12.2500        12.5273       0.042942       106.5362         0.5447        67.3702       0.343762         1.8726         2.1543         5.5226         3.8067        64.7686      2158.0867      2174.0867
     2242.7184        12.2500        12.4613       0.024997       107.6881         0.2753        69.8699       0.346934         1.8590         2.1355         5.6571         3.9611        65.3560      2158.2364      2174.2364
     2242.8708        12.2500        12.4731       0.011033       107.7013         0.1426        75.5951       0.337830         1.9436         2.1441         5.8919         3.9900        66.2265      2158.3860      2174.3860
     2243.0232        12.2500        12.4980       0.008055       107.3269         0.4481        82.6922       0.324672         2.1302         2.1813         6.0906         3.7606        66.1181      2158.5356      2174.5356
     2243.1756        12.2500        12.5141       0.018079       107.0716         1.4520        90.7089       0.321251         2.3820         2.2372         6.2336         3.6784        64.5988      2158.6852      2174.6852
     2243.3280        12.2500        12.5642       0.043016       105.6491         2.5093        98.8680       0.324577         2.5571         2.2845         6.3558         3.9770        62.3445      2158.8348      2174.8348
     2243.4804        12.2500        12.6478       0.064958       104.1370         2.6740       104.1401       0.323938         2.5288         2.2938         6.5266         4.2081        60.7034      2158.9844      2174.9844
     2243.6328        12.2500        12.6598       0.071954       103.2472         2.0151       100.5791       0.317412         2.3816         2.2717         6.8742         4.2310        60.8029      2159.1341      2175.1341
     2243.7852        12.2500        12.6230       0.066954       102.6396         1.2231        86.8553       0.310004         2.2461         2.2445         7.3619         4.2331        62.0988      2159.2837      2175.2837
     2243.9376        12.2500        12.6039       0.052943       102.3259         0.3862        68.5791       0.300712         2.0987         2.2181         7.7852         4.2460        63.1503      2159.4333      2175.4333
     2244.0900        12.2500        12.5678       0.029987       101.8569        -0.5812        53.3714       0.286165         1.9190         2.1940         8.0475         4.2426        63.6649      2159.5829      2175.5829
