~Version Section
VERS.   2.0:  CWLS Log ASCII Standard - Version 2.0
WRAP.    NO:  One data record per depth sample.
~Well Information Section
#MNEM.UNIT      VALUE                    DESCRIPTION
#---------      ----------               -----------
STRT.M                   0               :START DEPTH
STOP.M          3180.43555               :STOP DEPTH
STEP.M               .1524               :STEP
NULL.          -999.250000               :NULL VALUE
COMP.                                    :Oil Company
WELL.         GABO-21                    :Non unique well name
FLD.              FNG00147               :Field name
LOC.  6.610748, 5.225944                 :Location
PROV.                                    :Province
SRVC.                                    :Service
DATE.           2013-08-16               :Date unloaded
UWI.          			               :Unique well id
~Curve Information Section
#MNEM.UNIT                   API CODE                 Curve Description
#---------                   ----------               -----------------
BOREHOLE-DEPTH.M                                   :DEPTH
GR.GAPI                                   :
RT.OHMM                                   :
RXO.OHMM                                   :
TVD.M                                   :
TVDSS.M                                   :
~A
# ...
2471.6233    25.2851      1.6858       1.7697       2346.4583    2327.1382    
2471.7756    26.1020      1.7091       1.7793       2346.5469    2327.2268    
2471.9280    24.9796      1.7131       1.6845       2346.6353    2327.3152    
2472.0803    26.7209      1.7640       1.7576       2346.7236    2327.4038    
2472.2329    33.6820      1.8267       1.8771       2346.8123    2327.4922    
2472.3853    42.9645      1.8501       1.9526       2346.9006    2327.5806    
2472.5376    43.4258      1.9301       2.0407       2346.9890    2327.6689    
2472.6899    36.4648      1.9926       2.0908       2347.0774    2327.7576    
2472.8425    27.8989      1.9593       2.0362       2347.1660    2327.8459    
2472.9949    25.3183      1.8189       1.8339       2347.2544    2327.9343    
2473.1472    25.3184      1.7654       1.8174       2347.3428    2328.0227    
2473.2996    25.7246      1.6836       1.6444       2347.4312    2328.1111    
2473.4521    27.8424      1.6153       1.5732       2347.5195    2328.1995    
2473.6045    27.8420      1.6103       1.5594       2347.6079    2328.2878    
2473.7568    26.1018      1.6109       1.5334       2347.6963    2328.3762    
2473.9092    24.3620      1.5469       1.5129       2347.7847    2328.4646    
2474.0615    24.1230      1.5350       1.5005       2347.8730    2328.5530    
2474.2141    24.1226      1.4906       1.4382       2347.9614    2328.6414    
2474.3665    22.3825      1.4985       1.4359       2348.0498    2328.7297    
2474.5188    20.6866      1.4936       1.4796       2348.1382    2328.8181    
2474.6711    20.6866      1.5387       1.5036       2348.2263    2328.9065    
2474.8237    20.6866      1.5377       1.4944       2348.3147    2328.9946    
2474.9761    21.0324      1.5464       1.5528       2348.4031    2329.0830    
2475.1284    21.1730      1.5793       1.5488       2348.4915    2329.1714    
2475.2808    26.3949      1.5904       1.5423       2348.5796    2329.2598    
2475.4333    38.4254      1.6239       1.5064       2348.6680    2329.3479    
2475.5857    50.5666      1.7100       1.6797       2348.7563    2329.4363    
2475.7380    59.2665      1.8274       1.7492       2348.8445    2329.5247    
2475.8904    64.3524      1.8356       1.7960       2348.9329    2329.6128    
2476.0427    65.9914      1.8862       1.8158       2349.0212    2329.7012    
2476.1953    64.2947      1.9400       1.8941       2349.1094    2329.7893    
2476.3477    57.4691      1.9238       1.8766       2349.1978    2329.8777    
2476.5000    55.7018      1.9640       1.9365       2349.2859    2329.9661    
2476.6523    57.3803      1.8484       1.8754       2349.3743    2330.0542    
2476.8049    57.3795      1.7966       1.8076       2349.4624    2330.1423    
2476.9573    53.9268      1.7157       1.7264       2349.5508    2330.2307    
2477.1096    48.7401      1.6074       1.6193       2349.6389    2330.3188    
2477.2620    45.2602      1.6346       1.6123       2349.7271    2330.4070    
2477.4146    43.4926      1.7374       1.6485       2349.8152    2330.4954    
2477.5669    43.5148      1.6286       1.6666       2349.9036    2330.5835    
2477.7192    43.5152      1.6160       1.6151       2349.9917    2330.6719    
2477.8716    45.2212      1.6604       1.6973       2350.0801    2330.7600    
2478.0239    43.3760      1.7539       1.7404       2350.1682    2330.8481    
2478.1765    45.1158      1.5617       1.6108       2350.2563    2330.9363    
2478.3289    45.1773      1.6353       1.6734       2350.3445    2331.0244    
2478.4812    47.0837      1.6574       1.6447       2350.4326    2331.1128    
2478.6335    45.4544      1.6633       1.6046       2350.5208    2331.2007    
2478.7861    42.0911      1.6471       1.6417       2350.6089    2331.2891    
2478.9385    38.5115      1.6012       1.5878       2350.6970    2331.3772    
2479.0908    38.2617      1.6499       1.6166       2350.7854    2331.4653    
2479.2432    39.8848      1.6528       1.6451       2350.8733    2331.5535    
2479.3958    41.6250      1.6601       1.7349       2350.9614    2331.6416    
2479.5481    43.5041      1.5737       1.6869       2351.0498    2331.7297    
2479.7004    45.2442      1.5828       1.5543       2351.1377    2331.8179    
2479.8528    46.9840      1.5974       1.6072       2351.2258    2331.9060    
2480.0051    46.9844      1.5456       1.5351       2351.3140    2331.9939    
2480.1577    48.7249      1.5190       1.5531       2351.4021    2332.0820    
2480.3101    51.9877      1.5607       1.4882       2351.4900    2332.1702    
2480.4624    55.4679      1.5436       1.5217       2351.5781    2332.2583    
2480.6147    58.7153      1.5381       1.6022       2351.6663    2332.3462    
2480.7673    64.3989      1.5860       1.5569       2351.7544    2332.4343    
2480.9197    71.3596      1.8559       1.8771       2351.8423    2332.5225    
2481.0720    78.8190      2.0423       1.9925       2351.9304    2332.6106    
2481.2244    79.1189      2.2063       2.2385       2352.0186    2332.6985    
2481.3767    73.8984      2.2701       2.2658       2352.1067    2332.7866    
2481.5293    68.4116      2.2590       2.2337       2352.1946    2332.8745    
2481.6816    64.9878      2.1615       2.0570       2352.2827    2332.9626    
2481.8340    64.9866      1.9430       1.9584       2352.3706    2333.0505    
2481.9863    59.7661      1.8182       1.7829       2352.4585    2333.1387    
2482.1389    54.2665      1.7475       1.6720       2352.5466    2333.2266    
2482.2913    47.3067      1.6755       1.6191       2352.6345    2333.3147    
2482.4436    43.8267      1.6374       1.5829       2352.7227    2333.4026    
2482.5959    41.7635      1.7000       1.6326       2352.8105    2333.4905    
2482.7485    41.7643      1.5210       1.5550       2352.8987    2333.5786    
2482.9009    45.2446      1.5673       1.5966       2352.9866    2333.6665    
2483.0532    48.7256      1.5700       1.6216       2353.0745    2333.7544    
2483.2056    55.3025      1.6419       1.6327       2353.1626    2333.8425    
2483.3579    61.4853      1.7051       1.7003       2353.2505    2333.9304    
2483.5105    70.1850      1.8837       1.9103       2353.3384    2334.0183    
2483.6628    74.0479      2.1155       2.0799       2353.4263    2334.1062    
2483.8152    73.4926      2.1475       2.1667       2353.5142    2334.1941    
2483.9675    70.0124      1.9314       2.0651       2353.6023    2334.2822    
2484.1201    66.9559      1.8876       1.8503       2353.6902    2334.3701    
2484.2725    63.5021      1.8593       1.8189       2353.7781    2334.4580    
2484.4248    60.4634      1.8995       1.7859       2353.8660    2334.5459    
2484.5771    61.7804      1.8415       1.7955       2353.9539    2334.6338    
2484.7297    66.1065      1.9129       1.8956       2354.0417    2334.7217    
2484.8821    73.8990      2.3073       2.2163       2354.1294    2334.8096    
2485.0344    79.1187      2.4007       2.2092       2354.2173    2334.8975    
2485.1868    80.8426      2.6211       2.5359       2354.3054    2334.9854    
2485.3391    84.3013      2.8928       2.9322       2354.3931    2335.0730    
2485.4917    90.7661      3.1888       3.0056       2354.4810    2335.1609    
2485.6440    99.9444      3.4251       3.3417       2354.5688    2335.2488    
2485.7964    106.6754     3.5422       3.4850       2354.6565    2335.3367    
2485.9487    105.9474     3.7012       3.7248       2354.7444    2335.4243    
2486.1013    99.5106      3.6197       3.7106       2354.8320    2335.5122    
2486.2537    90.9949      3.5200       3.5276       2354.9197    2335.5996    
2486.4060    89.4016      2.9702       2.8159       2355.0073    2335.6875    
2486.5583    98.2173      2.8029       2.5422       2355.0950    2335.7749    
2486.7109    106.2615     2.5377       2.4424       2355.1826    2335.8625    
2486.8633    104.4198     2.4815       2.3795       2355.2700    2335.9502    
2487.0156    95.6483      2.4425       2.1817       2355.3577    2336.0376    
