~Version Information Block
VERS .                 2.00:  CWLS LOG ASCII STANDARD - VERSION 2.00
WRAP .                   NO:  One line per depth step
~Well Information Block
#MNEM.UNIT        Data Type   Information
#---------- ----------------  -----------
STRT .M           1550.0604:  START DEPTH
STOP .M           3909.9744:  STOP DEPTH
STEP .M              0.1524:  STEP
NULL .              -999.25:  NULL VALUE
COMP .                     :  COMPANY
WELL .               GABO52:  WELL
FLD  .                     :  FIELD
LOC  .   6.643655, 5.227736:  LOCATION
CTRY .                     :  COUNTRY
STAT .                     :  STATE
CNTY .                     :  COUNTY
API  .                     :  API NUMBER
UWI  .                     :  UNIQUE WELL ID
SRVC .                     :  SERVICE COMPANY
DATE .                     :  LOG DATE
~Curve Information Block
#MNEM.UNIT         API CODE   Curve Description
#---------- ----------------  -----------------
DEPTH.M                    :  Depth
DRHO .G/C3                 :  Density Correction Log
DTS_COMP.US/F              :  Shear Sonic 
DT_COMP.US/F               :  Compressional Sonic
GR_COMP.GAPI               :  Gamma Ray
HCAL .INCHES               :  Caliper
NPHI_COMP.V/V              :  Neutron Porosity
PEF_COMP.B/E               :  Photo Electric Factor
RDEEP_COMP.OHMM            :  Deep Resistivity
RHOB_COMP.G/C3             :  Bulk Density
RSHAL_COMP.OHMM            :  Shallow Resistivity
TVD  .M                    :  Reference TVD
TVDSS.M                    :  Reference TVDss
~Parameter Information Block
#MNEM.UNIT            Value   Description
#---------- ----------------  -----------
SET  .                  LCS:  
~Other Information Block
#        DEPTH           DRHO       DTS_COMP        DT_COMP        GR_COMP           HCAL      NPHI_COMP       PEF_COMP     RDEEP_COMP      RHOB_COMP     RSHAL_COMP            TVD          TVDSS 
~A
# ...
     3205.5816       0.110677       200.7002        97.6032       125.7028        10.2969       0.497884         3.6182         1.6708         2.4311         1.9070      2837.3652      2817.2451
     3205.7340       0.111267       194.9866        95.7511       123.5241        10.2295       0.465465         3.5288         1.6822         2.4127         1.9305      2837.4768      2817.3567
     3205.8864       0.111178       200.5316        94.4369       122.9809        10.1846       0.456095         3.4513         1.7146         2.4313         1.9716      2837.5886      2817.4685
     3206.0388       0.106795       201.7514        94.0541       125.7749        10.0275       0.460875         3.4040         1.7096         2.4478         1.9843      2837.7002      2817.5801
     3206.1912       0.112912       195.5085        93.6933       125.1951        10.2969       0.476134         3.4292         1.7099         2.4535         1.9962      2837.8120      2817.6919
     3206.3436       0.122204       196.9621        93.2464       120.7210        10.2071       0.460146         3.5014         1.7626         2.4405         2.0512      2837.9236      2817.8035
     3206.4960       0.141534       195.1340        94.2072       116.4614         9.8031       0.437902         3.6019         1.7636         2.4610         2.0724      2838.0354      2817.9153
     3206.6484       0.145375       191.5849        93.8651       115.9798        10.1173       0.429800         3.6558         1.7141         2.4747         1.9996      2838.1470      2818.0269
     3206.8008       0.147323       194.9650        96.7774       119.9733         9.8704       0.464951         3.6717         1.6965         2.4753         1.9657      2838.2585      2818.1384
     3206.9532       0.140479       194.4828        96.9441       119.5888        10.0388       0.475874         3.6536         1.6999         2.4547         1.9676      2838.3704      2818.2502
     3207.1056       0.136204       193.2708        94.7059       122.9648         9.7133       0.457718         3.7004         1.7011         2.4420         1.9577      2838.4819      2818.3618
     3207.2580       0.114850       196.5317        93.5879       117.3007         9.8929       0.428476         3.7774         1.7236         2.4292         2.0150      2838.5938      2818.4736
     3207.4104       0.102123       198.5913        94.2916       114.2166         9.6909       0.438341         3.8443         1.7474         2.4402         2.0515      2838.7053      2818.5852
     3207.5628       0.092067       196.4861        94.0923       114.2197        10.2295       0.448197         3.8098         1.7619         2.4490         2.0832      2838.8171      2818.6970
     3207.7152       0.111938       198.1223        94.4458       115.7196         9.8592       0.447979         3.7237         1.7674         2.4750         2.0510      2838.9287      2818.8086
     3207.8676       0.121250       198.7262        95.0652       120.6220        10.0051       0.437220         3.6308         1.7653         2.4320         1.9874      2839.0405      2818.9204
     3208.0200       0.137168       202.5351        96.5044       119.0473         9.6235       0.427782         3.5620         1.7638         2.3972         1.9425      2839.1521      2819.0320
     3208.1724       0.143292       209.9456        98.2823       117.9218         9.7582       0.445828         3.5132         1.7982         2.3884         1.9833      2839.2637      2819.1436
     3208.3248       0.142778       206.5146        98.4833       119.0470         9.9265       0.461234         3.4743         1.7936         2.4273         2.0127      2839.3752      2819.2551
     3208.4772       0.135649       201.9659        97.6930       115.5317        10.1846       0.450222         3.4760         1.8367         2.4643         2.0186      2839.4871      2819.3669
     3208.6296       0.119074       193.4289        95.3985       116.3594         9.7245       0.435940         3.4983         1.8158         2.4607         2.0334      2839.5986      2819.4785
     3208.7820       0.109131       186.4482        92.1520       116.2972         9.9153       0.432344         3.5568         1.8778         2.4704         2.0633      2839.7104      2819.5903
     3208.9344       0.089447       180.3495        89.2580       123.5014         9.8480       0.442545         3.6316         1.9331         2.5009         2.1258      2839.8220      2819.7019
     3209.0868       0.067413       167.3974        86.0396       126.2645         9.8368       0.422814         3.7102         2.0640         2.5519         2.2759      2839.9338      2819.8137
     3209.2392       0.051976       157.4799        84.4847       124.4648         9.2868       0.374770         3.7385         2.2419         2.5882         2.4690      2840.0454      2819.9253
     3209.3916       0.041811       156.3601        85.5435       118.0643         9.4664       0.332353         3.6898         2.3636         2.5685         2.6851      2840.1572      2820.0371
     3209.5440       0.028903       166.5481        88.9031       112.4904         9.2195       0.302006         3.5471         2.4792         2.5058         2.8527      2840.2688      2820.1487
     3209.6964       0.012053       180.7758        91.8194       106.3053         9.1746       0.288794         3.4041         2.5781         2.4249         3.0475      2840.3804      2820.2603
     3209.8488       0.007815       181.5508        92.8063       104.2672         9.0848       0.279277         3.2977         2.7281         2.3788         3.2725      2840.4919      2820.3718
     3210.0012       0.018301       180.3100        92.7647       101.8534         9.1185       0.285199         3.2174         2.8884         2.3638         3.3923      2840.6038      2820.4836
     3210.1536       0.026908       179.6074        92.3383       103.8205         9.1073       0.287663         3.1278         2.8312         2.3584         3.3391      2840.7153      2820.5952
     3210.3060       0.025637       177.4720        92.0452       104.9782         9.1073       0.276053         3.0327         2.7168         2.3462         3.2109      2840.8271      2820.7070
     3210.4584       0.017514       175.5137        93.3248       103.5845         9.0848       0.257657         2.9911         2.6318         2.3339         3.1440      2840.9387      2820.8186
     3210.6108       0.021679       176.6964        92.3754        99.8802         9.0848       0.237971         2.9897         2.5702         2.3530         3.0825      2841.0505      2820.9304
     3210.7632       0.032202       179.1193        92.8453        97.2920         9.1073       0.233237         3.0169         2.5603         2.3806         3.1589      2841.1621      2821.0420
     3210.9156       0.048346       178.1796        94.3344       100.1844         9.1297       0.249804         3.0522         2.5832         2.4039         3.1771      2841.2739      2821.1538
     3211.0680       0.053056       174.6160        94.1066       102.7499         9.1073       0.282166         3.0649         2.5742         2.3962         3.1782      2841.3855      2821.2654
     3211.2204       0.056646       171.6606        92.8098       105.4458         9.0848       0.291706         3.0449         2.5725         2.3936         3.0783      2841.4971      2821.3770
     3211.3728       0.063683       167.6635        93.9787       108.4205         9.0961       0.268954         3.0385         2.5312         2.4097         2.9882      2841.6086      2821.4885
     3211.5252       0.080128       162.7507        93.2325       109.6203         9.1522       0.244574         3.0937         2.5776         2.4450         2.9665      2841.7205      2821.6003
     3211.6776       0.097203       159.1697        91.0815       111.3855         9.1971       0.240623         3.2412         2.6674         2.4701         2.9958      2841.8320      2821.7119
     3211.8300       0.108269       157.8328        90.1866       113.0019         9.1971       0.251024         3.4083         2.7087         2.4950         3.0093      2841.9438      2821.8237
