~Version Information Block
VERS .                 2.00:  CWLS LOG ASCII STANDARD - VERSION 2.00
WRAP .                   NO:  One line per depth step
~Well Information Block
#MNEM.UNIT        Data Type   Information
#---------- ----------------  -----------
STRT .M              0.0000:  START DEPTH
STOP .M           2954.7312:  STOP DEPTH
STEP .M              0.1524:  STEP
NULL .              -999.25:  NULL VALUE
COMP .                     :  COMPANY
WELL .               GABO16:  WELL
FLD  .                     :  FIELD
LOC  .   6.656374, 5.257763:  LOCATION
CTRY .                     :  COUNTRY
STAT .                     :  STATE
CNTY .                     :  COUNTY
API  .                     :  API NUMBER
UWI  .                     :  UNIQUE WELL ID
SRVC .                     :  SERVICE COMPANY
DATE .                     :  LOG DATE
~Curve Information Block
#MNEM.UNIT         API CODE   Curve Description
#---------- ----------------  -----------------
DEPTH.M                    :  Reference Depth
BS_COMP.INCHES             :  Bit Size
CALI_COMP.INCHES           :  Caliper
DRHO_COMP.G/C3             :  Density Neutron Seperation
DT_COMP.US/F              0:  Compressional Sonic
GR_COMP.GAPI              0:  Gamma Ray
NPHI_COMP.V/V              :  Neutron Porosity
PEF_COMP.B/E              0:  Photo Electric Factor
RHOB_COMP.G/C3            0:  Bulk Density
RT_COMP.OHMM              0:  True or Deep Resistivity
RXO_COMP.OHMM             0:  Invaded Zone Resistivity
SP_COMP.MV                0:  Spontanuous Potential
TVDSS_COMP.M               :  Reference TVD sub-sea log.
TVD_COMP.M                 :  Reference TVD log.
~Parameter Information Block
#MNEM.UNIT            Value   Description
#---------- ----------------  -----------
SET  .                  LCS:  
~Other Information Block
COMMENT:
COMMENT:
$$MUX      Data from LAS tape
$$MUX      fevsbd 09/10/97 ng95603  ASCII:      GABO-16
$$MUX
$$MUX

#        DEPTH        BS_COMP      CALI_COMP      DRHO_COMP        DT_COMP        GR_COMP      NPHI_COMP       PEF_COMP      RHOB_COMP        RT_COMP       RXO_COMP        SP_COMP     TVDSS_COMP       TVD_COMP 
~A
# ...
     1244.8032        12.2500        13.0473      -0.034095       124.6950        21.1713       0.249812         1.4422         2.1503       284.3004         9.6526        34.9772      1192.8035      1213.3035
     1244.9556        12.2500        13.0688      -0.033193       125.2403        19.8407       0.244398         1.4892         2.1497       270.8209         9.8724        34.9439      1192.9469      1213.4469
     1245.1080        12.2500        13.2147      -0.030297       125.3234        18.5734       0.244261         1.5222         2.1454       278.6742         9.6581        34.5493      1193.0903      1213.5903
     1245.2604        12.2500        13.3217      -0.026606       124.6247        17.9330       0.247942         1.5185         2.1411       357.3700         9.2652        34.2490      1193.2338      1213.7338
     1245.4128        12.2500        13.2536      -0.024810       123.8784        17.9948       0.249360         1.4902         2.1387       494.4820         8.9860        34.3487      1193.3772      1213.8772
     1245.5652        12.2500        13.0998      -0.025904       123.6903        18.8510       0.246121         1.4630         2.1393       576.2912         8.7289        34.6227      1193.5206      1214.0206
     1245.7176        12.2500        13.0118      -0.028194       123.3866        20.1791       0.241068         1.4500         2.1455       548.6818         8.7107        34.8684      1193.6641      1214.1641
     1245.8700        12.2500        12.9569      -0.028795       122.8622        20.8112       0.237419         1.4538         2.1581       539.9605         9.1986        35.3617      1193.8075      1214.3075
     1246.0224        12.2500        12.8809      -0.028005       122.4635        19.9093       0.231170         1.4655         2.1725       642.6105         9.9740        36.0560      1193.9509      1214.4509
     1246.1748        12.2500        12.8009      -0.028709       122.2119        18.0873       0.221880         1.4708         2.1794       725.5889        10.5379        36.4889      1194.0944      1214.5944
     1246.3272        12.2500        12.7618      -0.032203       122.3402        16.8881       0.213752         1.4613         2.1729       652.1854        10.5726        36.4904      1194.2378      1214.7378
     1246.4796        12.2500        12.7578      -0.036492       123.3391        17.1271       0.213829         1.4459         2.1550       519.9874        10.4819        36.2033      1194.3812      1214.8812
     1246.6320        12.2500        12.7578      -0.038496       124.9908        17.9765       0.225035         1.4296         2.1340       439.6744        10.2275        36.0313      1194.5247      1215.0247
     1246.7844        12.2500        12.7578      -0.039396       126.4177        18.1143       0.241341         1.4107         2.1182       372.8131         9.3846        36.1324      1194.6681      1215.1681
     1246.9368        12.2500        12.7578      -0.039091       127.4607        17.0274       0.255476         1.3893         2.1126       295.5898         8.5310        36.5732      1194.8115      1215.3115
     1247.0892        12.2500        12.7578      -0.036097       128.1222        15.7165       0.259418         1.3783         2.1162       231.1575         8.2868        37.0775      1194.9550      1215.4550
     1247.2416        12.2500        12.7578      -0.032303       128.1522        15.6239       0.252861         1.3861         2.1226       187.9620         8.4407        36.8892      1195.0984      1215.5984
     1247.3940        12.2500        12.7578      -0.029406       127.8786        16.7496       0.245394         1.4027         2.1266       169.8264         8.5818        36.2798      1195.2418      1215.7418
     1247.5464        12.2500        12.7578      -0.028302       127.7900        17.6538       0.246201         1.4178         2.1280       172.5027         8.7061        36.2337      1195.3853      1215.8853
     1247.6988        12.2500        12.7578      -0.027704       128.0122        17.4224       0.254446         1.4221         2.1277       179.2888         8.8899        36.7284      1195.5286      1216.0286
     1247.8512        12.2500        12.7578      -0.028406       128.5469        16.7032       0.265132         1.4152         2.1254       184.7372         9.0396        37.0468      1195.6721      1216.1721
     1248.0036        12.2500        12.7578      -0.030997       129.1978        16.5422       0.274487         1.4090         2.1207       194.9837         9.1157        37.0299      1195.8156      1216.3156
     1248.1560        12.2500        12.7578      -0.032689       129.4011        17.4650       0.282505         1.4093         2.1183       213.5861         8.9433        36.8475      1195.9589      1216.4589
     1248.3084        12.2500        12.7579      -0.030998       128.7754        19.1874       0.287996         1.4106         2.1222       225.3526         8.5522        36.5051      1196.1023      1216.6023
     1248.4608        12.2500        12.7755      -0.028611       127.0913        20.8117       0.284845         1.4148         2.1334       215.7217         8.4146        36.3285      1196.2457      1216.7457
     1248.6132        12.2500        12.8164      -0.029505       124.5913        21.0016       0.272360         1.4238         2.1455       201.9730         8.6329        36.3487      1196.3892      1216.8892
     1248.7656        12.2500        12.8456      -0.031991       122.4284        19.3853       0.255030         1.4256         2.1513       223.7151         8.9054        36.1387      1196.5326      1217.0326
     1248.9180        12.2500        12.8516      -0.031890       121.0833        17.7279       0.242131         1.4056         2.1517       300.2397         8.9922        35.7878      1196.6760      1217.1760
     1249.0704        12.2500        12.8556      -0.028700       119.8802        17.9098       0.238626         1.3824         2.1507       382.2686         8.8041        35.3869      1196.8195      1217.3195
     1249.2228        12.2500        12.8849      -0.025612       118.3114        19.7168       0.241570         1.3969         2.1503       407.7112         8.7256        35.1986      1196.9629      1217.4629
     1249.3752        12.2500        12.9316      -0.026110       116.0583        21.8201       0.245624         1.4572         2.1539       391.5392         9.1518        35.4254      1197.1063      1217.6063
     1249.5276        12.2500        12.9707      -0.029702       113.6417        23.8624       0.246993         1.5320         2.1682       392.9747         9.5116        35.3470      1197.2498      1217.7498
     1249.6800        12.2500        13.0117      -0.033897       112.7766        25.9710       0.247000         1.5703         2.1971       439.5515         9.1204        34.8278      1197.3931      1217.8931
     1249.8324        12.2500        13.0410      -0.037091       113.7961        27.2910       0.246999         1.5586         2.2282       450.3079         8.4353        34.1723      1197.5365      1218.0365
     1249.9848        12.2500        13.0742      -0.037597       115.7053        26.9868       0.246682         1.5275         2.2430       349.9975         8.2744        33.5020      1197.6801      1218.1801
     1250.1372        12.2500        13.1014      -0.037094       117.9173        25.8421       0.244744         1.5116         2.2350       229.6785         8.9712        33.2228      1197.8234      1218.3234
     1250.2896        12.2500        13.0842      -0.034890       119.8835        25.2136       0.239823         1.5290         2.2163       185.8402         9.9289        32.9607      1197.9668      1218.4668
     1250.4420        12.2500        13.1238      -0.029702       121.9847        25.8774       0.235333         1.5734         2.1977       187.1641         9.9986        31.9234      1198.1102      1218.6102
     1250.5944        12.2500        13.4107      -0.025114       126.1067        28.7663       0.239783         1.6310         2.1751       179.3638         9.1080        30.3761      1198.2535      1218.7535
