~Version Information Block
VERS .                 2.00:  CWLS LOG ASCII STANDARD - VERSION 2.00
WRAP .                   NO:  One line per depth step
~Well Information Block
#MNEM.UNIT        Data Type   Information
#---------- ----------------  -----------
STRT .M              0.0000:  START DEPTH
STOP .M           2954.7312:  STOP DEPTH
STEP .M              0.1524:  STEP
NULL .              -999.25:  NULL VALUE
COMP .                     :  COMPANY
WELL .               GABO16:  WELL
FLD  .                     :  FIELD
LOC  .   6.656374, 5.257763:  LOCATION
CTRY .                     :  COUNTRY
STAT .                     :  STATE
CNTY .                     :  COUNTY
API  .                     :  API NUMBER
UWI  .                     :  UNIQUE WELL ID
SRVC .                     :  SERVICE COMPANY
DATE .                     :  LOG DATE
~Curve Information Block
#MNEM.UNIT         API CODE   Curve Description
#---------- ----------------  -----------------
DEPTH.M                    :  Reference Depth
BS_COMP.INCHES             :  Bit Size
CALI_COMP.INCHES           :  Caliper
DRHO_COMP.G/C3             :  Density Neutron Seperation
DT_COMP.US/F              0:  Compressional Sonic
GR_COMP.GAPI              0:  Gamma Ray
NPHI_COMP.V/V              :  Neutron Porosity
PEF_COMP.B/E              0:  Photo Electric Factor
RHOB_COMP.G/C3            0:  Bulk Density
RT_COMP.OHMM              0:  True or Deep Resistivity
RXO_COMP.OHMM             0:  Invaded Zone Resistivity
SP_COMP.MV                0:  Spontanuous Potential
TVDSS_COMP.M               :  Reference TVD sub-sea log.
TVD_COMP.M                 :  Reference TVD log.
~Parameter Information Block
#MNEM.UNIT            Value   Description
#---------- ----------------  -----------
SET  .                  LCS:  
~Other Information Block
COMMENT:
COMMENT:
$$MUX      Data from LAS tape
$$MUX      fevsbd 09/10/97 ng95603  ASCII:      GABO-16
$$MUX
$$MUX

#        DEPTH        BS_COMP      CALI_COMP      DRHO_COMP        DT_COMP        GR_COMP      NPHI_COMP       PEF_COMP      RHOB_COMP        RT_COMP       RXO_COMP        SP_COMP     TVDSS_COMP       TVD_COMP 
~A
# ...
     2332.4820        12.2500        14.3018      -0.009294       104.4077        95.4353       0.357132         2.9567         2.3804         3.4016         3.0216        84.1053      2151.7400      2172.2400
     2332.6344        12.2500        14.1528      -0.008669       105.2840        94.1117       0.401007         2.8750         2.3628         3.2249         2.9458        84.3067      2151.8682      2172.3682
     2332.7868        12.2500        14.0824      -0.003190       106.1607        92.6566       0.428760         2.8426         2.3548         3.0202         2.9101        84.3432      2151.9966      2172.4966
     2332.9392        12.2500        14.0817       0.003866       107.0367        90.8087       0.436051         2.7925         2.3539         2.8397         2.8756        84.3401      2152.1250      2172.6250
     2333.0916        12.2500        14.0377       0.005571       107.9127        90.2132       0.432733         2.7723         2.3627         2.7221         2.8757        84.3442      2152.2532      2172.7532
     2333.2440        12.2500        14.0838       0.002704       108.7866        91.5673       0.428113         2.8012         2.3765         2.6617         2.8614        84.2643      2152.3816      2172.8816
     2333.3964        12.2500        14.1046       0.000404       109.3270        92.9893       0.423392         2.8334         2.3846         2.6362         2.8326        84.3615      2152.5100      2173.0100
     2333.5488        12.2500        13.9808      -0.001196       109.3246        92.7104       0.425185         2.8394         2.3854         2.6297         2.8256        84.9052      2152.6382      2173.1382
     2333.7012        12.2500        13.9066      -0.002095       109.6044        91.7224       0.439594         2.8389         2.3824         2.6284         2.8307        85.3266      2152.7666      2173.2666
     2333.8536        12.2500        13.8885      -0.002192       109.4267        91.6748       0.466079         2.8507         2.3777         2.6251         2.8781        85.4602      2152.8948      2173.3948
     2334.0060        12.2500        13.8417      -0.001003       109.3031        92.2706       0.493953         2.8696         2.3747         2.6185         3.0195        85.6521      2153.0232      2173.5232
     2334.1584        12.2500        13.7812      -0.000214       109.9014        92.7508       0.505388         2.8827         2.3734         2.6133         3.1479        85.5314      2153.1516      2173.6516
     2334.3108        12.2500        13.7208      -0.001713       110.1897        93.9027       0.495059         2.8724         2.3701         2.6187         3.1401        85.0865      2153.2798      2173.7798
     2334.4632        12.2500        13.6759      -0.005212       109.9203        95.9523       0.474010         2.8450         2.3632         2.6343         3.0622        84.9433      2153.4082      2173.9082
     2334.6156        12.2500        13.6428      -0.010597       110.4332        97.4492       0.456571         2.8195         2.3542         2.6510         3.0351        84.8796      2153.5366      2174.0366
     2334.7680        12.2500        13.6388      -0.015482       110.7292        97.1985       0.441316         2.8290         2.3452         2.6674         3.0710        84.2806      2153.6648      2174.1648
     2334.9204        12.2500        13.6451      -0.017550       110.2856        95.6443       0.423341         2.8677         2.3368         2.6856         3.0907        83.7807      2153.7932      2174.2932
     2335.0728        12.2500        13.7409      -0.011717       110.2247        94.4786       0.409448         2.8938         2.3301         2.7092         3.0584        84.1224      2153.9214      2174.4214
     2335.2252        12.2500        13.9533      -0.008501       110.4041        94.1699       0.408815         2.8879         2.3295         2.7423         3.0696        84.6687      2154.0498      2174.5498
     2335.3776        12.2500        13.8800      -0.005499       110.4186        93.2390       0.413433         2.8380         2.3398         2.7934         3.1567        84.8539      2154.1782      2174.6782
     2335.5300        12.2500        13.6580      -0.002309       110.1037        91.1871       0.410325         2.7630         2.3489         2.8779         3.2136        84.8911      2154.3064      2174.8064
     2335.6824        12.2500        13.7272      -0.000610       109.2494        89.7786       0.412899         2.7028         2.3604         3.0017         3.2417        84.8269      2154.4348      2174.9348
     2335.8348        12.2500        13.8853      -0.000503       107.7411        90.0709       0.419520         2.6653         2.3793         3.1604         3.3621        84.6124      2154.5632      2175.0632
     2335.9872        12.2500        13.8296      -0.000886       105.4463        91.1901       0.426557         2.5855         2.4016         3.3819         3.5948        84.2713      2154.6914      2175.1914
     2336.1396        12.2500        13.6991       0.000908       102.4601        90.1624       0.428041         2.4377         2.4198         3.7357         3.9331        83.5805      2154.8198      2175.3198
     2336.2920        12.2500        13.5542       0.003972        99.3470        85.1274       0.411621         2.3102         2.4295         4.2801         4.8598        82.4505      2154.9482      2175.4482
     2336.4444        12.2500        13.3363       0.002671        96.2437        77.3636       0.362284         2.2205         2.4279         5.0077         6.8290        81.4296      2155.0764      2175.5764
     2336.5968        12.2500        13.1802      -0.003303        93.7896        70.2568       0.293496         2.0876         2.3996         5.9022         9.1561        81.1926      2155.2048      2175.7048
     2336.7492        12.2500        13.1056      -0.009773        93.4661        65.9828       0.243480         1.9192         2.3370         6.9726        11.1775        81.5915      2155.3333      2175.8333
     2336.9016        12.2500        13.0411      -0.011981        96.0870        62.7070       0.228912         1.7755         2.2606         8.2403        12.7805        82.1353      2155.4614      2175.9614
     2337.0540        12.2500        12.9916      -0.011212       100.3079        59.0157       0.237735         1.6812         2.1994         9.7393        12.8603        82.9211      2155.5898      2176.0898
     2337.2064        12.2500        12.8532      -0.012299       103.2428        55.7515       0.252411         1.6141         2.1657        11.3767        10.9730        83.8621      2155.7183      2176.2183
     2337.3588        12.2500        12.6609      -0.013283       104.6770        53.4941       0.264832         1.5609         2.1479        12.7959         8.9497        84.5071      2155.8467      2176.3467
     2337.5112        12.2500        12.5767      -0.011596       105.6954        51.7476       0.272265         1.5406         2.1365        13.6270         7.9528        85.0346      2155.9749      2176.4749
     2337.6636        12.2500        12.5704      -0.009314       106.3246        49.6958       0.276579         1.5481         2.1310        13.8875         7.4298        85.5340      2156.1033      2176.6033
     2337.8160        12.2500        12.5859      -0.009206       106.6138        48.6349       0.281571         1.5634         2.1319        13.9587         7.0892        85.5284      2156.2317      2176.7317
     2337.9684        12.2500        12.6013      -0.010093       106.4053        50.4760       0.285296         1.5932         2.1346        14.1555         7.0070        85.3188      2156.3599      2176.8599
     2338.1208        12.2500        12.5623      -0.009887       105.6940        55.3269       0.283150         1.6514         2.1373        14.4849         7.1051        85.6909      2156.4883      2176.9883
     2338.2732        12.2500        12.4864      -0.007602       104.7279        60.8509       0.272897         1.7161         2.1422        14.8103         7.2519        86.4843      2156.6167      2177.1167
