~Version Information Block
VERS .                 2.00:  CWLS LOG ASCII STANDARD - VERSION 2.00
WRAP .                   NO:  One line per depth step
~Well Information Block
#MNEM.UNIT        Data Type   Information
#---------- ----------------  -----------
STRT .M              0.0000:  START DEPTH
STOP .M           2954.7312:  STOP DEPTH
STEP .M              0.1524:  STEP
NULL .              -999.25:  NULL VALUE
COMP .                     :  COMPANY
WELL .               GABO16:  WELL
FLD  .                     :  FIELD
LOC  .   6.656374, 5.257763:  LOCATION
CTRY .                     :  COUNTRY
STAT .                     :  STATE
CNTY .                     :  COUNTY
API  .                     :  API NUMBER
UWI  .                     :  UNIQUE WELL ID
SRVC .                     :  SERVICE COMPANY
DATE .                     :  LOG DATE
~Curve Information Block
#MNEM.UNIT         API CODE   Curve Description
#---------- ----------------  -----------------
DEPTH.M                    :  Reference Depth
BS_COMP.INCHES             :  Bit Size
CALI_COMP.INCHES           :  Caliper
DRHO_COMP.G/C3             :  Density Neutron Seperation
DT_COMP.US/F              0:  Compressional Sonic
GR_COMP.GAPI              0:  Gamma Ray
NPHI_COMP.V/V              :  Neutron Porosity
PEF_COMP.B/E              0:  Photo Electric Factor
RHOB_COMP.G/C3            0:  Bulk Density
RT_COMP.OHMM              0:  True or Deep Resistivity
RXO_COMP.OHMM             0:  Invaded Zone Resistivity
SP_COMP.MV                0:  Spontanuous Potential
TVDSS_COMP.M               :  Reference TVD sub-sea log.
TVD_COMP.M                 :  Reference TVD log.
~Parameter Information Block
#MNEM.UNIT            Value   Description
#---------- ----------------  -----------
SET  .                  LCS:  
~Other Information Block
COMMENT:
COMMENT:
$$MUX      Data from LAS tape
$$MUX      fevsbd 09/10/97 ng95603  ASCII:      GABO-16
$$MUX
$$MUX

#        DEPTH        BS_COMP      CALI_COMP      DRHO_COMP        DT_COMP        GR_COMP      NPHI_COMP       PEF_COMP      RHOB_COMP        RT_COMP       RXO_COMP        SP_COMP     TVDSS_COMP       TVD_COMP 
~A
# ...
     1851.0504        12.2500        12.3750      -0.011223       114.8303        33.0665       0.296530         1.8977         2.1584        28.7303         7.3493        74.5461      1740.2458      1760.7458
     1851.2028        12.2500        12.3750      -0.015407       113.8948        33.4927       0.285243         1.8952         2.1744        28.4852         7.9689        74.5265      1740.3779      1760.8779
     1851.3552        12.2500        12.3750      -0.020995       113.2532        34.6247       0.278592         1.8699         2.1830        28.9734         8.1157        74.1036      1740.5099      1761.0099
     1851.5076        12.2500        12.3750      -0.025590       113.7830        35.4850       0.286715         1.7653         2.1747        29.9183         7.9761        73.7478      1740.6420      1761.1420
     1851.6600        12.2500        12.3750      -0.028181       115.8031        35.2388       0.298881         1.6212         2.1515        30.3982         7.6483        73.9719      1740.7740      1761.2740
     1851.8124        12.2500        12.3750      -0.026892       118.5907        34.8365       0.302689         1.5247         2.1225        30.1426         7.0559        74.4290      1740.9061      1761.4061
     1851.9648        12.2500        12.3750      -0.023906       121.3059        35.3437       0.302641         1.5006         2.0999        29.2464         6.6137        74.7145      1741.0381      1761.5381
     1852.1172        12.2500        12.3750      -0.022110       123.2300        36.8470       0.306834         1.5165         2.0897        27.8020         6.5311        74.7705      1741.1702      1761.6702
     1852.2696        12.2500        12.3750      -0.022300       123.8147        38.2488       0.315187         1.5526         2.0857        26.2426         6.5592        74.7459      1741.3022      1761.8022
     1852.4220        12.2500        12.3750      -0.022593       123.3528        38.6339       0.318093         1.5985         2.0811        24.9812         6.5318        74.5520      1741.4343      1761.9343
     1852.5744        12.2500        12.3849      -0.021505       122.1544        38.4528       0.308966         1.6616         2.0767        24.2940         6.4746        74.2023      1741.5663      1762.0663
     1852.7268        12.2500        12.4199      -0.021403       120.9089        39.1415       0.295190         1.7570         2.0792        24.2533         6.4757        73.9919      1741.6984      1762.1984
     1852.8792        12.2500        12.4608      -0.022000       120.2608        40.9939       0.291842         1.8503         2.0914        24.5344         6.4059        74.0008      1741.8304      1762.3304
     1853.0316        12.2500        12.4765      -0.022503       119.6997        42.3669       0.301759         1.8621         2.1065        24.8679         6.2680        74.1578      1741.9624      1762.4624
     1853.1840        12.2500        12.4766      -0.023604       119.3122        42.1012       0.308723         1.7780         2.1149        24.9179         6.4605        74.5454      1742.0945      1762.5945
     1853.3364        12.2500        12.4766      -0.025595       119.2140        40.5216       0.301586         1.6696         2.1176        24.1558         6.9364        75.1945      1742.2264      1762.7264
     1853.4888        12.2500        12.4767      -0.026576       118.8643        38.1343       0.287589         1.5942         2.1203        22.5486         7.2895        75.7032      1742.3586      1762.8586
     1853.6412        12.2500        12.5022      -0.022774       118.6806        35.7879       0.274221         1.5778         2.1249        20.4691         7.5020        76.0433      1742.4906      1762.9906
     1853.7936        12.2500        12.5742      -0.013788       119.0737        35.2080       0.263173         1.6628         2.1303        18.0055         7.5730        76.0023      1742.6227      1763.1227
     1853.9460        12.2500        12.6425      -0.002370       119.2560        37.6526       0.256374         1.8681         2.1336        15.0612         7.0943        75.3017      1742.7548      1763.2548
     1854.0984        12.2500        12.6818       0.015051       118.6454        43.4160       0.255326         2.1380         2.1369        12.0343         6.2540        74.8366      1742.8868      1763.3868
     1854.2508        12.2500        12.7601       0.042651       117.3852        52.6344       0.258559         2.4009         2.1496         9.6243         5.9202        75.2447      1743.0188      1763.5188
     1854.4032        12.2500        12.8983       0.060337       116.1187        65.0278       0.274131         2.6393         2.1870         7.9755         5.6976        76.2316      1743.1509      1763.6509
     1854.5556        12.2500        13.0112       0.045414       115.9625        78.2569       0.314588         2.8318         2.2485         6.7760         4.8733        76.9621      1743.2830      1763.7830
     1854.7080        12.2500        13.0310       0.013219       116.8763        87.8979       0.370716         2.8954         2.3021         5.8014         4.1180        77.3243      1743.4150      1763.9150
     1854.8604        12.2500        13.0119      -0.015164       117.8383        91.8352       0.410970         2.8415         2.3201         4.9851         3.7766        78.0585      1743.5470      1764.0470
     1855.0128        12.2500        13.0370      -0.016489       118.8700        93.0439       0.425913         2.7728         2.3043         4.3336         3.5796        79.1121      1743.6791      1764.1791
     1855.1652        12.2500        13.0445      -0.015387       120.2446        94.4279       0.436306         2.7138         2.2743         3.8766         3.5156        79.9880      1743.8112      1764.3112
     1855.3176        12.2500        12.9821      -0.011602       121.6007        93.9660       0.456293         2.6659         2.2605         3.5953         3.3475        80.4716      1743.9432      1764.4432
     1855.4700        12.2500        12.8518      -0.008321       123.0897        91.2284       0.473768         2.6334         2.2514         3.4197         3.0891        80.7015      1744.0752      1764.5752
     1855.6224        12.2500        12.7541      -0.009201       124.9622        87.2507       0.482626         2.6526         2.2486         3.2897         2.9891        80.8094      1744.2073      1764.7073
     1855.7748        12.2500        12.7032      -0.010380       126.4451        84.3267       0.483689         2.7027         2.2490         3.1685         2.8991        80.8181      1744.3394      1764.8394
     1855.9272        12.2500        12.6720      -0.007595       126.9160        84.6744       0.483626         2.7116         2.2435         3.0460         2.8555        80.7684      1744.4714      1764.9714
     1856.0796        12.2500        12.6681      -0.003715       127.3554        86.9709       0.484674         2.6632         2.2313         2.9423         2.8900        80.6418      1744.6034      1765.1034
     1856.2320        12.2500        12.6774      -0.002811       128.7731        88.8047       0.481478         2.5999         2.2163         2.8831         2.8524        80.4504      1744.7355      1765.2355
     1856.3844        12.2500        12.6324      -0.004201       130.7928        89.3983       0.473490         2.5516         2.2025         2.8950         2.8514        80.4620      1744.8676      1765.3676
     1856.5368        12.2500        12.5041      -0.005912       132.1110        88.8859       0.468012         2.4887         2.1944         2.9975         2.9339        80.8362      1744.9996      1765.4996
     1856.6892        12.2500        12.4149      -0.010012       131.3344        87.1270       0.470519         2.3641         2.1959         3.2019         2.9402        81.1447      1745.1316      1765.6316
     1856.8416        12.2500        12.4870      -0.016596       128.3574        83.3471       0.477853         2.2099         2.2074         3.5384         2.9118        81.2012      1745.2637      1765.7637
