~Version Information Block
VERS .                 2.00:  CWLS LOG ASCII STANDARD - VERSION 2.00
WRAP .                   NO:  One line per depth step
~Well Information Block
#MNEM.UNIT        Data Type   Information
#---------- ----------------  -----------
STRT .M           1550.0604:  START DEPTH
STOP .M           3909.9744:  STOP DEPTH
STEP .M              0.1524:  STEP
NULL .              -999.25:  NULL VALUE
COMP .                     :  COMPANY
WELL .               GABO52:  WELL
FLD  .                     :  FIELD
LOC  .   6.643655, 5.227736:  LOCATION
CTRY .                     :  COUNTRY
STAT .                     :  STATE
CNTY .                     :  COUNTY
API  .                     :  API NUMBER
UWI  .                     :  UNIQUE WELL ID
SRVC .                     :  SERVICE COMPANY
DATE .                     :  LOG DATE
~Curve Information Block
#MNEM.UNIT         API CODE   Curve Description
#---------- ----------------  -----------------
DEPTH.M                    :  Depth
DRHO .G/C3                 :  Density Correction Log
DTS_COMP.US/F              :  Shear Sonic 
DT_COMP.US/F               :  Compressional Sonic
GR_COMP.GAPI               :  Gamma Ray
HCAL .INCHES               :  Caliper
NPHI_COMP.V/V              :  Neutron Porosity
PEF_COMP.B/E               :  Photo Electric Factor
RDEEP_COMP.OHMM            :  Deep Resistivity
RHOB_COMP.G/C3             :  Bulk Density
RSHAL_COMP.OHMM            :  Shallow Resistivity
TVD  .M                    :  Reference TVD
TVDSS.M                    :  Reference TVDss
~Parameter Information Block
#MNEM.UNIT            Value   Description
#---------- ----------------  -----------
SET  .                  LCS:  
~Other Information Block
#        DEPTH           DRHO       DTS_COMP        DT_COMP        GR_COMP           HCAL      NPHI_COMP       PEF_COMP     RDEEP_COMP      RHOB_COMP     RSHAL_COMP            TVD          TVDSS 
~A
# ...
     3884.0664       0.068219      -999.2500      -999.2500      -999.2500         8.5237       0.141862         2.1539         3.0911         2.3261         4.1795      3353.1541      3333.0339
     3884.2188       0.074358      -999.2500      -999.2500      -999.2500         8.5462       0.144130         2.2764         3.1130         2.3050         4.3293      3353.2690      3333.1489
     3884.3712       0.076015      -999.2500      -999.2500      -999.2500         8.3666       0.158320         2.2938         3.1546         2.2892         4.4649      3353.3840      3333.2639
     3884.5236       0.069852      -999.2500      -999.2500      -999.2500         8.2880       0.172753         2.2747         3.2369         2.2783         4.5745      3353.4990      3333.3789
     3884.6760       0.062932      -999.2500      -999.2500      -999.2500         8.3105       0.174096         2.2550         3.2236         2.2839         4.5237      3353.6140      3333.4939
     3884.8284       0.058205      -999.2500      -999.2500      -999.2500         8.3554       0.177433         2.2199         3.0683         2.2807         4.1411      3353.7290      3333.6089
     3884.9808       0.064244      -999.2500      -999.2500      -999.2500         8.3778       0.176766         2.1408         3.0587         2.2764         3.9284      3353.8440      3333.7239
     3885.1332       0.071164      -999.2500      -999.2500      -999.2500      -999.2500       0.177350         2.0427         2.9169         2.2694         3.7389      3353.9590      3333.8389
     3885.2856       0.073856      -999.2500      -999.2500      -999.2500      -999.2500       0.172154         1.9750         2.7873         2.2578         3.3153      3354.0740      3333.9539
     3885.4380       0.074928      -999.2500      -999.2500      -999.2500      -999.2500       0.169403         1.9450         2.6456         2.2486         3.1402      3354.1890      3334.0688
     3885.5904       0.077537      -999.2500      -999.2500      -999.2500      -999.2500       0.177671         1.9709         2.7078         2.2235         3.2087      3354.3040      3334.1838
     3885.7428       0.087519      -999.2500      -999.2500      -999.2500      -999.2500       0.196508         2.0245         2.9972         2.2076         3.4372      3354.4189      3334.2988
     3885.8952       0.110750      -999.2500      -999.2500      -999.2500      -999.2500       0.210258         2.1089         3.1099         2.2196         3.6552      3354.5339      3334.4138
     3886.0476       0.142232      -999.2500      -999.2500      -999.2500      -999.2500       0.212715         2.2446         2.9788         2.2514         3.7610      3354.6489      3334.5288
     3886.2000       0.176040      -999.2500      -999.2500      -999.2500      -999.2500       0.208615         2.3919         3.1212         2.2905         3.8535      3354.7639      3334.6438
     3886.3524       0.208907      -999.2500      -999.2500      -999.2500      -999.2500       0.213818         2.4796         3.1929         2.3246         3.6065      3354.8789      3334.7588
     3886.5048       0.219832      -999.2500      -999.2500      -999.2500      -999.2500       0.225586         2.4408         3.1492         2.3353         3.6716      3354.9939      3334.8738
     3886.6572       0.206358      -999.2500      -999.2500      -999.2500      -999.2500       0.241495         2.3232         2.9614         2.3095         3.3357      3355.1089      3334.9888
     3886.8096       0.180366      -999.2500      -999.2500      -999.2500      -999.2500       0.240602         2.2227         2.9210         2.2521         3.1498      3355.2239      3335.1038
     3886.9620       0.173901      -999.2500      -999.2500      -999.2500      -999.2500       0.229372         2.1668         3.0629         2.2204         3.1677      3355.3389      3335.2188
     3887.1144       0.181573      -999.2500      -999.2500      -999.2500      -999.2500       0.215363         2.1609         2.8867         2.2166         3.2000      3355.4536      3335.3335
     3887.2668       0.184940      -999.2500      -999.2500      -999.2500      -999.2500       0.215522         2.1754         2.9595         2.2225         3.1943      3355.5686      3335.4485
     3887.4192       0.177923      -999.2500      -999.2500      -999.2500      -999.2500       0.219490         2.1950         2.7278         2.2193         3.1408      3355.6836      3335.5635
     3887.5716       0.167957      -999.2500      -999.2500      -999.2500      -999.2500       0.223115         2.2029         2.8597         2.2108         3.1800      3355.7986      3335.6785
     3887.7240       0.163120      -999.2500      -999.2500      -999.2500      -999.2500       0.221441         2.2048         2.9106         2.2065         3.4093      3355.9136      3335.7935
     3887.8764       0.161559      -999.2500      -999.2500      -999.2500      -999.2500       0.226225         2.2137         3.0602         2.2068         3.7410      3356.0286      3335.9084
     3888.0288       0.167640      -999.2500      -999.2500      -999.2500      -999.2500       0.229373         2.2277         3.0678         2.2283         4.1276      3356.1436      3336.0234
     3888.1812       0.175140      -999.2500      -999.2500      -999.2500      -999.2500       0.232194         2.2414         3.0375         2.2548         4.1633      3356.2585      3336.1384
     3888.3336       0.179239      -999.2500      -999.2500      -999.2500      -999.2500       0.233492         2.2432         2.8992         2.2748         3.9918      3356.3735      3336.2534
     3888.4860       0.173032      -999.2500      -999.2500      -999.2500      -999.2500       0.245573         2.2296         2.7987         2.2688         3.8592      3356.4888      3336.3687
     3888.6384       0.170006      -999.2500      -999.2500      -999.2500      -999.2500       0.259039         2.2243         2.7873         2.2602         3.8506      3356.6038      3336.4836
     3888.7908       0.168188      -999.2500      -999.2500      -999.2500      -999.2500       0.268972         2.2166         2.8015         2.2535         3.8614      3356.7188      3336.5986
     3888.9432       0.171234      -999.2500      -999.2500      -999.2500      -999.2500       0.262657         2.1977         2.7906         2.2569         3.8528      3356.8335      3336.7134
     3889.0956       0.163705      -999.2500      -999.2500      -999.2500      -999.2500       0.248419         2.1294         2.7680         2.2611         3.8703      3356.9485      3336.8284
     3889.2480       0.156322      -999.2500      -999.2500      -999.2500      -999.2500       0.234043         2.0352         2.7423         2.2689         3.8703      3357.0635      3336.9434
     3889.4004       0.151582      -999.2500      -999.2500      -999.2500      -999.2500       0.228842         1.9655         2.7574         2.2737         3.9252      3357.1785      3337.0583
     3889.5528       0.149324      -999.2500      -999.2500      -999.2500      -999.2500       0.220451         1.9430         2.8029         2.2729         4.0714      3357.2935      3337.1733
     3889.7052       0.143611      -999.2500      -999.2500      -999.2500      -999.2500       0.211040         1.9698         2.8515         2.2628         4.2286      3357.4084      3337.2883
     3889.8576       0.139906      -999.2500      -999.2500      -999.2500      -999.2500    -999.250000         2.0153         2.8979         2.2552         4.4066      3357.5234      3337.4033
     3890.0100       0.143237      -999.2500      -999.2500      -999.2500      -999.2500    -999.250000         2.0837         2.9492         2.2491         4.6240      3357.6384      3337.5183
     3890.1624       0.153523      -999.2500      -999.2500      -999.2500      -999.2500    -999.250000         2.1573         2.9841         2.2519         4.7774      3357.7534      3337.6333
     3890.3148       0.166106      -999.2500      -999.2500      -999.2500      -999.2500    -999.250000         2.2145         3.0365         2.2640         4.9424      3357.8684      3337.7483
