~Version Information Block
VERS .                 2.00:  CWLS LOG ASCII STANDARD - VERSION 2.00
WRAP .                   NO:  One line per depth step
~Well Information Block
#MNEM.UNIT        Data Type   Information
#---------- ----------------  -----------
STRT .M              0.0000:  START DEPTH
STOP .M           2731.4652:  STOP DEPTH
STEP .M              0.1524:  STEP
NULL .              -999.25:  NULL VALUE
COMP .                     :  COMPANY
WELL .              GABO-19:  WELL
FLD  .                     :  FIELD
LOC  .   6.687920, 5.237424:  LOCATION
CTRY .                     :  COUNTRY
STAT .                     :  STATE
CNTY .                     :  COUNTY
API  .                     :  API NUMBER
UWI  .                     :  UNIQUE WELL ID
SRVC .                     :  SERVICE COMPANY
DATE .                     :  LOG DATE
~Curve Information Block
#MNEM.UNIT         API CODE   Curve Description
#---------- ----------------  -----------------
DEPTH.M                    :  Reference TVD log.
BS_COMP.INCHES             :  BIT SIZE
DRHO_COMP.G/C3            0:  Density Correction
GR_COMP.GAPI              0:  Gamma Ray
LLS_COMP.OHMM             0:  Deep Laterolog resistivity
NPHI_COMP.V/V              :  Neutron Porosity
PEF_COMP.B/E              0:  Photo Electric Facotr
RHOB_COMP.G/C3            0:  Bulk Density
RT_COMP.OHMM              0:  True Resistivity
RXO_COMP.OHMM             0:  Invaded Zone Resistivity
SP_COMP.MV                0:  Spontaneous Potential
TVDSS_COMP.M               :  Reference TVD sub-sea log.
TVD_COMP.M                 :  Reference TVD log.
~Parameter Information Block
#MNEM.UNIT            Value   Description
#---------- ----------------  -----------
SET  .                  LCS:  
~Other Information Block
#        DEPTH        BS_COMP      DRHO_COMP        GR_COMP       LLS_COMP      NPHI_COMP       PEF_COMP      RHOB_COMP        RT_COMP       RXO_COMP        SP_COMP     TVDSS_COMP       TVD_COMP 
~A
# ...
     2714.8536         9.8750    -999.250000       103.3680         1.4043    -999.250000      -999.2500      -999.2500         1.7839         1.5475        93.0997      2463.8501      2481.8501
     2715.0060         9.8750    -999.250000       103.2030         1.4075    -999.250000      -999.2500      -999.2500         1.7619         1.5469        93.3997      2463.9909      2481.9909
     2715.1584         9.8750    -999.250000       101.0365         1.3935    -999.250000      -999.2500      -999.2500         1.7129         1.5515        93.4827      2464.1317      2482.1317
     2715.3108         9.8750    -999.250000        98.4320         1.3770    -999.250000      -999.2500      -999.2500         1.6704         1.6061        93.4552      2464.2725      2482.2725
     2715.4632         9.8750    -999.250000        96.4433         1.3645    -999.250000      -999.2500      -999.2500         1.6554         1.7380        93.4378      2464.4133      2482.4133
     2715.6156         9.8750    -999.250000        95.3922         1.3524    -999.250000      -999.2500      -999.2500         1.6533         1.8409        93.4916      2464.5541      2482.5541
     2715.7680         9.8750    -999.250000        95.1121         1.3337    -999.250000      -999.2500      -999.2500         1.6424         1.7773        93.5893      2464.6949      2482.6949
     2715.9204         9.8750    -999.250000        95.0148         1.3098    -999.250000      -999.2500      -999.2500         1.6166         1.6171        93.6540      2464.8357      2482.8357
     2716.0728         9.8750    -999.250000        94.4779         1.2899    -999.250000      -999.2500      -999.2500         1.5868         1.5040        93.6584      2464.9765      2482.9765
     2716.2252         9.8750    -999.250000        93.3413         1.2795    -999.250000      -999.2500      -999.2500         1.5702         1.4809        68.9461      2465.1173      2483.1173
     2716.3776         9.8750    -999.250000        92.0396         1.2803    -999.250000      -999.2500      -999.2500         1.5703         1.5015         0.0000      2465.2581      2483.2581
     2716.5300         9.8750    -999.250000        91.5403         1.2862    -999.250000      -999.2500      -999.2500         1.5747         1.5165         0.0000      2465.3989      2483.3989
     2716.6824         9.8750    -999.250000        92.4700         1.2890    -999.250000      -999.2500      -999.2500         1.5665         1.5275         0.0000      2465.5397      2483.5397
     2716.8348         9.8750    -999.250000        94.3976         1.2839    -999.250000      -999.2500      -999.2500         1.5432         1.5493         0.0000      2465.6805      2483.6805
     2716.9872         9.8750    -999.250000        95.8580         1.2730    -999.250000      -999.2500      -999.2500         1.5161         1.5634         0.0000      2465.8213      2483.8213
     2717.1396         9.8750    -999.250000        95.9432         1.2612    -999.250000      -999.2500      -999.2500         1.5072         1.5556         0.0000      2465.9621      2483.9621
     2717.2920         9.8750    -999.250000        95.1853         1.2533    -999.250000      -999.2500      -999.2500         1.5201         1.5576         0.0000      2466.1029      2484.1029
     2717.4444         9.8750    -999.250000        94.4079         1.2476    -999.250000      -999.2500      -999.2500         1.5420         1.5944         0.0000      2466.2437      2484.2437
     2717.5968         9.8750    -999.250000        93.8657         1.2421    -999.250000      -999.2500      -999.2500         1.5509         1.6325         0.0000      2466.3845      2484.3845
     2717.7492         9.8750    -999.250000        93.7604         1.2310    -999.250000      -999.2500      -999.2500         1.5340         1.6055         0.0000      2466.5253      2484.5253
     2717.9016         9.8750    -999.250000        94.3508         1.2158    -999.250000      -999.2500      -999.2500         1.5066         1.5298         0.0000      2466.6661      2484.6661
     2718.0540         9.8750    -999.250000        95.7825         1.2011    -999.250000      -999.2500      -999.2500         1.4808         1.4618         0.0000      2466.8069      2484.8069
     2718.2064         9.8750    -999.250000        97.1162         1.1874    -999.250000      -999.2500      -999.2500         1.4614         1.4295         0.0000      2466.9477      2484.9477
     2718.3588         9.8750    -999.250000        97.5798         1.1752    -999.250000      -999.2500      -999.2500         1.4510         1.4218         0.0000      2467.0885      2485.0885
     2718.5112         9.8750    -999.250000        97.6012         1.1617    -999.250000      -999.2500      -999.2500         1.4459         1.4212         0.0000      2467.2293      2485.2293
     2718.6636         9.8750    -999.250000        97.6572         1.1443    -999.250000      -999.2500      -999.2500         1.4444         1.4256         0.0000      2467.3701      2485.3701
     2718.8160         9.8750    -999.250000        97.4610         1.1280    -999.250000      -999.2500      -999.2500         1.4460         1.4297         0.0000      2467.5109      2485.5109
     2718.9684         9.8750    -999.250000        96.6315         1.1244    -999.250000      -999.2500      -999.2500         1.4607         1.4232         0.0000      2467.6517      2485.6517
     2719.1208         9.8750    -999.250000        95.6818         1.1469    -999.250000      -999.2500      -999.2500         1.5011         1.4074         0.0000      2467.7925      2485.7925
     2719.2732         9.8750    -999.250000        95.1825         1.2156    -999.250000      -999.2500      -999.2500         1.5942         1.3973         0.0000      2467.9333      2485.9333
     2719.4256         9.8750    -999.250000        95.4561         1.3598    -999.250000      -999.2500      -999.2500         1.7758         1.4494         0.0000      2468.0741      2486.0741
     2719.5780         9.8750    -999.250000        95.9132         1.6057    -999.250000      -999.2500      -999.2500         2.0868         1.6482         0.0000      2468.2149      2486.2149
     2719.7304         9.8750    -999.250000        95.5502         1.9624    -999.250000      -999.2500      -999.2500         2.5470         2.1146         0.0000      2468.3557      2486.3557
     2719.8828         9.8750    -999.250000        94.2535         2.3787    -999.250000      -999.2500      -999.2500         3.0762         2.9010         0.0000      2468.4965      2486.4965
     2720.0352         9.8750    -999.250000        92.8902         2.6745    -999.250000      -999.2500      -999.2500         3.4251         3.6328         0.0000      2468.6373      2486.6373
     2720.1876         9.8750    -999.250000        92.0905         2.7024    -999.250000      -999.2500      -999.2500         3.4144         3.6126         0.0000      2468.7781      2486.7781
     2720.3400         9.8750    -999.250000        91.8298         2.4980    -999.250000      -999.2500      -999.2500         3.1157         3.0121         0.0000      2468.9189      2486.9189
     2720.4924         9.8750    -999.250000        91.7272         2.2509    -999.250000      -999.2500      -999.2500         2.7919         2.5030         0.0000      2469.0597      2487.0597
     2720.6448         9.8750    -999.250000        92.2143         2.0677    -999.250000      -999.2500      -999.2500         2.5861         2.2781         0.0000      2469.2005      2487.2005
     2720.7972         9.8750    -999.250000        93.6785         1.9543    -999.250000      -999.2500      -999.2500         2.4909         2.2537         0.0000      2469.3413      2487.3413
     2720.9496         9.8750    -999.250000        95.6931         1.8934    -999.250000      -999.2500      -999.2500         2.4650         2.3281         0.0000      2469.4821      2487.4821
     2721.1020         9.8750    -999.250000        97.0627         1.8345    -999.250000      -999.2500      -999.2500         2.4347         2.3100         0.0000      2469.6229      2487.6229
