~Version Information Block
VERS .                 2.00:  CWLS LOG ASCII STANDARD - VERSION 2.00
WRAP .                   NO:  One line per depth step
~Well Information Block
#MNEM.UNIT        Data Type   Information
#---------- ----------------  -----------
STRT .M              0.0000:  START DEPTH
STOP .M           2954.7312:  STOP DEPTH
STEP .M              0.1524:  STEP
NULL .              -999.25:  NULL VALUE
COMP .                     :  COMPANY
WELL .               GABO16:  WELL
FLD  .                     :  FIELD
LOC  .   6.656374, 5.257763:  LOCATION
CTRY .                     :  COUNTRY
STAT .                     :  STATE
CNTY .                     :  COUNTY
API  .                     :  API NUMBER
UWI  .                     :  UNIQUE WELL ID
SRVC .                     :  SERVICE COMPANY
DATE .                     :  LOG DATE
~Curve Information Block
#MNEM.UNIT         API CODE   Curve Description
#---------- ----------------  -----------------
DEPTH.M                    :  Reference Depth
BS_COMP.INCHES             :  Bit Size
CALI_COMP.INCHES           :  Caliper
DRHO_COMP.G/C3             :  Density Neutron Seperation
DT_COMP.US/F              0:  Compressional Sonic
GR_COMP.GAPI              0:  Gamma Ray
NPHI_COMP.V/V              :  Neutron Porosity
PEF_COMP.B/E              0:  Photo Electric Factor
RHOB_COMP.G/C3            0:  Bulk Density
RT_COMP.OHMM              0:  True or Deep Resistivity
RXO_COMP.OHMM             0:  Invaded Zone Resistivity
SP_COMP.MV                0:  Spontanuous Potential
TVDSS_COMP.M               :  Reference TVD sub-sea log.
TVD_COMP.M                 :  Reference TVD log.
~Parameter Information Block
#MNEM.UNIT            Value   Description
#---------- ----------------  -----------
SET  .                  LCS:  
~Other Information Block
COMMENT:
COMMENT:
$$MUX      Data from LAS tape
$$MUX      fevsbd 09/10/97 ng95603  ASCII:      GABO-16
$$MUX
$$MUX

#        DEPTH        BS_COMP      CALI_COMP      DRHO_COMP        DT_COMP        GR_COMP      NPHI_COMP       PEF_COMP      RHOB_COMP        RT_COMP       RXO_COMP        SP_COMP     TVDSS_COMP       TVD_COMP 
~A
# ...
     2819.8572        12.2500        13.8764       0.000929        95.6827       102.8630       0.341776         3.7790         2.4624         2.0214         2.7457        75.4556      2570.3142      2590.8142
     2820.0096        12.2500        13.7277      -0.000688        94.7887        98.6859       0.351293         4.3325         2.4838         1.9733         2.6609        75.9239      2570.4460      2590.9460
     2820.1620        12.2500        13.7253      -0.000656        94.2198        94.5596       0.359023         4.7547         2.5147         1.9096         2.9561        76.1201      2570.5781      2591.0781
     2820.3144        12.2500        13.5494       0.005144        94.6374        92.4362       0.370077         4.7528         2.5360         1.8331         3.3105        76.1906      2570.7102      2591.2102
     2820.4668        12.2500        13.4482       0.016669        95.8803        92.2014       0.380435         4.5914         2.5378         1.7552         3.1512        76.3199      2570.8420      2591.3420
     2820.6192        12.2500        13.4694       0.024103        97.4182        91.5460       0.413071         4.0858         2.5350         1.6909         2.6026        76.6170      2570.9741      2591.4741
     2820.7716        12.2500        13.5641       0.018855        98.8570        91.3124       0.438432         3.6690         2.5105         1.6363         2.2122        76.9812      2571.1060      2591.6060
     2820.9240        12.2500        13.6024       0.007733        99.8694        92.0894       0.443132         3.4449         2.4821         1.5778         2.1536        77.2673      2571.2380      2591.7380
     2821.0764        12.2500        13.5002       0.000939       100.8961        94.3733       0.431314         3.3081         2.4587         1.5157         2.1825        77.4907      2571.3701      2591.8701
     2821.2288        12.2500        13.4254      -0.000678       101.9733        96.9807       0.414289         3.2060         2.4396         1.4640         2.1463        77.8346      2571.5020      2592.0020
     2821.3812        12.2500        13.5650       0.000605       102.7400        97.9183       0.403726         3.1527         2.4252         1.4330         2.0678        78.2655      2571.6340      2592.1340
     2821.5336        12.2500        13.7738       0.002581       102.9062        96.9182       0.408384         3.1479         2.4196         1.4198         2.0050        78.4661      2571.7659      2592.2659
     2821.6860        12.2500        13.7781       0.002096       102.5741        95.8610       0.426281         3.1587         2.4232         1.4144         2.0035        78.5922      2571.8979      2592.3979
     2821.8384        12.2500        13.6275       0.001117       102.7779        96.0909       0.440297         3.1142         2.4267         1.4149         2.0598        78.6448      2572.0298      2592.5298
     2821.9908        12.2500        13.5422       0.002407       102.8601        97.4079       0.438810         2.9927         2.4202         1.4266         2.1176        78.4327      2572.1619      2592.6619
     2822.1432        12.2500        13.6156       0.004580       101.5916        98.7765       0.434968         2.8893         2.4095         1.4570         2.1512        78.5078      2572.2939      2592.7939
     2822.2956        12.2500        13.7358       0.004188        99.6119        99.2952       0.440474         2.9083         2.4062         1.5134         2.1533        78.9272      2572.4258      2592.9258
     2822.4480        12.2500        13.7953       0.002208        96.8407        98.8458       0.450821         3.0350         2.4151         1.6179         2.1158        78.9489      2572.5579      2593.0579
     2822.6004        12.2500        13.9069       0.001179        92.9844        96.8952       0.456311         3.2293         2.4307         1.7883         2.1365        79.0245      2572.6897      2593.1897
     2822.7528        12.2500        14.1125      -0.002631        88.5766        93.5850       0.446692         3.5552         2.4564         2.0019         2.7703        79.1148      2572.8218      2593.3218
     2822.9052        12.2500        14.2191      -0.010492        84.8596        90.9233       0.409344         4.1424         2.4955         2.2124         4.9087        79.2055      2572.9539      2593.4539
     2823.0576        12.2500        14.1184      -0.017247        82.4050        90.0887       0.341115         4.8831         2.5390         2.4362         7.4625        79.2955      2573.0857      2593.5857
     2823.2100        12.2500        13.9222      -0.017051        80.8256        90.6069       0.265811         5.2234         2.5703         2.7456         8.1878        79.3858      2573.2178      2593.7178
     2823.3624        12.2500        13.7664      -0.010392        81.0042        91.5603       0.218680         4.8769         2.5810         3.1138         7.4173        79.4765      2573.3496      2593.8496
     2823.5148        12.2500        13.7113      -0.002716        82.6474        93.1279       0.209207         4.2272         2.5733         3.3849         6.2456        79.5668      2573.4817      2593.9817
     2823.6672        12.2500        13.7109       0.002868        84.4370        95.4985       0.215244         3.6657         2.5528         3.4718         5.0752        79.6575      2573.6138      2594.1138
     2823.8196        12.2500        13.7111       0.004166        86.3620        97.7413       0.216430         3.3258         2.5265         3.4215         4.5527        79.7475      2573.7456      2594.2456
     2823.9720        12.2500        13.7346       0.000997        88.5415        99.4450       0.213045         3.1586         2.5001         3.2979         4.4426        79.8378      2573.8777      2594.3777
     2824.1244        12.2500        13.7808      -0.002569        91.2257       101.4416       0.219035         3.0594         2.4748         3.1540         4.1750        79.9285      2574.0095      2594.5095
     2824.2768        12.2500        13.7806      -0.002071        94.0324       104.4348       0.241465         2.9897         2.4488         3.0302         3.7803        80.0185      2574.1416      2594.6416
     2824.4292        12.2500        13.6954       0.002184        95.8440       107.0825       0.268286         2.9620         2.4263         2.9344         3.4421        80.1088      2574.2737      2594.7737
     2824.5816        12.2500        13.6219       0.004374        96.4297       107.1049       0.282918         3.0026         2.4160         2.8602         3.3269        80.1995      2574.4055      2594.9055
     2824.7340        12.2500        13.6585       0.003196        95.7554       103.5769       0.281847         3.0666         2.4169         2.7986         3.3540        80.2898      2574.5376      2595.0376
     2824.8864        12.2500        13.7341       0.001518        94.3770        99.2410       0.273140         3.0930         2.4196         2.7542         3.3596        80.3805      2574.6697      2595.1697
     2825.0388        12.2500        13.7696       0.002211        93.4742        97.6942       0.272174         3.0876         2.4223         2.7287         3.3878        80.4705      2574.8015      2595.3015
     2825.1912        12.2500        13.8122       0.004284        93.2305        98.7563       0.283728         3.0812         2.4282         2.7093         3.4407        80.5608      2574.9336      2595.4336
     2825.3436        12.2500        13.8130       0.004310        92.9191        99.3317       0.296511         3.0827         2.4369         2.6932         3.4410        80.6515      2575.0654      2595.5654
     2825.4960        12.2500        13.8785       0.005598        92.4483        98.4492       0.301991         3.0799         2.4410         2.6850         3.3949        80.7415      2575.1975      2595.6975
     2825.6484        12.2500        13.8866       0.006687        92.2749        97.9438       0.300737         3.0648         2.4407         2.6869         3.3748        80.8318      2575.3296      2595.8296
