~Version Information Block
VERS .                 2.00:  CWLS LOG ASCII STANDARD - VERSION 2.00
WRAP .                   NO:  One line per depth step
~Well Information Block
#MNEM.UNIT        Data Type   Information
#---------- ----------------  -----------
STRT .M              0.0000:  START DEPTH
STOP .M           2954.7312:  STOP DEPTH
STEP .M              0.1524:  STEP
NULL .              -999.25:  NULL VALUE
COMP .                     :  COMPANY
WELL .               GABO16:  WELL
FLD  .                     :  FIELD
LOC  .   6.656374, 5.257763:  LOCATION
CTRY .                     :  COUNTRY
STAT .                     :  STATE
CNTY .                     :  COUNTY
API  .                     :  API NUMBER
UWI  .                     :  UNIQUE WELL ID
SRVC .                     :  SERVICE COMPANY
DATE .                     :  LOG DATE
~Curve Information Block
#MNEM.UNIT         API CODE   Curve Description
#---------- ----------------  -----------------
DEPTH.M                    :  Reference Depth
BS_COMP.INCHES             :  Bit Size
CALI_COMP.INCHES           :  Caliper
DRHO_COMP.G/C3             :  Density Neutron Seperation
DT_COMP.US/F              0:  Compressional Sonic
GR_COMP.GAPI              0:  Gamma Ray
NPHI_COMP.V/V              :  Neutron Porosity
PEF_COMP.B/E              0:  Photo Electric Factor
RHOB_COMP.G/C3            0:  Bulk Density
RT_COMP.OHMM              0:  True or Deep Resistivity
RXO_COMP.OHMM             0:  Invaded Zone Resistivity
SP_COMP.MV                0:  Spontanuous Potential
TVDSS_COMP.M               :  Reference TVD sub-sea log.
TVD_COMP.M                 :  Reference TVD log.
~Parameter Information Block
#MNEM.UNIT            Value   Description
#---------- ----------------  -----------
SET  .                  LCS:  
~Other Information Block
COMMENT:
COMMENT:
$$MUX      Data from LAS tape
$$MUX      fevsbd 09/10/97 ng95603  ASCII:      GABO-16
$$MUX
$$MUX

#        DEPTH        BS_COMP      CALI_COMP      DRHO_COMP        DT_COMP        GR_COMP      NPHI_COMP       PEF_COMP      RHOB_COMP        RT_COMP       RXO_COMP        SP_COMP     TVDSS_COMP       TVD_COMP 
~A
# ...
     1732.1784        12.2500        12.8906      -0.025504       115.2923        47.2983       0.276692         1.6872         2.1500        19.1759        10.0467        66.1938      1638.2275      1658.7275
     1732.3308        12.2500        12.8147      -0.025494       114.7800        49.0308       0.277269         1.6806         2.1494        19.1187        10.3091        65.9464      1638.3590      1658.8590
     1732.4832        12.2500        12.7796      -0.024192       114.6263        51.1016       0.283144         1.6428         2.1474        19.0807        10.0640        66.4634      1638.4906      1658.9906
     1732.6356        12.2500        12.8047      -0.021210       114.8552        52.3904       0.291558         1.6118         2.1476        19.0360         9.4283        67.0988      1638.6222      1659.1222
     1732.7880        12.2500        12.8397      -0.020315       114.3472        52.0219       0.292785         1.6162         2.1548        19.1238         8.8662        67.4799      1638.7537      1659.2537
     1732.9404        12.2500        12.8515      -0.022600       112.9889        50.6887       0.283909         1.6436         2.1671        19.3901         8.9821        67.7149      1638.8853      1659.3853
     1733.0928        12.2500        12.8516      -0.024991       111.6732        49.2952       0.272169         1.6616         2.1788        19.7489         9.7201        67.8241      1639.0168      1659.5168
     1733.2452        12.2500        12.8516      -0.025497       110.9260        47.9162       0.264421         1.6647         2.1869        20.0717        10.3345        67.7419      1639.1484      1659.6484
     1733.3976        12.2500        12.8516      -0.025296       110.2287        46.4066       0.258790         1.6599         2.1929        20.4726        10.6132        67.6785      1639.2799      1659.7799
     1733.5500        12.2500        12.8517      -0.024191       109.0688        45.1617       0.250846         1.6456         2.1983        21.1225        10.8632        67.7724      1639.4114      1659.9114
     1733.7024        12.2500        12.8713      -0.021199       107.7628        44.5894       0.240222         1.6331         2.2029        21.7583        10.8295        67.9158      1639.5428      1660.0428
     1733.8548        12.2500        12.9316      -0.017909       106.7733        44.2386       0.229169         1.6300         2.2089        22.2011        10.4623        68.1336      1639.6744      1660.1744
     1734.0072        12.2500        13.0018      -0.016612       106.3053        43.4322       0.221433         1.6175         2.2149        22.6483        10.5443        68.6359      1639.8060      1660.3060
     1734.1596        12.2500        13.0390      -0.017803       106.2877        42.1146       0.218320         1.5783         2.2199        23.1950        11.1580        69.4126      1639.9375      1660.4375
     1734.3120        12.2500        13.0469      -0.019692       106.5357        40.9515       0.220258         1.5351         2.2226        23.6923        11.6527        70.1590      1640.0688      1660.5688
     1734.4644        12.2500        13.0470      -0.019893       106.8578        40.6016       0.223624         1.5286         2.2237        24.1099        11.8145        70.6105      1640.2004      1660.7004
     1734.6168        12.2500        13.0685      -0.018704       107.2215        40.0205       0.224371         1.5584         2.2217        24.6602        11.7763        70.6558      1640.3319      1660.8319
     1734.7692        12.2500        13.1133      -0.018310       107.7063        37.7085       0.222689         1.5903         2.2174        25.2015        11.5528        70.6414      1640.4634      1660.9634
     1734.9216        12.2500        13.1582      -0.020097       108.4887        34.7679       0.222626         1.6149         2.2137        24.8736        11.2066        70.9135      1640.5948      1661.0948
     1735.0740        12.2500        13.2031      -0.021188       109.3745        33.7272       0.223685         1.6451         2.2124        22.7838        11.0767        71.3376      1640.7263      1661.2263
     1735.2264        12.2500        13.2544      -0.019690       109.6525        34.9226       0.222692         1.6894         2.2110        19.0881        11.2970        71.6385      1640.8578      1661.3578
     1735.3788        12.2500        13.4197      -0.015995       109.8257        36.9802       0.223288         1.7835         2.2139        14.9116        11.7174        71.7399      1640.9893      1661.4893
     1735.5312        12.2500        13.5339      -0.011209       111.1887        40.3176       0.233276         1.9796         2.2279        11.4171        11.8490        72.3299      1641.1207      1661.6207
     1735.6836        12.2500        13.3731      -0.008314       113.2831        47.9675       0.262244         2.2472         2.2548         9.1255        10.7793        74.1091      1641.2521      1661.7521
     1735.8360        12.2500        13.2271      -0.008403       115.4740        60.4885       0.305809         2.4294         2.2829         7.8147         8.3544        76.5028      1641.3835      1661.8835
     1735.9884        12.2500        13.1873      -0.009203       117.8007        73.2580       0.352163         2.4212         2.2989         7.0517         5.8433        78.2881      1641.5150      1662.0150
     1736.1408        12.2500        13.1094      -0.010616       119.7197        80.3578       0.393056         2.3083         2.2978         6.5782         4.3530        78.9874      1641.6464      1662.1464
     1736.2932        12.2500        13.0236      -0.015407       120.6466        79.8019       0.418753         2.2066         2.2850         6.2809         3.9368        78.7079      1641.7778      1662.2778
     1736.4456        12.2500        12.9864      -0.021584       120.2497        75.6119       0.424463         2.1296         2.2635         6.1705         4.3508        77.6832      1641.9093      1662.4093
     1736.5980        12.2500        12.9686      -0.024282       119.4358        72.1667       0.413021         2.0437         2.2358         6.3692         4.9305        76.4680      1642.0406      1662.5406
     1736.7504        12.2500        12.9004      -0.023107       119.2342        69.6049       0.395904         1.9232         2.2100         6.9872         5.4047        75.3870      1642.1721      1662.6721
     1736.9028        12.2500        12.8397      -0.023306       119.4633        65.2099       0.383201         1.7640         2.1941         8.0018         6.2725        74.5130      1642.3035      1662.8035
     1737.0552        12.2500        12.7574      -0.024778       119.3859        57.8098       0.367413         1.6168         2.1839         9.2710         7.0109        73.9330      1642.4348      1662.9348
     1737.2076        12.2500        12.6000      -0.021484       118.4263        49.9073       0.338392         1.5609         2.1712        10.6253         7.0950        73.7041      1642.5662      1663.0662
     1737.3600        12.2500        12.5279      -0.014814       116.6262        44.8300       0.298112         1.6212         2.1652        11.8359         7.2213        73.6378      1642.6976      1663.1976
     1737.5124        12.2500        12.5898      -0.011129       114.4986        43.7624       0.264369         1.7397         2.1785        12.6693         7.6932        73.5675      1642.8290      1663.3290
     1737.6648        12.2500        12.6502      -0.013707       112.8332        44.9953       0.255486         1.8139         2.2049        13.2104         8.2201        73.5245      1642.9603      1663.4603
     1737.8172        12.2500        12.6641      -0.017885       112.3857        45.6845       0.270543         1.8059         2.2226        13.6201         8.5408        73.2349      1643.0917      1663.5917
     1737.9696        12.2500        12.6722      -0.018889       113.3814        45.3191       0.290127         1.7866         2.2202        13.8072         8.3481        72.6352      1643.2230      1663.7230
