~Version Information Block
VERS .                 2.00:  CWLS LOG ASCII STANDARD - VERSION 2.00
WRAP .                   NO:  One line per depth step
~Well Information Block
#MNEM.UNIT        Data Type   Information
#---------- ----------------  -----------
STRT .M              0.0000:  START DEPTH
STOP .M           2757.2208:  STOP DEPTH
STEP .M              0.1524:  STEP
NULL .              -999.25:  NULL VALUE
COMP .                     :  COMPANY
WELL .               GABO14:  WELL
FLD  .                     :  FIELD
LOC  .   6.639036, 5.241653:  LOCATION
CTRY .                     :  COUNTRY
STAT .                     :  STATE
CNTY .                     :  COUNTY
API  .                     :  API NUMBER
UWI  .                     :  UNIQUE WELL ID
SRVC .                     :  SERVICE COMPANY
DATE .                     :  LOG DATE
~Curve Information Block
#MNEM.UNIT         API CODE   Curve Description
#---------- ----------------  -----------------
DEPTH.M                    :  Reference Depth
BS_COMP.INCHES             :  Bit Size
CALI_COMP.INCHES          0:  Caliper
DRHO_COMP.G/C3            0:  Density Correction 
DT_COMP.US/F              0:  Compressional Sonic
ECART_COMP.                :  Neutron Density Seperation
GR_COMP.GAPI              0:  Gamma Ray
NPHI_COMP.V/V             0:  Neutron Porosity
PEF_COMP.B/E              0:  Photo Electric Factor
RHOB_COMP.G/C3            0:  Bulk Density
RT_COMP.OHMM              0:  True or Deep Resistivity
RXO_COMP.OHMM             0:  Invaded Zone Resistivity
SP_COMP.MV                0:  Spontaneous Potential
TVDSS_COMP.M               :  Reference TVD sub-sea log.
TVD_COMP.M                 :  Reference TVD log.
~Parameter Information Block
#MNEM.UNIT            Value   Description
#---------- ----------------  -----------
SET  .                  LCS:  
~Other Information Block
#        DEPTH        BS_COMP      CALI_COMP      DRHO_COMP        DT_COMP     ECART_COMP        GR_COMP      NPHI_COMP       PEF_COMP      RHOB_COMP        RT_COMP       RXO_COMP        SP_COMP     TVDSS_COMP       TVD_COMP 
~A
# ...
     2353.9704        12.2500        15.2292       0.055982        92.4511         5.7299        84.4527       0.286723         3.3990         2.5086         4.0782         2.6865        78.0156      2267.8025      2283.8025
     2354.1228        12.2500        15.0249       0.063019        92.0277         5.6721        84.4068       0.269914         3.6175         2.5337         4.1271         2.7969        77.9352      2267.9532      2283.9532
     2354.2752        12.2500        14.8361       0.073040        91.2811         5.8013        87.9940       0.270297         3.7388         2.5396         4.1397         3.2305        78.2163      2268.1039      2284.1039
     2354.4276        12.2500        14.6955       0.089994        91.3141         6.2055        90.2642       0.285555         3.7117         2.5344         4.0762         3.8031        78.5164      2268.2547      2284.2547
     2354.5800        12.2500        14.6974       0.101897        91.5662         6.8449        89.8544       0.307499         3.6375         2.5297         3.8947         4.2894        78.6095      2268.4054      2284.4054
     2354.7324        12.2500        14.7966       0.087904        92.3064         7.1877        88.8129       0.324046         3.6247         2.5193         3.5874         4.3801        78.7310      2268.5562      2284.5562
     2354.8848        12.2500        14.7806       0.055027        94.4488         7.2300        88.8015       0.338268         3.6772         2.4977         3.2176         3.9557        78.9630      2268.7069      2284.7069
     2355.0372        12.2500        14.6756       0.035109        96.9077         7.4252        89.8146       0.361851         3.7142         2.4682         2.9012         3.4370        79.4164      2268.8576      2284.8576
     2355.1896        12.2500        14.5015       0.044096       100.7221         7.8832        90.1624       0.396538         3.6116         2.4333         2.7167         3.2138        79.9621      2269.0084      2285.0084
     2355.3420        12.2500        14.2577       0.073013       105.0556         8.3295        87.9780       0.430987         3.3745         2.3982         2.6449         3.1595        80.2065      2269.1591      2285.1591
     2355.4944        12.2500        13.9999       0.098971       107.0148         8.2282        86.6100       0.442666         3.2076         2.3736         2.6128         3.0347        80.0801      2269.3099      2285.3099
     2355.6468        12.2500        13.7680       0.112969       106.7389         7.8494        86.8190       0.429716         3.3464         2.3763         2.5647         2.7442        79.6454      2269.4606      2285.4606
     2355.7992        12.2500        13.5762       0.116973       104.2087         8.0309        84.7485       0.414182         3.8745         2.4112         2.4957         2.3346        79.0528      2269.6114      2285.6114
     2355.9516        12.2500        13.4715       0.114001       101.8755         8.6668        80.7670       0.411052         4.4853         2.4483         2.4197         2.0141        78.5423      2269.7621      2285.7621
     2356.1040        12.2500        13.4942       0.112081       102.0025         8.9277        77.5926       0.420467         4.7304         2.4456         2.3578         2.0354        78.3891      2269.9129      2285.9129
     2356.2564        12.2500        13.5722       0.129142       102.5683         8.5628        77.2712       0.433201         4.6120         2.4061         2.3198         2.3488        78.8713      2270.0636      2286.0636
     2356.4088        12.2500        13.6916       0.175002       103.7758         8.4360        78.4606       0.441483         4.3538         2.3860         2.2807         2.5395        79.8482      2270.2143      2286.2143
     2356.5612        12.2500        13.9104       0.211775       106.0102         9.1308        80.2035       0.447685         4.0022         2.4104         2.2126         2.4235        80.8124      2270.3651      2286.3651
     2356.7136        12.2500        14.1910       0.189800       108.3393         9.7910        83.7380       0.451310         3.5998         2.4374         2.1145         2.3068        81.5965      2270.5158      2286.5158
     2356.8660        12.2500        14.4294       0.126986       110.9138         9.4874        88.0543       0.447311         3.2514         2.4289         1.9945         2.4858        82.1732      2270.6666      2286.6666
     2357.0184        12.2500        14.4764       0.074079       112.6953         8.4915        89.7088       0.439786         3.0562         2.3916         1.8787         2.6698        82.4416      2270.8174      2286.8174
     2357.1708        12.2500        14.3832       0.050048       114.3495         7.6535        87.3731       0.433374         2.9878         2.3604         1.8029         2.4043        82.5747      2270.9681      2286.9681
     2357.3232        12.2500        14.3674       0.041997       115.6035         7.5181        83.3011       0.433574         2.9688         2.3533         1.7811         2.0215        82.7342      2271.1189      2287.1189
     2357.4756        12.2500        14.4338       0.034972       114.3378         7.8721        80.6178       0.440186         2.9855         2.3600         1.8093         1.9029        82.7795      2271.2696      2287.2696
     2357.6280        12.2500        14.4336       0.022993       112.9368         8.3581        82.6477       0.448929         3.0460         2.3697         1.8856         1.8819        82.4316      2271.4204      2287.4204
     2357.7804        12.2500        14.3421       0.012007       112.6517         8.7444        87.8149       0.456370         3.1445         2.3766         2.0179         1.8620        81.8886      2271.5711      2287.5711
     2357.9328        12.2500        14.2912       0.005024       111.6582         8.9915        91.8955       0.461066         3.2466         2.3811         2.2262         1.8674        81.3368      2271.7219      2287.7219
     2358.0852        12.2500        14.2969       0.005022       108.4907         9.4960        92.9050       0.465024         3.3426         2.3998         2.4890         1.9516        80.6123      2271.8726      2287.8726
     2358.2376        12.2500        14.2639       0.009983       102.7038        10.4615        89.0128       0.460523         3.5488         2.4555         2.7136         2.0975        80.4600      2272.0234      2288.0234
     2358.3900        12.2500        14.2192       0.010000        95.8135        11.1212        81.2159       0.425353         4.0260         2.5471         2.8403         2.2098        81.1543      2272.1742      2288.1742
     2358.5424        12.2500        14.2290       0.010092        88.8753        10.6066        73.4557       0.358801         4.6503         2.6323         2.9022         3.0984        81.6804      2272.3249      2288.3249
     2358.6948        12.2500        14.2339       0.031128        85.3236         9.2906        70.4362       0.300409         4.9038         2.6639         2.9553         6.8312        81.7697      2272.4757      2288.4757
     2358.8472        12.2500        14.2213       0.076959        87.7541         8.4250        73.6974       0.289386         4.4998         2.6389         3.0302         9.5799        81.6986      2272.6264      2288.6264
     2358.9996        12.2500        14.2972       0.103863        92.3499         8.1211        79.4935       0.317544         3.8849         2.5768         3.0797         6.5984        81.6022      2272.7776      2288.7776
     2359.1520        12.2500        14.4117       0.093921        97.3498         7.8139        85.0863       0.354112         3.4944         2.5005         3.0033         3.0587        81.6456      2272.9280      2288.9280
     2359.3044        12.2500        14.4298       0.067998       102.3071         7.4360        90.3880       0.380814         3.3171         2.4371         2.8394         2.3036        81.7735      2273.0787      2289.0787
