~Version Information Block
VERS .                 2.00:  CWLS LOG ASCII STANDARD - VERSION 2.00
WRAP .                   NO:  One line per depth step
~Well Information Block
#MNEM.UNIT        Data Type   Information
#---------- ----------------  -----------
STRT .M              0.0000:  START DEPTH
STOP .M           2954.7312:  STOP DEPTH
STEP .M              0.1524:  STEP
NULL .              -999.25:  NULL VALUE
COMP .                     :  COMPANY
WELL .               GABO16:  WELL
FLD  .                     :  FIELD
LOC  .   6.656374, 5.257763:  LOCATION
CTRY .                     :  COUNTRY
STAT .                     :  STATE
CNTY .                     :  COUNTY
API  .                     :  API NUMBER
UWI  .                     :  UNIQUE WELL ID
SRVC .                     :  SERVICE COMPANY
DATE .                     :  LOG DATE
~Curve Information Block
#MNEM.UNIT         API CODE   Curve Description
#---------- ----------------  -----------------
DEPTH.M                    :  Reference Depth
BS_COMP.INCHES             :  Bit Size
CALI_COMP.INCHES           :  Caliper
DRHO_COMP.G/C3             :  Density Neutron Seperation
DT_COMP.US/F              0:  Compressional Sonic
GR_COMP.GAPI              0:  Gamma Ray
NPHI_COMP.V/V              :  Neutron Porosity
PEF_COMP.B/E              0:  Photo Electric Factor
RHOB_COMP.G/C3            0:  Bulk Density
RT_COMP.OHMM              0:  True or Deep Resistivity
RXO_COMP.OHMM             0:  Invaded Zone Resistivity
SP_COMP.MV                0:  Spontanuous Potential
TVDSS_COMP.M               :  Reference TVD sub-sea log.
TVD_COMP.M                 :  Reference TVD log.
~Parameter Information Block
#MNEM.UNIT            Value   Description
#---------- ----------------  -----------
SET  .                  LCS:  
~Other Information Block
COMMENT:
COMMENT:
$$MUX      Data from LAS tape
$$MUX      fevsbd 09/10/97 ng95603  ASCII:      GABO-16
$$MUX
$$MUX

#        DEPTH        BS_COMP      CALI_COMP      DRHO_COMP        DT_COMP        GR_COMP      NPHI_COMP       PEF_COMP      RHOB_COMP        RT_COMP       RXO_COMP        SP_COMP     TVDSS_COMP       TVD_COMP 
~A
     1125.9312        17.5000        12.5703    -999.250000      -999.2500        16.2701       0.391560      -999.2500         1.9749      -999.2500      -999.2500       117.6117      1081.0712      1101.5712
     1126.0836        17.5000        12.5703    -999.250000      -999.2500        16.3723       0.413062      -999.2500         1.9644      -999.2500      -999.2500       116.4929      1081.2141      1101.7141
     1126.2360        17.5000        12.5703    -999.250000      -999.2500        16.6076       0.427136      -999.2500         1.9642      -999.2500      -999.2500       113.9696      1081.3571      1101.8571
     1126.3884        17.5000        12.5703    -999.250000      -999.2500        16.8512       0.436526      -999.2500         1.9815      -999.2500      -999.2500       110.9261      1081.5000      1102.0000
     1126.5408        17.5000        12.5703    -999.250000      -999.2500        16.6958       0.445125      -999.2500         2.0271      -999.2500      -999.2500       107.7486      1081.6429      1102.1429
     1126.6932        17.5000        12.5703    -999.250000      -999.2500        16.0833       0.452933      -999.2500         2.1115      -999.2500      -999.2500       102.7783      1081.7859      1102.2859
     1126.8456        17.5000        12.5703    -999.250000      -999.2500        15.5488       0.451545      -999.2500         2.2166      -999.2500      -999.2500        96.1495      1081.9288      1102.4288
     1126.9980        17.5000        12.5683    -999.250000      -999.2500        15.6268       0.437721      -999.2500         2.2854      -999.2500      -999.2500        90.8747      1082.0718      1102.5718
     1127.1504        17.5000        12.5429    -999.250000      -999.2500        16.1763       0.418974      -999.2500         2.2657      -999.2500      -999.2500        88.4268      1082.2147      1102.7147
     1127.3028        17.5000        12.4979    -999.250000      -999.2500        16.6484       0.405517      -999.2500         2.1838      -999.2500      -999.2500        87.9099      1082.3577      1102.8577
     1127.4552        17.5000        12.4766    -999.250000      -999.2500        17.0614       0.399377      -999.2500         2.1114      -999.2500      -999.2500        88.7234      1082.5006      1103.0006
     1127.6076        17.5000        12.4766    -999.250000      -999.2500        17.6832       0.398323      -999.2500         2.0814      -999.2500      -999.2500        90.0370      1082.6436      1103.1436
     1127.7600        17.5000        12.4766    -999.250000      -999.2500        18.3881       0.399947      -999.2500         2.0854      -999.2500      -999.2500        91.2459      1082.7865      1103.2865
     1127.9124        17.5000        12.4766    -999.250000      -999.2500        18.7094       0.404195      -999.2500         2.1024      -999.2500      -999.2500        92.6881      1082.9294      1103.4294
     1128.0648        17.5000        12.4766    -999.250000      -999.2500        18.8630       0.410869      -999.2500         2.1171      -999.2500      -999.2500        94.6806      1083.0724      1103.5724
     1128.2172        17.5000        12.4766    -999.250000      -999.2500        18.9253       0.415315      -999.2500         2.1215      -999.2500      -999.2500        96.5932      1083.2155      1103.7155
     1128.3696        17.5000        12.4766    -999.250000      -999.2500        18.2903       0.416319      -999.2500         2.1084      -999.2500      -999.2500        97.0690      1083.3583      1103.8583
     1128.5220        17.5000        12.4766    -999.250000      -999.2500        17.2989       0.418887      -999.2500         2.0860      -999.2500      -999.2500        95.6722      1083.5013      1104.0013
     1128.6744        17.5000        12.4766    -999.250000      -999.2500        16.6350       0.423937      -999.2500         2.0736      -999.2500      -999.2500        93.9104      1083.6442      1104.1442
     1128.8268        17.5000        12.4766    -999.250000      -999.2500        16.5082       0.423475      -999.2500         2.0800      -999.2500      -999.2500        93.5619      1083.7872      1104.2872
     1128.9792        17.5000        12.4766    -999.250000      -999.2500        16.6367       0.414879      -999.2500         2.0891      -999.2500      -999.2500        94.2975      1083.9301      1104.4301
     1129.1316        17.5000        12.4766    -999.250000      -999.2500        17.0063       0.408966      -999.2500         2.0749      -999.2500      -999.2500        94.7299      1084.0731      1104.5731
     1129.2840        17.5000        12.4766    -999.250000      -999.2500        17.7439       0.411303      -999.2500         2.0486      -999.2500      -999.2500        95.2639      1084.2159      1104.7159
     1129.4364        17.5000        12.4766    -999.250000      -999.2500        18.0380       0.410755      -999.2500         2.0456      -999.2500      -999.2500        96.3075      1084.3590      1104.8590
     1129.5888        17.5000        12.4766    -999.250000      -999.2500        17.5404       0.410228      -999.2500         2.0672      -999.2500      -999.2500        96.9829      1084.5020      1105.0020
     1129.7412        17.5000        12.4766    -999.250000      -999.2500        16.6106       0.423749      -999.2500         2.0745      -999.2500      -999.2500        96.9648      1084.6449      1105.1449
     1129.8936        17.5000        12.4766    -999.250000      -999.2500        15.5392       0.444802      -999.2500         2.0583      -999.2500      -999.2500        95.9750      1084.7878      1105.2878
     1130.0460        17.5000        12.4766    -999.250000      -999.2500        15.1667       0.450886      -999.2500         2.0785      -999.2500      -999.2500        93.8647      1084.9308      1105.4308
     1130.1984        17.5000        12.4766    -999.250000      -999.2500        15.4491       0.457824      -999.2500         2.1335      -999.2500      -999.2500        90.9668      1085.0739      1105.5739
     1130.3508        17.5000        12.4766    -999.250000      -999.2500        16.2466       0.464291      -999.2500         2.1939      -999.2500      -999.2500        88.7347      1085.2168      1105.7168
     1130.5032        17.5000        12.4766    -999.250000      -999.2500        17.3353       0.462170      -999.2500         2.2224      -999.2500      -999.2500        88.8887      1085.3597      1105.8597
     1130.6556        17.5000        12.4766    -999.250000      -999.2500        18.6473       0.450371      -999.2500         2.2079      -999.2500      -999.2500        90.1550      1085.5027      1106.0027
     1130.8080        17.5000        12.4766    -999.250000      -999.2500        19.8802       0.434250      -999.2500         2.1755      -999.2500      -999.2500        90.2477      1085.6456      1106.1456
     1130.9604        17.5000        12.4766    -999.250000      -999.2500        20.2813       0.427864      -999.2500         2.1510      -999.2500      -999.2500        89.6648      1085.7886      1106.2886
     1131.1128        17.5000        12.4766    -999.250000      -999.2500        19.4235       0.432918      -999.2500         2.1336      -999.2500      -999.2500        89.6898      1085.9316      1106.4316
     1131.2652        17.5000        12.4766    -999.250000      -999.2500        18.0164       0.431846      -999.2500         2.1186      -999.2500      -999.2500        90.1575      1086.0745      1106.5745
     1131.4176        17.5000        12.4766    -999.250000      -999.2500        16.8630       0.422168      -999.2500         2.1000      -999.2500      -999.2500        90.6174      1086.2175      1106.7175
     1131.5700        17.5000        12.4766    -999.250000      -999.2500        16.0391       0.418530      -999.2500         2.0787      -999.2500      -999.2500        90.9344      1086.3605      1106.8605
     1131.7224        17.5000        12.4766    -999.250000      -999.2500        15.3354       0.427762        87.0011         2.0625      -999.2500      -999.2500        90.7681      1086.5034      1107.0034
