~Version Section
VERS.   2.0:  CWLS Log ASCII Standard - Version 2.0
WRAP.    NO:  One data record per depth sample.
~Well Information Section
#MNEM.UNIT      VALUE                    DESCRIPTION
#---------      ----------               -----------
STRT.M                   0               :START DEPTH
STOP.M          3180.43555               :STOP DEPTH
STEP.M               .1524               :STEP
NULL.          -999.250000               :NULL VALUE
COMP.                                    :Oil Company
WELL.         GABO-21                    :Non unique well name
FLD.              FNG00147               :Field name
LOC.  6.610748, 5.225944                 :Location
PROV.                                    :Province
SRVC.                                    :Service
DATE.           2013-08-16               :Date unloaded
UWI.          			               :Unique well id
~Curve Information Section
#MNEM.UNIT                   API CODE                 Curve Description
#---------                   ----------               -----------------
BOREHOLE-DEPTH.M                                   :DEPTH
GR.GAPI                                   :
RT.OHMM                                   :
RXO.OHMM                                   :
TVD.M                                   :
TVDSS.M                                   :
~A
# ...
1554.4800    22.5356      63.2552      64.1619      1553.3602    1534.0402    
1554.6324    20.8817      66.3552      55.2230      1553.5126    1534.1926    
1554.7848    20.8817      66.3553      55.2233      1553.6650    1534.3450    
1554.9373    20.8817      69.6847      53.7556      1553.8174    1534.4974    
1555.0896    20.8817      66.3179      64.6048      1553.9697    1534.6497    
1555.2421    20.8817      64.4833      49.4587      1554.1221    1534.8021    
1555.3944    20.8817      70.5512      89.8103      1554.2745    1534.9545    
1555.5469    20.8817      67.9243      48.6877      1554.4268    1535.1068    
1555.6992    20.8817      60.7127      54.1330      1554.5792    1535.2592    
1555.8516    20.8817      69.8884      66.4106      1554.7316    1535.4116    
1556.0040    22.7082      70.0855      51.2882      1554.8840    1535.5640    
1556.1564    26.1022      69.0954      58.2166      1555.0363    1535.7163    
1556.3088    27.8423      77.6979      62.4567      1555.1887    1535.8687    
1556.4612    27.7560      71.4843      53.3493      1555.3411    1536.0211    
1556.6136    26.1022      66.4666      59.3293      1555.4935    1536.1735    
1556.7660    26.1022      69.6063      68.4719      1555.6458    1536.3258    
1556.9185    26.1022      67.4959      57.0058      1555.7982    1536.4781    
1557.0708    26.1022      66.4988      74.0377      1555.9506    1536.6306    
1557.2233    26.1022      74.3763      80.1641      1556.1030    1536.7830    
1557.3756    26.1022      74.3762      80.1641      1556.2552    1536.9353    
1557.5281    26.1022      69.4137      65.7315      1556.4077    1537.0876    
1557.6804    26.0159      78.2612      81.6589      1556.5601    1537.2401    
1557.8328    25.9295      67.2978      98.4012      1556.7125    1537.3925    
1557.9852    25.8432      75.1252      59.8792      1556.8647    1537.5448    
1558.1376    24.1031      76.2941      58.2686      1557.0172    1537.6971    
1558.2900    20.7954      70.0748      62.6201      1557.1696    1537.8496    
1558.4424    19.1416      77.5889      59.9929      1557.3220    1538.0020    
1558.5948    19.1416      70.4906      65.5286      1557.4742    1538.1543    
1558.7472    20.7954      69.9286      69.2615      1557.6267    1538.3066    
1558.8997    20.7954      66.6684      49.8792      1557.7791    1538.4591    
1559.0520    20.7954      70.4829      49.3839      1557.9315    1538.6115    
1559.2045    19.1416      70.4933      93.0112      1558.0837    1538.7638    
1559.3568    19.1416      77.4321      76.5220      1558.2362    1538.9163    
1559.5093    19.2279      69.3918      43.0326      1558.3885    1539.0686    
1559.6616    20.8817      68.8270      54.0341      1558.5410    1539.2209    
1559.8140    20.8817      71.0406      59.9336      1558.6934    1539.3733    
1559.9664    20.8817      83.5219      57.7506      1558.8457    1539.5258    
1560.1188    20.9680      65.8921      65.2397      1558.9980    1539.6781    
1560.2712    22.6219      73.0203      49.4720      1559.1505    1539.8304    
1560.4236    22.6219      73.4174      79.6045      1559.3029    1539.9828    
1560.5760    24.1894      74.0256      72.2457      1559.4552    1540.1353    
1560.7284    24.1894      67.1786      74.4221      1559.6075    1540.2876    
1560.8809    24.2757      74.6964      86.2409      1559.7600    1540.4399    
1561.0332    24.3620      68.7447      71.5768      1559.9124    1540.5923    
1561.1857    21.0543      71.3077      54.3790      1560.0647    1540.7448    
1561.3380    20.9680      75.1273      50.7146      1560.2170    1540.8971    
1561.4905    20.9680      71.4505      65.3566      1560.3695    1541.0496    
1561.6428    22.6219      76.5105      59.8647      1560.5219    1541.2018    
1561.7952    22.6219      75.3182      59.1005      1560.6742    1541.3542    
1561.9476    20.8817      73.4721      61.9530      1560.8267    1541.5066    
1562.1000    20.9680      67.9837      67.3329      1560.9790    1541.6591    
1562.2524    22.6219      70.8457      67.1390      1561.1313    1541.8113    
1562.4048    22.6219      71.0764      52.7979      1561.2837    1541.9637    
1562.5573    22.5355      70.8064      67.3729      1561.4362    1542.1161    
1562.7096    20.8817      75.7715      48.2344      1561.5885    1542.2686    
1562.8621    20.7954      68.6805      80.8363      1561.7408    1542.4208    
1563.0144    19.1416      68.6806      80.8363      1561.8932    1542.5732    
1563.1669    19.1416      73.4088      59.9473      1562.0457    1542.7256    
1563.3192    17.5741      76.4613      86.0430      1562.1980    1542.8781    
1563.4717    19.2279      75.1398      64.5883      1562.3503    1543.0303    
1563.6240    19.1416      80.4098      71.9656      1562.5027    1543.1827    
1563.7764    19.0552      80.2766      74.3225      1562.6552    1543.3351    
1563.9288    17.4014      76.7508      77.1901      1562.8075    1543.4875    
1564.0812    15.7476      82.6037      90.0399      1562.9598    1543.6398    
1564.2336    15.7476      86.8328      89.5103      1563.1122    1543.7922    
1564.3860    15.6613      80.4455      78.7747      1563.2646    1543.9446    
1564.5385    15.6613      79.3847      63.4003      1563.4170    1544.0970    
1564.6908    15.6613      83.2334      78.8666      1563.5693    1544.2493    
1564.8433    15.6613      82.8338      63.3712      1563.7217    1544.4017    
1564.9956    15.6613      83.9168      97.9899      1563.8741    1544.5541    
1565.1481    15.6613      77.6269      81.9438      1564.0265    1544.7065    
1565.3004    15.6613      86.1999      58.7479      1564.1790    1544.8589    
1565.4528    15.7476      87.2771      84.4101      1564.3312    1545.0112    
1565.6052    15.7476      84.6009      65.9246      1564.4836    1545.1636    
1565.7576    15.8339      86.5312      69.8974      1564.6360    1545.3160    
1565.9100    17.4877      83.4981      71.0293      1564.7885    1545.4684    
1566.0624    19.1416      93.0941      68.5146      1564.9407    1545.6207    
1566.2148    19.0552      86.0991      87.7541      1565.0931    1545.7731    
1566.3672    17.3151      84.9960      84.4778      1565.2455    1545.9255    
1566.5197    15.6613      84.9566      114.2520     1565.3979    1546.0779    
1566.6720    15.6613      85.2125      76.1720      1565.5502    1546.2302    
1566.8245    15.6613      90.4090      64.6628      1565.7026    1546.3826    
1566.9768    17.3151      77.3144      71.2176      1565.8550    1546.5350    
1567.1293    17.3151      85.1769      51.9753      1566.0074    1546.6874    
1567.2816    18.9689      75.2662      73.3046      1566.1597    1546.8397    
1567.4340    17.4014      96.3096      52.9219      1566.3121    1546.9921    
1567.5864    19.1416      85.0138      58.8164      1566.4645    1547.1445    
1567.7388    19.1416      89.1679      95.0230      1566.6169    1547.2969    
1567.8912    19.1416      82.0282      62.5759      1566.7693    1547.4493    
1568.0436    17.4877      82.8888      71.5336      1566.9216    1547.6016    
1568.1960    17.4877      76.8851      55.2826      1567.0740    1547.7540    
1568.3484    17.4014      79.8090      64.2608      1567.2264    1547.9064    
1568.5009    17.3151      85.4638      63.7817      1567.3788    1548.0588    
1568.6532    15.6613      81.8329      76.0888      1567.5311    1548.2111    
1568.8057    15.6613      81.4419      57.4631      1567.6835    1548.3635    
1568.9580    15.6613      80.7173      55.8129      1567.8359    1548.5159    
1569.1105    15.7476      83.1222      72.6548      1567.9883    1548.6683    
1569.2628    17.4877      76.2966      61.2505      1568.1407    1548.8207    
1569.4152    19.1416      79.5043      63.4290      1568.2930    1548.9730    
1569.5676    19.0552      79.5043      63.4290      1568.4454    1549.1254    
1569.7200    17.3151      78.3345      61.4217      1568.5978    1549.2778    
1569.8724    15.6613      86.3826      55.1675      1568.7502    1549.4302    
