~Version Information Block
VERS .                 2.00:  CWLS LOG ASCII STANDARD - VERSION 2.00
WRAP .                   NO:  One line per depth step
~Well Information Block
#MNEM.UNIT        Data Type   Information
#---------- ----------------  -----------
STRT .M           1084.4784:  START DEPTH
STOP .M           2540.6604:  STOP DEPTH
STEP .M              0.1524:  STEP
NULL .              -999.25:  NULL VALUE
COMP .                     :  COMPANY
WELL .               GABA17:  WELL
FLD  .                     :  FIELD
LOC  .   6.675366, 5.270403:  LOCATION
CTRY .                     :  COUNTRY
STAT .                     :  STATE
CNTY .                     :  COUNTY
API  .                     :  API NUMBER
UWI  .                     :  UNIQUE WELL ID
SRVC .                     :  SERVICE COMPANY
DATE .                     :  LOG DATE
~Curve Information Block
#MNEM.UNIT         API CODE   Curve Description
#---------- ----------------  -----------------
DEPTH.M                    :  Reference Depth
BS_COMP.INCHES             :  Bit Size
DRHO_COMP.G/C3             :  Density Correction
GR_COMP.GAPI               :  Gamma Ray
LLS_COMP.OHMM             0:  Resistivity
NPHI_COMP.V/V              :  Neutron Porosity
PEF_COMP.B/E               :  Photo Electric Factor
RHOB_COMP.G/C3             :  Bulk Density
RT_COMP.OHMM               :  True Resistivity
RXO_COMP.OHMM              :  Invaded Zone Resistivity
TVDSS_COMP.M               :  Reference TVD sub-sea log.
TVD_COMP.M                 :  Reference TVD log.
~Parameter Information Block
#MNEM.UNIT            Value   Description
#---------- ----------------  -----------
SET  .                  LCS:  
DEPTH_BOTTOM.M         2530:  Downhole depth
DEPTH_TOP.M            1787:  Downhole depth
UNDER_SAMPLING_RATE.      1:  Full sampling rate if equal to 1
~Other Information Block
#        DEPTH        BS_COMP      DRHO_COMP        GR_COMP       LLS_COMP      NPHI_COMP       PEF_COMP      RHOB_COMP        RT_COMP       RXO_COMP     TVDSS_COMP       TVD_COMP 
~A
# ...
     2531.5164         9.8750       0.102926       107.3454         2.9840       0.290378         3.7754         2.3870      -999.2500      -999.2500      2509.3639      2527.3639
     2531.6688         9.8750       0.110723       107.1471         2.9860       0.300731         3.7796         2.3603      -999.2500      -999.2500      2509.5162      2527.5162
     2531.8212         9.8750       0.128790       106.9998         2.9880       0.312203         3.7786         2.3292      -999.2500      -999.2500      2509.6685      2527.6685
     2531.9736         9.8750       0.141927       107.4179         2.9880       0.322272         3.7629         2.3151      -999.2500      -999.2500      2509.8208      2527.8208
     2532.1260         9.8750       0.135240       108.2163         2.9870       0.330272         3.7397         2.3326      -999.2500      -999.2500      2509.9731      2527.9731
     2532.2784         9.8750       0.107483       108.7754         2.9880       0.335470         3.7196         2.3782      -999.2500      -999.2500      2510.1254      2528.1254
     2532.4308         9.8750       0.076462       108.3843         2.9900       0.336857         3.7059         2.4305      -999.2500      -999.2500      2510.2777      2528.2777
     2532.5832         9.8750       0.063200       107.1608         2.9910       0.335301         3.6799         2.4670      -999.2500      -999.2500      2510.4301      2528.4301
     2532.7356         9.8750       0.068876       106.0905         2.9900       0.333402         3.6321         2.4789      -999.2500      -999.2500      2510.5824      2528.5824
     2532.8880         9.8750       0.079026       106.0464         2.9900       0.333548         3.5901         2.4794      -999.2500      -999.2500      2510.7347      2528.7347
     2533.0404         9.8750       0.085132       106.6945         2.9910       0.336809         3.5629         2.4831      -999.2500      -999.2500      2510.8870      2528.8870
     2533.1928         9.8750       0.086203       107.2737         2.9930       0.341416         3.5327         2.4940      -999.2500      -999.2500      2511.0393      2529.0393
     2533.3452         9.8750       0.084394       107.5715         2.9950       0.344339         3.5012         2.5051      -999.2500      -999.2500      2511.1916      2529.1916
     2533.4976         9.8750       0.085673       107.8803         2.9970       0.344091         3.4734         2.5072      -999.2500      -999.2500      2511.3439      2529.3439
     2533.6500         9.8750       0.096509       107.8748         3.0059       0.341370         3.4467         2.4954      -999.2500      -999.2500      2511.4962      2529.4962
     2533.8024         9.8750       0.112410       107.1439         3.0169       0.340182         3.4348         2.4794      -999.2500      -999.2500      2511.6485      2529.6485
     2533.9548         9.8750       0.122969       105.6992         3.0190       0.343852         3.4442         2.4688      -999.2500      -999.2500      2511.8008      2529.8008
     2534.1072         9.8750       0.123165       104.4239         3.0041       0.349785         3.4539         2.4661      -999.2500      -999.2500      2511.9531      2529.9531
     2534.2596         9.8750       0.114878       104.0157         2.9851       0.353514         3.4561         2.4692      -999.2500      -999.2500      2512.1054      2530.1054
     2534.4120         9.8750       0.107614       104.6425      -999.2500       0.353936         3.4570         2.4724      -999.2500      -999.2500      2512.2577      2530.2577
     2534.5644         9.8750       0.106208       106.1745      -999.2500       0.352696         3.4598         2.4738      -999.2500      -999.2500      2512.4100      2530.4100
     2534.7168         9.8750       0.107038       108.0494      -999.2500       0.350526         3.4592         2.4745      -999.2500      -999.2500      2512.5624      2530.5624
     2534.8692         9.8750       0.105539       109.3481      -999.2500       0.346320         3.4533         2.4757      -999.2500      -999.2500      2512.7147      2530.7147
     2535.0216         9.8750       0.101707       109.2875      -999.2500       0.340702         3.4532         2.4775      -999.2500      -999.2500      2512.8670      2530.8670
     2535.1740         9.8750       0.098568       108.2841      -999.2500       0.335939         3.4659         2.4800      -999.2500      -999.2500      2513.0193      2531.0193
     2535.3264         9.8750       0.100445       107.3403      -999.2500       0.333783         3.4833         2.4840      -999.2500      -999.2500      2513.1716      2531.1716
     2535.4788         9.8750       0.107162       106.9329      -999.2500       0.334169         3.4947         2.4905      -999.2500      -999.2500      2513.3239      2531.3239
     2535.6312         9.8750       0.112550       106.7420      -999.2500       0.336946         3.4897         2.5000      -999.2500      -999.2500      2513.4762      2531.4762
     2535.7836         9.8750       0.111368       106.1684      -999.2500       0.341668         3.4681         2.5115      -999.2500      -999.2500      2513.6285      2531.6285
     2535.9360         9.8750       0.104046       105.4619      -999.2500       0.346843         3.4396         2.5205      -999.2500      -999.2500      2513.7808      2531.7808
     2536.0884         9.8750       0.098774       105.5081      -999.2500       0.350388         3.4070         2.5217      -999.2500      -999.2500      2513.9331      2531.9331
     2536.2408         9.8750       0.103862       106.8930      -999.2500       0.350391         3.3269         2.5104      -999.2500      -999.2500      2514.0854      2532.0854
     2536.3932         9.8750       0.118020       108.8387      -999.2500       0.347840         3.2225         2.4897      -999.2500      -999.2500      2514.2377      2532.2377
