~Version Information Block
VERS .                 2.00:  CWLS LOG ASCII STANDARD - VERSION 2.00
WRAP .                   NO:  One line per depth step
~Well Information Block
#MNEM.UNIT        Data Type   Information
#---------- ----------------  -----------
STRT .M           1084.4784:  START DEPTH
STOP .M           2540.6604:  STOP DEPTH
STEP .M              0.1524:  STEP
NULL .              -999.25:  NULL VALUE
COMP .                     :  COMPANY
WELL .               GABA17:  WELL
FLD  .                     :  FIELD
LOC  .   6.675366, 5.270403:  LOCATION
CTRY .                     :  COUNTRY
STAT .                     :  STATE
CNTY .                     :  COUNTY
API  .                     :  API NUMBER
UWI  .                     :  UNIQUE WELL ID
SRVC .                     :  SERVICE COMPANY
DATE .                     :  LOG DATE
~Curve Information Block
#MNEM.UNIT         API CODE   Curve Description
#---------- ----------------  -----------------
DEPTH.M                    :  Reference Depth
BS_COMP.INCHES             :  Bit Size
DRHO_COMP.G/C3             :  Density Correction
GR_COMP.GAPI               :  Gamma Ray
LLS_COMP.OHMM             0:  Resistivity
NPHI_COMP.V/V              :  Neutron Porosity
PEF_COMP.B/E               :  Photo Electric Factor
RHOB_COMP.G/C3             :  Bulk Density
RT_COMP.OHMM               :  True Resistivity
RXO_COMP.OHMM              :  Invaded Zone Resistivity
TVDSS_COMP.M               :  Reference TVD sub-sea log.
TVD_COMP.M                 :  Reference TVD log.
~Parameter Information Block
#MNEM.UNIT            Value   Description
#---------- ----------------  -----------
SET  .                  LCS:  
DEPTH_BOTTOM.M         2530:  Downhole depth
DEPTH_TOP.M            1787:  Downhole depth
UNDER_SAMPLING_RATE.      1:  Full sampling rate if equal to 1
~Other Information Block
#        DEPTH        BS_COMP      DRHO_COMP        GR_COMP       LLS_COMP      NPHI_COMP       PEF_COMP      RHOB_COMP        RT_COMP       RXO_COMP     TVDSS_COMP       TVD_COMP 
~A
# ...
     2284.6284         9.8750       0.126497        81.6831        16.8764       0.309535         2.8959         2.2977         8.1776         9.4465      2262.7245      2280.7245
     2284.7808         9.8750       0.087911        70.2109        14.7177       0.273316         2.8931         2.3179        11.2449        12.5939      2262.8767      2280.8767
     2284.9332         9.8750       0.056917        58.3280        12.0039       0.247210         2.7245         2.3222        14.3049        15.7340      2263.0289      2281.0289
     2285.0856         9.8750       0.043826        50.8154         9.6118       0.233815         2.4872         2.3145        15.3551        16.6748      2263.1811      2281.1811
     2285.2380         9.8750       0.041060        50.0313         7.9012       0.233434         2.3074         2.3039        13.8377        14.8059      2263.3333      2281.3333
     2285.3904         9.8750       0.039642        54.4877         6.8014       0.244508         2.2608         2.2974        12.0114        12.5993      2263.4855      2281.4855
     2285.5428         9.8750       0.041223        63.8677         6.0355       0.271866         2.3331         2.2990        10.2542        10.6382      2263.6376      2281.6376
     2285.6952         9.8750       0.046515        76.0557         5.3678       0.313727         2.3805         2.3107         8.5742         8.9519      2263.7898      2281.7898
     2285.8476         9.8750       0.050577        88.9903         4.7087       0.365806         2.4592         2.3298         6.9381         7.3218      2263.9420      2281.9420
     2286.0000         9.8750       0.048955       100.2158         4.1182       0.417633         2.5510         2.3417         5.7099         6.0660      2264.0942      2282.0942
     2286.1524         9.8750       0.044393       108.1833         3.7164       0.461483         2.5807         2.3321         5.0290         5.3124      2264.2464      2282.2464
     2286.3048         9.8750       0.045863       112.9150         3.5096       0.496029         2.5712         2.3040         4.3497         4.5605      2264.3986      2282.3986
     2286.4572         9.8750       0.055052       115.2037         3.4687       0.521743         2.5707         2.2734         3.9221         4.0940      2264.5508      2282.5508
     2286.6096         9.8750       0.064729       115.8648         3.4720       0.537089         2.5762         2.2558         3.7021         3.8629      2264.7030      2282.7030
     2286.7620         9.8750       0.072167       115.0691         3.4174       0.540925         2.5609         2.2555         3.4826         3.6323      2264.8552      2282.8552
     2286.9144         9.8750       0.079658       112.4767         3.3234       0.533102         2.5427         2.2734         3.3654         3.5066      2265.0074      2283.0074
     2287.0668         9.8750       0.085469       108.4296         3.2863       0.518295         2.5742         2.3051         3.3088         3.4431      2265.1596      2283.1596
     2287.2192         9.8750       0.085368       104.3941         3.3887       0.504795         2.7300         2.3413         3.2743         3.4068      2265.3118      2283.3118
     2287.3716         9.8750       0.079901       101.9392         3.6682       0.499422         2.9580         2.3662         3.3736         3.5369      2265.4639      2283.4639
     2287.5240         9.8750       0.073123       101.5143         4.1300       0.504403         3.0875         2.3621         3.5751         3.7941      2265.6161      2283.6161
     2287.6764         9.8750       0.071673       101.3547         4.7645       0.511305         3.0084         2.3361         3.8181         4.1011      2265.7683      2283.7683
     2287.8288         9.8750       0.078248        99.8540         5.5797       0.509117         2.7539         2.3078         4.3743         4.7836      2265.9205      2283.9205
     2287.9812         9.8750       0.087758        97.0686         6.5350       0.494908         2.5272         2.2962         5.1044         5.6749      2266.0727      2284.0727
     2288.1336         9.8750       0.094088        93.9287         7.5177       0.472648         2.4764         2.3092         5.8328         6.5640      2266.2249      2284.2249
     2288.2860         9.8750       0.094458        90.6905         8.4104       0.449257         2.5518         2.3377         6.6126         7.5697      2266.3771      2284.3771
     2288.4384         9.8750       0.090064        86.6697         9.2533       0.427727         2.6445         2.3654         7.4023         8.5996      2266.5293      2284.5293
     2288.5908         9.8750       0.085277        81.4905        10.3033       0.406863         2.6868         2.3759         8.3053         9.7912      2266.6815      2284.6815
     2288.7432         9.8750       0.083473        75.9379        11.9310       0.384426         2.7036         2.3641         9.6737        11.6471      2266.8337      2284.8337
     2288.8956         9.8750       0.085501        71.6303        14.2213       0.358920         2.7115         2.3386        11.2461        13.7942      2266.9859      2284.9859
     2289.0480         9.8750       0.088386        69.3127        16.7951       0.330788         2.6936         2.3124        12.7034        15.7276      2267.1381      2285.1381
     2289.2004         9.8750       0.087695        67.7900        18.6981       0.302085         2.6234         2.2920        13.7830        16.9556      2267.2903      2285.2903
     2289.3528         9.8750       0.081462        64.5631        19.2699       0.275464         2.4960         2.2749        14.7175        17.9140      2267.4424      2285.4424
     2289.5052         9.8750       0.069876        57.6346        18.8355       0.254459         2.3215         2.2578        15.5926        18.7990      2267.5946      2285.5946
     2289.6576         9.8750       0.054416        48.2559        18.0799       0.240072         2.1381         2.2409        14.7930        17.6417      2267.7468      2285.7468
     2289.8100         9.8750       0.037183        39.1795        17.1473       0.231994         1.9956         2.2244        13.9932        16.4898      2267.8990      2285.8990
     2289.9624         9.8750       0.022229        32.1240        15.4799       0.229265         1.9142         2.2065        13.1984        15.3453      2268.0512      2286.0512
     2290.1148         9.8750       0.013313        27.8032        12.6362       0.232316         1.8905         2.1851        11.8412        13.6088      2268.2034      2286.2034
     2290.2672         9.8750       0.012204        26.0191         9.4244       0.238338         1.8938         2.1621        10.0372        11.4026      2268.3556      2286.3556
     2290.4196         9.8750       0.022131        26.5585         6.9691       0.244937         1.8989         2.1439         8.1096         9.0676      2268.5078      2286.5078
     2290.5720         9.8750       0.045385        29.3225         5.4468       0.257852         1.9071         2.1376         6.3764         6.9814      2268.6600      2286.6600
     2290.7244         9.8750       0.077226        34.5620         4.6362       0.285977         1.9284         2.1488         5.2264         5.6429      2268.8122      2286.8122
     2290.8768         9.8750       0.104391        43.0979         4.2380       0.328966         1.9552         2.1803         4.6757         5.0727      2268.9644      2286.9644
     2291.0292         9.8750       0.115987        55.1169         4.0379       0.377128         1.9869         2.2299         4.1283         4.5060      2269.1166      2287.1166
     2291.1816         9.8750       0.111276        68.7935         3.9243       0.417869         2.0595         2.2889         3.6742         4.0346      2269.2687      2287.2687
     2291.3340         9.8750       0.098826        80.9716         3.8766       0.444280         2.1828         2.3446         3.5596         3.9098      2269.4209      2287.4209
