~Version Information Block
VERS .                 2.00:  CWLS LOG ASCII STANDARD - VERSION 2.00
WRAP .                   NO:  One line per depth step
~Well Information Block
#MNEM.UNIT        Data Type   Information
#---------- ----------------  -----------
STRT .M              0.0000:  START DEPTH
STOP .M           2748.9912:  STOP DEPTH
STEP .M              0.1524:  STEP
NULL .              -999.25:  NULL VALUE
COMP .                     :  COMPANY
WELL .               GABO13:  LOCATION
FLD  .                     :  FIELD
LOC  .   6.617986, 5.233868:  LOCATION
CTRY .                     :  COUNTRY
STAT .                     :  STATE
CNTY .                     :  COUNTY
API  .                     :  API NUMBER
UWI  .                     :  UNIQUE WELL ID
SRVC .                     :  SERVICE COMPANY
DATE .                     :  LOG DATE
~Curve Information Block
#MNEM.UNIT         API CODE   Curve Description
#---------- ----------------  -----------------
DEPTH.M                    :  Depth
BS_COMP.INCHES             :  Bit Size
CALI_COMP.INCHES          0:  Caliper
DRHO_COMP.G/C3             :  Density Correction Log
DT_COMP.US/F              0:  Compressional Sonic
ECART_COMP.                :  Neutron Density Seperation
GR_COMP.GAPI              0:  Gamma Ray
NPHI_COMP.V/V              :  Neutron Porosity
PEF_COMP.B/E              0:  Photo Electric Factor
RHOB_COMP.G/C3            0:  Bulk Density
RDeep_COMP.OHMM           0:  Deep Resistivity
RShal_COMP.OHMM           0:  Shallow Resistivity
SP_COMP.MV                0:  Spontaneous Potential
TVDSS_COMP.M               :  Reference TVD sub-sea log.
TVD_COMP.M                 :  Reference TVD log.
~Parameter Information Block
#MNEM.UNIT            Value   Description
#---------- ----------------  -----------
SET  .                  LCS:  
~Other Information Block
#        DEPTH        BS_COMP      CALI_COMP      DRHO_COMP        DT_COMP     ECART_COMP        GR_COMP      NPHI_COMP       PEF_COMP      RHOB_COMP      RDeep_COMP     RShal_COMP        SP_COMP     TVDSS_COMP       TVD_COMP 
~A
# ...
     2389.0224        12.2500        12.0527       0.071850        95.9367        -0.4552        47.2190       0.245952         2.6815         2.2673        17.6037         9.5678       -19.0124      2374.8083      2388.6083
     2389.1748        12.2500        12.0525       0.076409        95.3164        -0.4432        47.8977       0.246077         2.5878         2.2677        19.2609         9.8837       -19.6062      2374.9603      2388.7603
     2389.3272        12.2500        12.0456       0.093105        94.3680        -0.2380        48.3916       0.247810         2.5335         2.2751        20.2489         9.7850       -20.0040      2375.1123      2388.9123
     2389.4796        12.2500        12.0402       0.099775        93.5318        -0.5949        46.2876       0.241736         2.4486         2.2674        20.4819         9.2516       -20.3428      2375.2643      2389.0643
     2389.6320        12.2500        12.0648       0.088642        92.9890        -1.3702        42.8579       0.227959         2.3462         2.2516        20.0334         8.4936       -20.6331      2375.4163      2389.2163
     2389.7844        12.2500        12.1210       0.065218        92.7114        -2.1236        40.4263       0.211570         2.2652         2.2412        19.0545         7.7751       -20.8330      2375.5683      2389.3683
     2389.9368        12.2500        12.1624       0.037422        92.4148        -2.5882        43.3527       0.198089         2.2153         2.2405        17.7848         7.2885       -20.9136      2375.7203      2389.5203
     2390.0892        12.2500        12.1990       0.012150        91.9658        -2.7810        47.3849       0.189374         2.1848         2.2453        16.5517         7.0692       -20.8743      2375.8723      2389.6723
     2390.2416        12.2500        12.2222      -0.006142        91.5884        -2.8459        49.1484       0.183642         2.1593         2.2516        15.4971         7.0697       -20.9239      2376.0243      2389.8243
     2390.3940        12.2500        12.2270      -0.014446        91.4454        -2.7726        48.7364       0.182923         2.1286         2.2565        14.6308         7.2499       -21.1590      2376.1762      2389.9762
     2390.5464        12.2500        12.2270      -0.011649        91.5067        -2.4329        48.1294       0.191862         2.0893         2.2586        13.9462         7.5440       -21.4580      2376.3282      2390.1282
     2390.6988        12.2500        12.2275      -0.002504        91.7539        -1.9520        47.2633       0.205321         2.0524         2.2602        13.3983         7.8090       -21.7589      2376.4802      2390.2802
     2390.8512        12.2500        12.2590       0.007822        92.1572        -1.6471        45.5376       0.214638         2.0284         2.2599        12.9519         7.9881       -22.0353      2376.6322      2390.4322
     2391.0036        12.2500        12.3065       0.016697        92.5324        -1.6768        43.3845       0.216582         2.0209         2.2552        12.6010         8.1275       -22.2498      2376.7842      2390.5842
     2391.1560        12.2500        12.3200       0.021502        92.6662        -1.8354        41.8171       0.216428         2.0333         2.2475        12.3463         8.2784       -22.4135      2376.9362      2390.7362
     2391.3084        12.2500        12.3200       0.018984        92.5912        -1.5167        39.2614       0.228498         2.0687         2.2433        12.1717         8.4149       -22.6391      2377.0882      2390.8882
     2391.4608        12.2500        12.3200       0.011594        92.4663        -0.7493        38.3837       0.251334         2.1175         2.2436        12.0330         8.5042       -22.9255      2377.2401      2391.0401
     2391.6132        12.2500        12.3252       0.004532        92.7518        -0.1454        39.3871       0.266602         2.1693         2.2484        11.8981         8.5237       -23.1041      2377.3921      2391.1921
     2391.7656        12.2500        12.3427       0.003384        93.6238        -0.0895        40.7888       0.263199         2.2231         2.2569        11.7632         8.4201       -23.0689      2377.5441      2391.3441
     2391.9180        12.2500        12.3861       0.012469        94.3540        -0.2309        41.4259       0.255967         2.2695         2.2618        11.6460         8.1215       -22.9490      2377.6961      2391.4961
     2392.0704        12.2500        12.4107       0.025616        94.8737        -0.3140        40.5782       0.254910         2.2636         2.2594        11.5481         7.7145       -22.7610      2377.8481      2391.6481
     2392.2228        12.2500        12.4411       0.032944        95.2746        -0.1804        39.8062       0.260983         2.2112         2.2560        11.4748         7.3414       -22.5086      2378.0000      2391.8000
     2392.3752        12.2500        12.5077       0.032269        95.4376         0.2224        40.5023       0.272259         2.1690         2.2573        11.4430         7.1025       -22.2463      2378.1520      2391.9520
     2392.5276        12.2500        12.5429       0.031980        95.4143         0.6681        41.4494       0.284526         2.1784         2.2592        11.4705         7.0263       -21.9934      2378.3040      2392.1040
     2392.6800        12.2500        12.4962       0.034904        95.4486         1.1325        41.8681       0.301459         2.1922         2.2542        11.5539         7.0065       -21.6935      2378.4560      2392.2560
     2392.8324        12.2500        12.3872       0.036483        95.4955         1.8538        42.5422       0.329116         2.1987         2.2441        11.6661         6.9656       -21.2500      2378.6080      2392.4080
     2392.9848        12.2500        12.2701       0.038081        95.4907         2.6137        44.1106       0.356872         2.2278         2.2359        11.7699         6.8925       -20.7227      2378.7599      2392.5599
     2393.1372        12.2500        12.2860       0.050243        95.5389         2.6316        46.7732       0.357236         2.2881         2.2362        11.8154         6.8001       -20.3137      2378.9119      2392.7119
     2393.2896        12.2500        12.3730       0.074666        95.5487         1.8922        47.0553       0.329865         2.3418         2.2449        11.7621         6.7278       -19.9371      2379.0639      2392.8639
     2393.4420        12.2500        12.4399       0.099501        95.5169         0.9271        44.7732       0.297423         2.3709         2.2507        11.6076         6.7103       -19.4719      2379.2158      2393.0158
     2393.5944        12.2500        12.4592       0.109289        95.4592        -0.0832        42.5171       0.269294         2.3805         2.2471        11.3634         6.7576       -18.9372      2379.3678      2393.1678
     2393.7468        12.2500        12.4292       0.091763        95.3937        -1.1609        45.3550       0.241578         2.3751         2.2394        11.0450         6.8521       -18.3295      2379.5198      2393.3198
     2393.8992        12.2500        12.4149       0.054484        95.5758        -1.8774        50.0334       0.221277         2.3465         2.2374        10.6593         6.9429       -17.4378      2379.6718      2393.4718
     2394.0516        12.2500        12.4140       0.021903        95.9194        -1.9750        55.0826       0.217632         2.2831         2.2385        10.1403         6.9882       -16.1984      2379.8237      2393.6237
     2394.2040        12.2500        12.4147       0.005096        95.8904        -1.3806        62.9607       0.235699         2.2189         2.2381         9.4460         6.9727       -14.7341      2379.9757      2393.7757
     2394.3564        12.2500        12.4171      -0.000338        94.7563        -0.1323        77.5440       0.274385         2.2174         2.2360         8.6076         6.7830       -12.9527      2380.1277      2393.9277
