~Version Information Block
VERS .                 2.00:  CWLS LOG ASCII STANDARD - VERSION 2.00
WRAP .                   NO:  One line per depth step
~Well Information Block
#MNEM.UNIT        Data Type   Information
#---------- ----------------  -----------
STRT .M              0.0000:  START DEPTH
STOP .M           2748.9912:  STOP DEPTH
STEP .M              0.1524:  STEP
NULL .              -999.25:  NULL VALUE
COMP .                     :  COMPANY
WELL .               GABO13:  LOCATION
FLD  .                     :  FIELD
LOC  .   6.617986, 5.233868:  LOCATION
CTRY .                     :  COUNTRY
STAT .                     :  STATE
CNTY .                     :  COUNTY
API  .                     :  API NUMBER
UWI  .                     :  UNIQUE WELL ID
SRVC .                     :  SERVICE COMPANY
DATE .                     :  LOG DATE
~Curve Information Block
#MNEM.UNIT         API CODE   Curve Description
#---------- ----------------  -----------------
DEPTH.M                    :  Depth
BS_COMP.INCHES             :  Bit Size
CALI_COMP.INCHES          0:  Caliper
DRHO_COMP.G/C3             :  Density Correction Log
DT_COMP.US/F              0:  Compressional Sonic
ECART_COMP.                :  Neutron Density Seperation
GR_COMP.GAPI              0:  Gamma Ray
NPHI_COMP.V/V              :  Neutron Porosity
PEF_COMP.B/E              0:  Photo Electric Factor
RHOB_COMP.G/C3            0:  Bulk Density
RDeep_COMP.OHMM           0:  Deep Resistivity
RShal_COMP.OHMM           0:  Shallow Resistivity
SP_COMP.MV                0:  Spontaneous Potential
TVDSS_COMP.M               :  Reference TVD sub-sea log.
TVD_COMP.M                 :  Reference TVD log.
~Parameter Information Block
#MNEM.UNIT            Value   Description
#---------- ----------------  -----------
SET  .                  LCS:  
~Other Information Block
#        DEPTH        BS_COMP      CALI_COMP      DRHO_COMP        DT_COMP     ECART_COMP        GR_COMP      NPHI_COMP       PEF_COMP      RHOB_COMP      RDeep_COMP     RShal_COMP        SP_COMP     TVDSS_COMP       TVD_COMP 
~A
     1950.1104        12.2500        16.1674    -999.250000      -999.2500      -999.2500        42.9280    -999.250000      -999.2500      -999.2500      -999.2500      -999.2500      -999.2500      1936.0878      1949.8878
     1950.2628        12.2500        15.9981       0.006745       102.4769      -999.2500        43.5953       0.222705         2.1540         2.2086        17.6208         3.2756        12.3444      1936.2401      1950.0401
     1950.4152        12.2500        15.8465       0.007077       102.9871      -999.2500        43.8481       0.230439         2.0930         2.1975        17.6668         3.8073        12.6001      1936.3925      1950.1925
     1950.5676        12.2500        15.8003       0.008721       103.8770      -999.2500        43.4208       0.231634         2.0180         2.1900        17.6055         4.2904        12.9252      1936.5448      1950.3448
     1950.7200        12.2500        15.7994       0.009424       104.7075      -999.2500        41.9835       0.231107         1.9366         2.1889        17.4046         4.6176        13.1914      1936.6972      1950.4972
     1950.8724        12.2500        15.7995       0.006587       105.3039      -999.2500        39.7106       0.228764         1.8769         2.1910        17.0894         4.7820        13.4653      1936.8495      1950.6495
     1951.0248        12.2500        15.7984       0.000951       105.5645      -999.2500        38.3384       0.220210         1.8512         2.1936        16.7258         4.8595        13.7812      1937.0019      1950.8019
     1951.1772        12.2500        15.7982      -0.005165       105.3947      -999.2500        39.1874       0.203827         1.8484         2.1950        16.3945         4.9267        14.0578      1937.1542      1950.9542
     1951.3296        12.2500        15.7999      -0.010678       104.8962      -999.2500        41.8638       0.186742         1.8549         2.1941        16.1940         5.0187        14.2607      1937.3066      1951.1066
     1951.4820        12.2500        15.6967      -0.015923       104.2226      -999.2500        44.8745       0.182474         1.8779         2.1948        16.1606         5.0817        14.5599      1937.4589      1951.2589
     1951.6344        12.2500        15.5282      -0.019044       103.5099      -999.2500        45.5332       0.192753         1.9127         2.2008        16.2690         5.0137        14.9027      1937.6113      1951.4113
     1951.7868        12.2500        15.3541      -0.016682       102.9331      -999.2500        43.0314       0.205035         1.9428         2.2113        16.4937         4.7761        15.1502      1937.7636      1951.5636
     1951.9392        12.2500        15.2010      -0.005215       102.8048      -999.2500        39.6560       0.203778         1.9543         2.2205        16.8247         4.4446        15.3344      1937.9160      1951.7160
     1952.0916        12.2500        15.0657       0.014747       103.4103      -999.2500        40.5317       0.196328         1.9463         2.2207        17.2443         4.1660        15.5730      1938.0683      1951.8683
     1952.2440        12.2500        14.9857       0.032692       104.5597      -999.2500        42.9949       0.195381         1.9241         2.2113        17.7113         4.0274        15.8013      1938.2207      1952.0207
     1952.3964        12.2500        14.9528       0.037153       105.8459      -999.2500        44.0613       0.200611         1.8877         2.1977        18.1859         4.0315        15.9554      1938.3730      1952.1730
     1952.5488        12.2500        14.8963       0.024762       106.8575      -999.2500        41.9262       0.207447         1.8367         2.1869        18.6153         4.1504        16.1322      1938.5254      1952.3254
     1952.7012        12.2500        14.8674       0.007680       107.3554      -999.2500        41.3080       0.219659         1.7909         2.1820        18.9082         4.3646        16.4494      1938.6777      1952.4777
     1952.8536        12.2500        14.8634      -0.005154       107.4938      -999.2500        41.4821       0.226107         1.7722         2.1799        19.0178         4.6141        16.6971      1938.8301      1952.6301
     1953.0060        12.2500        14.8665      -0.012047       107.3968      -999.2500        40.8073       0.216197         1.7743         2.1800        18.9410         4.8399        16.6801      1938.9824      1952.7824
     1953.1584        12.2500        14.8694      -0.014165       107.1267      -999.2500        38.5645       0.197619         1.7695         2.1848        18.6923         4.9639        16.4736      1939.1347      1952.9347
     1953.3108        12.2500        14.8700      -0.015215       106.8070      -999.2500        37.1358       0.195884         1.7424         2.1940        18.3194         4.8597        16.3596      1939.2871      1953.0871
     1953.4632        12.2500        14.8715      -0.015115       106.1884      -999.2500        35.9616       0.212550         1.7244         2.1999        17.8889         4.5790        16.2895      1939.4394      1953.2394
     1953.6156        12.2500        14.8737      -0.011699       105.5088      -999.2500        34.9930       0.234867         1.7327         2.1972        17.4598         4.2679        16.1827      1939.5918      1953.3918
     1953.7680        12.2500        14.8747      -0.005541       105.3214      -999.2500        34.7285       0.247793         1.7505         2.1874        17.0939         4.0580        16.1078      1939.7441      1953.5441
     1953.9204        12.2500        14.8726      -0.001781       105.7638      -999.2500        33.6414       0.236033         1.7471         2.1778        16.8619         4.0347        16.1398      1939.8965      1953.6965
     1954.0728        12.2500        14.8695      -0.002822       106.6014      -999.2500        34.0238       0.211611         1.7249         2.1746        16.7724         4.1378        16.2071      1940.0488      1953.8488
     1954.2252        12.2500        14.8692      -0.007724       107.2585      -999.2500        35.4510       0.193598         1.7039         2.1776        16.7942         4.2540        16.2478      1940.2012      1954.0012
     1954.3776        12.2500        14.8725      -0.013110       107.4280      -999.2500        36.5614       0.189511         1.6901         2.1844        16.8912         4.3235        16.3101      1940.3536      1954.1536
     1954.5300        12.2500        14.8720      -0.013586       107.4436      -999.2500        36.8699       0.194232         1.6875         2.1915        17.0080         4.3675        16.4497      1940.5059      1954.3059
     1954.6824        12.2500        14.8729      -0.009762       107.3590      -999.2500        37.0129       0.196721         1.7318         2.1950        17.0731         4.4535        16.4939      1940.6583      1954.4583
     1954.8348        12.2500        14.8743      -0.005849       106.7455      -999.2500        38.5461       0.194530         1.8114         2.1979        17.0440         4.6068        16.4128      1940.8106      1954.6106
     1954.9872        12.2500        14.8739      -0.003801       105.6542      -999.2500        40.9714       0.193672         1.8800         2.2055        16.8894         4.7582        16.3300      1940.9630      1954.7630
     1955.1396        12.2500        14.8719      -0.002933       104.8595      -999.2500        39.5362       0.199027         1.9010         2.2168        16.5569         4.7508        16.3223      1941.1153      1954.9153
     1955.2920        12.2500        14.9041      -0.002804       104.7548      -999.2500        38.3084       0.203153         1.8776         2.2216        16.0081         4.5080        16.3108      1941.2677      1955.0677
     1955.4444        12.2500        14.9673      -0.003847       105.1505      -999.2500        38.0975       0.206768         1.8283         2.2203        15.2619         4.1295        16.2906      1941.4200      1955.2200
