~Version Information Block
VERS .                 2.00:  CWLS LOG ASCII STANDARD - VERSION 2.00
WRAP .                   NO:  One line per depth step
~Well Information Block
#MNEM.UNIT        Data Type   Information
#---------- ----------------  -----------
STRT .M           1550.0604:  START DEPTH
STOP .M           3909.9744:  STOP DEPTH
STEP .M              0.1524:  STEP
NULL .              -999.25:  NULL VALUE
COMP .                     :  COMPANY
WELL .               GABO52:  WELL
FLD  .                     :  FIELD
LOC  .   6.643655, 5.227736:  LOCATION
CTRY .                     :  COUNTRY
STAT .                     :  STATE
CNTY .                     :  COUNTY
API  .                     :  API NUMBER
UWI  .                     :  UNIQUE WELL ID
SRVC .                     :  SERVICE COMPANY
DATE .                     :  LOG DATE
~Curve Information Block
#MNEM.UNIT         API CODE   Curve Description
#---------- ----------------  -----------------
DEPTH.M                    :  Depth
DRHO .G/C3                 :  Density Correction Log
DTS_COMP.US/F              :  Shear Sonic 
DT_COMP.US/F               :  Compressional Sonic
GR_COMP.GAPI               :  Gamma Ray
HCAL .INCHES               :  Caliper
NPHI_COMP.V/V              :  Neutron Porosity
PEF_COMP.B/E               :  Photo Electric Factor
RDEEP_COMP.OHMM            :  Deep Resistivity
RHOB_COMP.G/C3             :  Bulk Density
RSHAL_COMP.OHMM            :  Shallow Resistivity
TVD  .M                    :  Reference TVD
TVDSS.M                    :  Reference TVDss
~Parameter Information Block
#MNEM.UNIT            Value   Description
#---------- ----------------  -----------
SET  .                  LCS:  
~Other Information Block
#        DEPTH           DRHO       DTS_COMP        DT_COMP        GR_COMP           HCAL      NPHI_COMP       PEF_COMP     RDEEP_COMP      RHOB_COMP     RSHAL_COMP            TVD          TVDSS 
~A
# ...
     3660.0384       0.066597       165.4131        88.4230       126.5575         8.7257       0.311195         3.8630         2.5802         2.5520         2.6610      3180.3843      3160.2642
     3660.1908       0.071561       167.8093        90.3192       125.4505         8.7594       0.315543         3.8569         2.4361         2.5544         2.5430      3180.5017      3160.3816
     3660.3432       0.081381       172.7725        92.6651       127.0300         8.7818       0.344417         3.8198         2.3454         2.5417         2.4052      3180.6191      3160.4990
     3660.4956       0.087030       176.7854        94.1102       126.7043         8.7482       0.414276         3.7825         2.2858         2.5234         2.3376      3180.7366      3160.6165
     3660.6480       0.084570       177.7637        95.4771       124.9147         8.7033       0.424604         3.7458         2.2216         2.5082         2.2730      3180.8540      3160.7339
     3660.8004       0.084887       180.0699        95.8504       124.6572         8.7706       0.436918         3.7237         2.1611         2.5187         2.2189      3180.9717      3160.8516
     3660.9528       0.080986       183.6478        97.0963       125.3325         8.8043       0.408242         3.7249         2.0933         2.5263         2.1702      3181.0891      3160.9690
     3661.1052       0.073902       179.8675        96.6105       124.6262         8.7706       0.393756         3.7621         2.0521         2.5192         2.1212      3181.2065      3161.0864
     3661.2576       0.073462       180.5728        96.9491       120.9860         8.8043       0.371621         3.8160         1.9970         2.5023         2.0712      3181.3242      3161.2041
     3661.4100       0.084011       184.2741        97.2314       119.6469         8.8379       0.381272         3.8491         1.9458         2.4848         2.0155      3181.4417      3161.3215
     3661.5624       0.101276       185.7147        97.7939       120.4732         8.8828       0.383657         3.8388         1.9107         2.4858         1.9775      3181.5591      3161.4390
     3661.7148       0.103231       186.5374        96.5354       120.1370         8.8828       0.432859         3.7798         1.8712         2.4805         1.9598      3181.6765      3161.5564
     3661.8672       0.106146       186.2352        95.9750       119.5448         9.0287       0.415439         3.7232         1.8420         2.4916         1.9337      3181.7939      3161.6738
     3662.0196       0.099571       188.2383        95.1718       120.1172         8.9951       0.422581         3.6777         1.8509         2.4841         1.9279      3181.9114      3161.7913
     3662.1720       0.096821       190.8863        95.6912       118.7683         8.9726       0.394891         3.6542         1.8651         2.4921         1.9575      3182.0288      3161.9087
     3662.3244       0.079894       190.7230        96.0950       121.6685         8.9053       0.367990         3.6392         1.8896         2.4780         1.9919      3182.1462      3162.0261
     3662.4768       0.069334       189.9758        95.1145       124.2856         8.8155       0.367299         3.6548         1.9277         2.4773         2.0437      3182.2639      3162.1438
     3662.6292       0.065192       187.8092        95.0564       130.0107         8.8604       0.400367         3.7027         1.9567         2.4787         2.0924      3182.3813      3162.2612
     3662.7816       0.071000       185.3463        94.8026       127.9640         8.9053       0.441202         3.7576         1.9633         2.4876         2.0980      3182.4988      3162.3787
     3662.9340       0.078522       187.3071        94.7068       124.2110         8.9502       0.457869         3.7766         1.9496         2.4931         2.0763      3182.6162      3162.4961
     3663.0864       0.090315       185.8327        95.2880       120.1160         8.9502       0.394135         3.7723         1.9200         2.4976         2.0284      3182.7336      3162.6135
     3663.2388       0.099304       184.4391        95.0262       119.9595         8.9951       0.400200         3.7776         1.8902         2.5129         1.9826      3182.8511      3162.7310
     3663.3912       0.095590       188.1676        94.9800       122.6182         8.8941       0.397197         3.7982         1.8804         2.5224         1.9686      3182.9685      3162.8484
     3663.5436       0.088609       187.1274        94.4332       121.0239         8.8604       0.442795         3.8222         1.8794         2.5282         1.9933      3183.0862      3162.9661
     3663.6960       0.078661       185.8108        94.3861       120.0045         8.8828       0.417106         3.8176         1.8599         2.5132         1.9944      3183.2036      3163.0835
     3663.8484       0.072281       187.1632        94.3551       119.7889         9.0848       0.415144         3.7971         1.8179         2.4974         1.9371      3183.3210      3163.2009
     3664.0008       0.060250       185.4725        94.7397       123.4675         8.8828       0.402213         3.7550         1.7840         2.4913         1.8855      3183.4385      3163.3184
     3664.1532       0.058418       187.5156        94.6049       120.3187         8.8828       0.407646         3.7236         1.7561         2.5039         1.8593      3183.5559      3163.4358
     3664.3056       0.065400       185.9835        95.9890       116.9338         8.9277       0.427629         3.7100         1.7235         2.5164         1.8430      3183.6733      3163.5532
     3664.4580       0.076388       191.3775        96.0098       114.6155         8.8604       0.438178         3.7198         1.7098         2.5121         1.8072      3183.7908      3163.6707
     3664.6104       0.086148       190.0132        95.6559       118.1095         8.9726       0.460699         3.7360         1.6761         2.5112         1.7862      3183.9084      3163.7883
     3664.7628       0.099393       193.0397        96.2961       117.0750         8.9053       0.425379         3.7554         1.6334         2.5193         1.7577      3184.0259      3163.9058
     3664.9152       0.119562       193.5718        96.1463       116.7219         8.8155       0.462822         3.7877         1.5938         2.5376         1.7184      3184.1433      3164.0232
     3665.0676       0.125691       192.6410        96.3775       119.3420         9.0400       0.457863         3.8344         1.5635         2.5331         1.6849      3184.2607      3164.1406
     3665.2200       0.121977       192.0893        96.4339       122.3380         9.1073       0.433554         3.8935         1.5798         2.5334         1.7161      3184.3782      3164.2581
     3665.3724       0.108049       192.4876        96.5220       123.1141         9.0400       0.399219         3.9486         1.6143         2.5241         1.7566      3184.4956      3164.3755
     3665.5248       0.097572       191.0672        95.2758       122.9991         8.7482       0.383651         3.9484         1.6614         2.5226         1.8070      3184.6130      3164.4929
     3665.6772       0.086883       189.7651        96.5058       120.9297         8.7931       0.416154         3.8819         1.7115         2.4992         1.8837      3184.7307      3164.6106
     3665.8296       0.083760       189.1004        94.2025       119.8141         8.7931       0.423954         3.7745         1.7654         2.4932         1.9580      3184.8481      3164.7280
     3665.9820       0.084797       186.8722        92.6417       118.1649         8.8379       0.436729         3.6908         1.7797         2.4912         1.9774      3184.9656      3164.8455
     3666.1344       0.088691       187.2761        93.3272       120.0285         8.8604       0.429113         3.6537         1.7883         2.5046         1.9669      3185.0833      3164.9631
     3666.2868       0.090189       186.3435        93.0783       119.8298         8.9053       0.426809         3.6642         1.7946         2.4972         1.9512      3185.2009      3165.0808
