~Version Information Block
VERS .                 2.00:  CWLS LOG ASCII STANDARD - VERSION 2.00
WRAP .                   NO:  One line per depth step
~Well Information Block
#MNEM.UNIT        Data Type   Information
#---------- ----------------  -----------
STRT .M              0.0000:  START DEPTH
STOP .M           2799.8928:  STOP DEPTH
STEP .M              0.1524:  STEP
NULL .              -999.25:  NULL VALUE
COMP .                     :  COMPANY
WELL .              GABO-18:  WELL
FLD  .                     :  FIELD
LOC  .   6.635779, 5.238893:  LOCATION
CTRY .                     :  COUNTRY
STAT .                     :  STATE
CNTY .                     :  COUNTY
API  .                     :  API NUMBER
UWI  .                     :  UNIQUE WELL ID
SRVC .                     :  SERVICE COMPANY
DATE .                     :  LOG DATE
~Curve Information Block
#MNEM.UNIT         API CODE   Curve Description
#---------- ----------------  -----------------
DEPTH.M                    :  Reference Depth
BS_COMP.INCHES             :  Bit Size
CALI_COMP.INCHES          0:  Caliper
DRHO_COMP.G/C3            0:  Density Correction Log
ECART_COMP.                :  Neutron Density Seperation
GR   .GAPI                0:  Gamma Ray
GR_COMP.GAPI              0:  Gamma Ray Composite
NPHI .V/V                  :  Neutron Porosity
NPHI_COMP.V/V              :  Neutron Porosity Composite
PEF_COMP.B/E              0:  Photo Electric Factor
RHOB_COMP.G/C3            0:  Bulk Density
RT   .OHMM                0:  True or Deep Resistivity
RT_COMP.OHMM              0:  True or Deep Resistivity Composite
RXO  .OHMM                0:  Invaded Zone Resistivity
RXO_COMP.OHMM             0:  Invaded Zone Resistivity composite
SP_COMP.MV                0:  Spontaneous Potential
TVDSS_COMP.M               :  Reference tvdss log.
TVD_COMP.M                 :  Reference tvd log.
~Parameter Information Block
#MNEM.UNIT            Value   Description
#---------- ----------------  -----------
SET  .                  LCS:  
~Other Information Block
#        DEPTH        BS_COMP      CALI_COMP      DRHO_COMP     ECART_COMP             GR        GR_COMP           NPHI      NPHI_COMP       PEF_COMP      RHOB_COMP             RT        RT_COMP            RXO       RXO_COMP        SP_COMP     TVDSS_COMP       TVD_COMP 
~A
# ...
     2588.3616      -999.2500        13.3909       0.027808         4.5784       119.6007       119.6007         0.3355       0.335459         2.8785         2.3698         6.3733         6.3733         7.4348         7.4348       -21.0243      2370.2436      2388.3436
     2588.5140      -999.2500        13.1947       0.026287         3.9179       118.3886       118.3886         0.3255       0.325472         2.8529         2.3534         6.4282         6.4282         7.3672         7.3672       -20.0351      2370.3801      2388.4801
     2588.6664      -999.2500        13.0694       0.022003         3.6658       118.2707       118.2707         0.3232       0.323171         2.8720         2.3447         6.4703         6.4703         7.2781         7.2781       -18.9133      2370.5167      2388.6167
     2588.8188      -999.2500        13.1987       0.017625         4.0322       118.1192       118.1192         0.3315       0.331538         2.9007         2.3490         6.5343         6.5343         7.2011         7.2011       -17.8650      2370.6533      2388.7533
     2588.9712      -999.2500        13.4267       0.030566         4.7295       119.3757       119.3757         0.3378       0.337834         2.9069         2.3734         6.6409         6.6409         7.2574         7.2574       -17.0160      2370.7899      2388.8899
     2589.1236      -999.2500        13.6344       0.039185         4.4393       119.7268       119.7268         0.3234       0.323411         2.9266         2.3829         6.6857         6.6857         7.1529         7.1529       -16.3613      2370.9265      2389.0265
     2589.2760      -999.2500        13.7391       0.045664         4.2842       120.4055       120.4055         0.3142       0.314183         2.9670         2.3906         6.7398         6.7398         7.0082         7.0082       -15.8244      2371.0631      2389.1631
     2589.4284      -999.2500        13.6007       0.050999         4.5758       121.7169       121.7169         0.3159       0.315899         3.0241         2.4023         6.8048         6.8048         6.8753         6.8753       -15.2080      2371.1997      2389.2997
     2589.5808      -999.2500        13.7614       0.056333         5.2332       123.4497       123.4497         0.3219       0.321907         3.0782         2.4251         6.8148         6.8148         6.8066         6.8066       -13.9346      2371.3363      2389.4363
     2589.7332      -999.2500        13.9550       0.044994         5.6279       121.2085       121.2085         0.3332       0.333239         3.0990         2.4260         6.8073         6.8073         6.8000         6.8000       -12.7480      2371.4729      2389.5729
     2589.8856      -999.2500        14.0932       0.032570         5.7965       120.9401       120.9401         0.3404       0.340439         3.1305         2.4224         6.8099         6.8099         6.7500         6.7500       -11.6329      2371.6095      2389.7095
     2590.0380      -999.2500        14.1420       0.022095         5.7811       124.1201       124.1201         0.3418       0.341804         3.2161         2.4194         6.8387         6.8387         6.6136         6.6136       -10.7542      2371.7462      2389.8462
     2590.1904      -999.2500        14.2324       0.014473         5.6533       131.7234       131.7234         0.3371       0.337056         3.4279         2.4209         6.9171         6.9171         6.3410         6.3410       -10.4434      2371.8828      2389.9828
     2590.3428      -999.2500        14.3206       0.011142         6.3961       133.5059       133.5059         0.3516       0.351563         3.3673         2.4339         6.7812         6.7812         6.1161         6.1161        -9.4721      2372.0194      2390.1194
     2590.4952      -999.2500        14.3776       0.009524         7.3534       133.9508       133.9508         0.3755       0.375488         3.3581         2.4419         6.5858         6.5858         5.9244         5.9244        -8.8298      2372.1561      2390.2561
     2590.6476      -999.2500        14.3609       0.007805         8.1721       133.9138       133.9138         0.3985       0.398452         3.3908         2.4445         6.3835         6.3835         5.7889         5.7889        -8.6451      2372.2927      2390.3927
     2590.8000      -999.2500        14.3413       0.004000         8.4817       134.0630       134.0630         0.4086       0.408639         3.4250         2.4430         6.2252         6.2252         5.7372         5.7372        -8.9732      2372.4294      2390.5294
     2590.9524      -999.2500        14.3229       0.002475         8.1274       128.8996       128.8996         0.3921       0.392074         3.4128         2.4529         6.2502         6.2502         5.8194         5.8194        -8.1314      2372.5660      2390.6660
     2591.1048      -999.2500        14.3110       0.002001         7.7607       125.7857       125.7857         0.3789       0.378909         3.4689         2.4565         6.2753         6.2753         5.8507         5.8507        -7.9078      2372.7027      2390.8027
     2591.2572      -999.2500        14.3116       0.002000         7.3812       124.8738       124.8738         0.3696       0.369647         3.4928         2.4530         6.3007         6.3007         5.8190         5.8190        -7.8188      2372.8394      2390.9394
     2591.4096      -999.2500        14.3839       0.002000         6.9621       125.8747       125.8747         0.3634       0.363413         3.4138         2.4424         6.3247         6.3247         5.7112         5.7112        -7.4714      2372.9760      2391.0760
     2591.5620      -999.2500        14.3678       0.002000         6.1447       123.9865       123.9865         0.3444       0.344376         3.3483         2.4333         6.3209         6.3209         5.4652         5.4652        -6.8232      2373.1127      2391.2127
     2591.7144      -999.2500        14.3145       0.003719         6.3329       122.2215       122.2215         0.3486       0.348631         3.2913         2.4356         6.1797         6.1797         5.1693         5.1693        -5.6478      2373.2494      2391.3494
     2591.8668      -999.2500        14.2664       0.004328         7.1263       122.1708       122.1708         0.3688       0.368779         3.2875         2.4417         5.9974         5.9974         4.9232         4.9232        -4.4685      2373.3861      2391.4861
     2592.0192      -999.2500        14.2564       0.003098         8.2408       124.5350       124.5350         0.3987       0.398733         3.3504         2.4475         5.8151         5.8151         4.7757         4.7757        -3.5564      2373.5228      2391.6228
     2592.1716      -999.2500        14.2835       0.003859         9.1645       128.8487       128.8487         0.4242       0.424158         3.4319         2.4513         5.5949         5.5949         4.7254         4.7254        -2.9952      2373.6595      2391.7595
     2592.3240      -999.2500        14.2719       0.004621         9.4389       128.6589       128.6589         0.4320       0.431967         3.6482         2.4520         5.5200         5.5200         4.6552         4.6552        -2.4685      2373.7962      2391.8962
     2592.4764      -999.2500        14.2079       0.005383         9.5017       127.5351       127.5351         0.4368       0.436840         3.8349         2.4470         5.4029         5.4029         4.5250         4.5250        -2.3747      2373.9329      2392.0329
     2592.6288      -999.2500        14.2063       0.006435         9.5282       126.9165       126.9165         0.4434       0.443400         3.9371         2.4374         5.2205         5.2205         4.3515         4.3515        -2.5539      2374.0696      2392.1696
     2592.7812      -999.2500        14.1796       0.008720         9.6711       128.0831       128.0831         0.4527       0.452716         3.9325         2.4290         5.0749         5.0749         4.2273         4.2273        -2.1095      2374.2064      2392.3064
