~Version Information Block
VERS .                 2.00:  CWLS LOG ASCII STANDARD - VERSION 2.00
WRAP .                   NO:  One line per depth step
~Well Information Block
#MNEM.UNIT        Data Type   Information
#---------- ----------------  -----------
STRT .M              0.0000:  START DEPTH
STOP .M           2950.4637:  STOP DEPTH
STEP .M              0.1524:  STEP
NULL .              -999.25:  NULL VALUE
COMP .                     :  COMPANY
WELL .               GABO15:  WELL
FLD  .                     :  FIELD
LOC  .   6.656416, 5.257802:  LOCATION
CTRY .                     :  COUNTRY
STAT .                     :  STATE
CNTY .                     :  COUNTY
API  .                     :  API NUMBER
UWI  .                     :  UNIQUE WELL ID
SRVC .                     :  SERVICE COMPANY
DATE .                     :  LOG DATE
~Curve Information Block
#MNEM.UNIT         API CODE   Curve Description
#---------- ----------------  -----------------
DEPTH.M                    :  Reference Depth.
BS_COMP.INCHES             :  Bit Size
CALI_COMP.INCHES          0:  Caliper
DRHO_COMP.G/C3            0:  Density Correction
DT_COMP.US/F              0:  Compressional Sonic
ECART_COMP.                :  Neutron Density Seperation
GR_COMP.GAPI               :  Gamma Ray
NPHI_COMP.V/V             0:  Neutron Porosity
PEF_COMP.B/E              0:  Photo Electric Factor
RHOB_COMP.G/C3            0:  Bulk Density
RT_COMP.OHMM              0:  True or Deep Resistivity
RXO_COMP.OHMM             0:  Invaded Zone Resistivity
SP_COMP.MV                 :  Values changed using TEXT_EDIT
TVDSS_COMP.M               :  Reference TVD sub-sea log.
TVD_COMP.M                 :  Reference TVD log.
~Parameter Information Block
#MNEM.UNIT            Value   Description
#---------- ----------------  -----------
SET  .                  LCS:  
MFST .DEGF               80:  Mud filtrate sample temperature
RMFS .OHMM              1.9:  Resistivity of Filtrate sample
SP_SH.MV                  0:  Shale baseline value for SP
~Other Information Block
COMMENT:
$$MUX      Data from LAS tape
$$MUX      fevsbd 09/10/97 ng95603  ASCII:      GABO15.fod
$$MUX
$$MUX
#        DEPTH        BS_COMP      CALI_COMP      DRHO_COMP        DT_COMP     ECART_COMP        GR_COMP      NPHI_COMP       PEF_COMP      RHOB_COMP        RT_COMP       RXO_COMP        SP_COMP     TVDSS_COMP       TVD_COMP 
~A
# ...
     2367.5338         9.8750        10.3710    -999.250000        76.1882         5.4734       147.0893       0.277005         4.7110         2.5120        13.3300         9.6274       -68.9970      2185.0380      2205.0380
     2367.6862         9.8750        10.3732    -999.250000        75.7502         5.4790       133.2694       0.278969         4.3047         2.5090        14.1185        10.7797       -71.4770      2185.1734      2205.1734
     2367.8386         9.8750        10.4431    -999.250000        78.3426         5.0772       128.7532       0.266943         3.8118         2.5090        15.4092         9.6300       -66.1193      2185.3089      2205.3089
     2367.9910         9.8750        10.4859    -999.250000        81.6862         3.9830       123.7835       0.244956         3.3340         2.4909        17.2482         8.1486       -63.8623      2185.4444      2205.4444
     2368.1434         9.8750        10.4279    -999.250000        84.4985         2.5771       112.3236       0.227992         2.9633         2.4489        17.8264         7.8580       -66.5588      2185.5798      2205.5798
     2368.2958         9.8750        10.3815    -999.250000        88.1540         1.4387        98.6001       0.225018         2.6744         2.3969        17.5363        11.4160       -67.0298      2185.7153      2205.7153
     2368.4482         9.8750        10.5746       0.010021        90.7486         0.9330        88.9539       0.232021         2.4496         2.3599        17.0313        13.6381       -67.4472      2185.8507      2205.8507
     2368.6006         9.8750        10.8142       0.017984        91.8434         0.7995        83.1062       0.240005         2.2927         2.3400        15.8451         6.2111       -65.3787      2185.9862      2205.9862
     2368.7530         9.8750        10.8855    -999.250000        92.3437         0.6258        75.8197       0.241992         2.1848         2.3280        14.5365         4.5831       -67.0604      2186.1217      2206.1217
     2368.9054         9.8750        11.0700    -999.250000        92.2191         0.3058        66.3999       0.238982         2.0968         2.3170        13.6698         6.0609       -68.3026      2186.2571      2206.2571
     2369.0578         9.8750        11.0630    -999.250000        92.2500        -0.0272        57.8372       0.231982         2.0370         2.3120        13.3297         3.1067       -65.8756      2186.3926      2206.3926
     2369.2102         9.8750        10.6675    -999.250000        91.9382        -0.2404        52.1078       0.224984         2.0431         2.3130        13.3449         2.3847       -66.1471      2186.5281      2206.5281
     2369.3626         9.8750        10.4773    -999.250000        91.2504        -0.3807        48.5577       0.218985         2.0739         2.3160        13.5048         3.0801       -67.5858      2186.6635      2206.6635
     2369.5150         9.8750        10.5779    -999.250000        92.0306        -0.6411        46.4989       0.212992         2.0257         2.3130        13.7642         4.0580       -67.2195      2186.7990      2206.7990
     2369.6674         9.8750        10.5424    -999.250000        94.8734        -1.0616        46.0871       0.209995         1.9087         2.2969        13.8658         4.2150       -66.3750      2186.9344      2206.9344
     2369.8198         9.8750        10.3027    -999.250000        97.6865        -1.6884        46.5268       0.208005         1.8089         2.2689        13.7243         4.8554       -66.3555      2187.0699      2207.0699
     2369.9722         9.8750        10.1839    -999.250000        98.9683        -2.3610        47.9905       0.210026         1.7881         2.2319        13.1681         6.1912       -66.2113      2187.2054      2207.2054
     2370.1246         9.8750        10.1599    -999.250000        98.9060        -2.7467        50.5216       0.220041         1.8210         2.1959        12.4431         4.8219       -66.0776      2187.3408      2207.3408
     2370.2770         9.8750        10.1020    -999.250000        97.8136        -2.7523        52.6870       0.236041         1.8369         2.1690        11.7468         5.4129       -66.4808      2187.4763      2207.4763
     2370.4294         9.8750        10.1171    -999.250000        95.3454        -2.3388        52.3057       0.252005         1.8079         2.1630        11.0638         5.9013       -66.4719      2187.6118      2207.6118
     2370.5818         9.8750        10.1739    -999.250000        91.4711        -1.8930        49.4622       0.253956         1.7600         2.1821        10.7416         6.0680       -66.9615      2187.7472      2207.7472
     2370.7342         9.8750        10.1407    -999.250000        88.5326        -1.7806        46.8331       0.236933         1.7410         2.2161        11.0283         5.1018       -66.8660      2187.8827      2207.8827
     2370.8866         9.8750        10.0199    -999.250000        88.5630        -2.0076        45.7213       0.210943         1.7460         2.2480        11.5466         5.0677       -67.3255      2188.0181      2208.0181
     2371.0390         9.8750         9.9671    -999.250000        90.8737        -2.3808        46.6026       0.188977         1.7410         2.2660        12.0558         7.3779       -66.3750      2188.1536      2208.1536
     2371.1914         9.8750        10.0021    -999.250000        94.0293        -2.7009        49.9520       0.180005         1.7330         2.2649        12.5773         7.6156       -66.3747      2188.2891      2208.2891
     2371.3438         9.8750        10.0310    -999.250000        97.0293        -3.0534        55.3992       0.182044         1.7371         2.2439        12.5349         7.2142       -66.2593      2188.4245      2208.4245
     2371.4962         9.8750        10.0329    -999.250000        98.4372        -3.0853        61.6670       0.199067         1.7681         2.2140        11.9384         8.5233       -65.8767      2188.5600      2208.5600
     2371.6486         9.8750        10.0059       0.001005        98.4690        -2.5581        65.9381       0.225049         1.8070         2.1970        11.5522         8.6437       -67.2503      2188.6954      2208.6954
     2371.8010         9.8750         9.9690       0.003005        98.9997        -1.8060        65.9588       0.244003         1.8049         2.2030        11.3431         7.6516       -67.3660      2188.8309      2208.8309
     2371.9534         9.8750         9.9530       0.004997       100.1553        -1.5542        62.0111       0.244982         1.7519         2.2140        11.3427         6.0028       -67.9422      2188.9664      2208.9664
     2372.1058         9.8750         9.9571       0.003997       101.0625        -1.8872        57.4080       0.238015         1.6950         2.2089        11.5691         6.6157       -67.7221      2189.1018      2209.1018
     2372.2582         9.8750         9.9821       0.003000       101.4058        -2.0862        55.0809       0.244036         1.6891         2.1890        11.6703         7.4512       -68.4044      2189.2373      2209.2373
     2372.4106         9.8750        10.0211       0.003005       101.3131        -1.8996        53.1171       0.258005         1.7201         2.1750        11.4715         7.4225       -69.1340      2189.3728      2209.3728
     2372.5630         9.8750        10.0642       0.005005       100.9062        -1.7341        50.0483       0.259954         1.7440         2.1800        11.1331         8.1240       -68.4997      2189.5082      2209.5082
     2372.7154         9.8750        10.1501       0.007000       100.5002        -2.0348        47.4701       0.241946         1.7500         2.1950        10.8966         6.3380       -68.3842      2189.6437      2209.6437
     2372.8678         9.8750        10.1837       0.007003       100.0632        -2.6140        47.9073       0.220995         1.7540         2.2010        10.8864         4.9748       -67.7886      2189.7791      2209.7791
