~Version Information Block
VERS .                 2.00:  CWLS LOG ASCII STANDARD - VERSION 2.00
WRAP .                   NO:  One line per depth step
~Well Information Block
#MNEM.UNIT        Data Type   Information
#---------- ----------------  -----------
STRT .M              0.0000:  START DEPTH
STOP .M           2731.4652:  STOP DEPTH
STEP .M              0.1524:  STEP
NULL .              -999.25:  NULL VALUE
COMP .                     :  COMPANY
WELL .              GABO-19:  WELL
FLD  .                     :  FIELD
LOC  .   6.687920, 5.237424:  LOCATION
CTRY .                     :  COUNTRY
STAT .                     :  STATE
CNTY .                     :  COUNTY
API  .                     :  API NUMBER
UWI  .                     :  UNIQUE WELL ID
SRVC .                     :  SERVICE COMPANY
DATE .                     :  LOG DATE
~Curve Information Block
#MNEM.UNIT         API CODE   Curve Description
#---------- ----------------  -----------------
DEPTH.M                    :  Reference TVD log.
BS_COMP.INCHES             :  BIT SIZE
DRHO_COMP.G/C3            0:  Density Correction
GR_COMP.GAPI              0:  Gamma Ray
LLS_COMP.OHMM             0:  Deep Laterolog resistivity
NPHI_COMP.V/V              :  Neutron Porosity
PEF_COMP.B/E              0:  Photo Electric Facotr
RHOB_COMP.G/C3            0:  Bulk Density
RT_COMP.OHMM              0:  True Resistivity
RXO_COMP.OHMM             0:  Invaded Zone Resistivity
SP_COMP.MV                0:  Spontaneous Potential
TVDSS_COMP.M               :  Reference TVD sub-sea log.
TVD_COMP.M                 :  Reference TVD log.
~Parameter Information Block
#MNEM.UNIT            Value   Description
#---------- ----------------  -----------
SET  .                  LCS:  
~Other Information Block
#        DEPTH        BS_COMP      DRHO_COMP        GR_COMP       LLS_COMP      NPHI_COMP       PEF_COMP      RHOB_COMP        RT_COMP       RXO_COMP        SP_COMP     TVDSS_COMP       TVD_COMP 
~A
# ...
     1997.9640         9.8750       0.056701        70.0156         9.9598       0.318119         2.5127         2.2368        14.2632         7.3664        61.5847      1841.9760      1859.9760
     1998.1164         9.8750       0.042663        77.0481        10.1289       0.307428         2.5677         2.2225        14.6768         7.6595        61.9580      1842.0972      1860.0972
     1998.2688         9.8750       0.027746        82.3153        10.5144       0.300035         2.6219         2.2201        15.3809         8.3951        61.6596      1842.2185      1860.2185
     1998.4212         9.8750       0.019731        85.2588        10.6879       0.301831         2.6799         2.2299        15.6779         9.5948        61.2651      1842.3397      1860.3397
     1998.5736         9.8750       0.020256        86.5935        10.3445       0.312504         2.7310         2.2466        15.1314        10.7778        61.2625      1842.4610      1860.4610
     1998.7260         9.8750       0.022731        88.3247         9.6011       0.325990         2.7709         2.2641        13.9813        11.1787        61.7803      1842.5822      1860.5822
     1998.8784         9.8750       0.021302        91.9282         8.7651       0.337413         2.8095         2.2804        12.7225        10.4020        62.5980      1842.7035      1860.7035
     1999.0308         9.8750       0.017007        96.8460         8.0565       0.346130         2.8398         2.2956        11.6928         8.9722        63.4452      1842.8247      1860.8247
     1999.1832         9.8750       0.013310       100.8645         7.5180       0.354064         2.8560         2.3097        10.9363         7.6360        64.2674      1842.9460      1860.9460
     1999.3356         9.8750       0.011101       102.6877         7.1426       0.361465         2.8613         2.3214        10.4206         6.7787        65.1298      1843.0672      1861.0672
     1999.4880         9.8750       0.010685       103.0210         7.0200       0.366808         2.8608         2.3294        10.2520         6.5380        65.5040      1843.1884      1861.1884
     1999.6404         9.8750       0.012278       102.9175         6.8514       0.368756         2.8737         2.3315        10.0171         6.3171        66.3164      1843.3096      1861.3096
     1999.7928         9.8750       0.015151       101.0558         6.7843       0.368852         2.8844         2.3282         9.9013         6.4623        67.5288      1843.4309      1861.4309
     1999.9452         9.8750       0.018315        99.6160         6.8290       0.369286         2.8713         2.3212         9.9420         6.7030        67.9990      1843.5521      1861.5521
     2000.0976         9.8750       0.020107        98.4187         6.8987       0.371348         2.8785         2.3141        10.0078         7.0161        68.3749      1843.6733      1861.6733
     2000.2500         9.8750       0.020447        97.5149         7.0235       0.375166         2.8899         2.3103        10.1154         7.5644        68.9178      1843.7945      1861.7945
     2000.4024         9.8750       0.020116        97.7286         7.1494       0.378729         2.8731         2.3100        10.2182         8.0151        69.4129      1843.9157      1861.9157
     2000.5548         9.8750       0.019936        98.7147         7.2755       0.380160         2.8503         2.3134        10.3386         8.2283        69.8790      1844.0369      1862.0369
     2000.7072         9.8750       0.020554       100.4101         7.4007       0.380665         2.8963         2.3190        10.4789         8.2865        70.3714      1844.1581      1862.1581
     2000.8596         9.8750       0.022158       103.4410         7.4993       0.382837         2.9641         2.3254        10.5989         8.2704        70.9247      1844.2792      1862.2792
     2001.0120         9.8750       0.024723       106.9501         7.5404       0.387312         2.9582         2.3308        10.6440         8.2559        71.5009      1844.4004      1862.4004
     2001.1644         9.8750       0.029305       109.8525         7.4998       0.392182         2.9814         2.3328        10.5821         8.2201        72.0108      1844.5216      1862.5216
     2001.3168         9.8750       0.037089       111.5700         7.4052       0.393542         3.0424         2.3288        10.4552         8.0685        72.3607      1844.6428      1862.6428
     2001.4692         9.8750       0.047121       111.9887         7.2987       0.386472         3.0515         2.3170        10.3150         7.7850        72.4696      1844.7639      1862.7639
     2001.6216         9.8750       0.055766       111.0768         7.2685       0.368942         2.9550         2.3016        10.2603         7.5577        72.2553      1844.8851      1862.8851
     2001.7740         9.8750       0.058119       107.9139         7.4651       0.344036         2.8482         2.2901        10.4844         7.7520        71.4900      1845.0063      1863.0063
     2001.9264         9.8750       0.049587       100.5980         8.0900       0.320343         2.7945         2.2869        11.2885         8.7838        69.8599      1845.1274      1863.1274
     2002.0788         9.8750       0.032867        88.3885         9.3523       0.303796         2.7510         2.2872        12.9934        11.0975        67.3310      1845.2486      1863.2486
     2002.2312         9.8750       0.017831        73.2466        11.5164       0.293883         2.7028         2.2805        15.9589        14.9162        64.3900      1845.3697      1863.3697
     2002.3836         9.8750       0.009894        59.3931        14.5945       0.286967         2.6513         2.2621        20.1273        18.8001        61.7485      1845.4908      1863.4908
     2002.5360         9.8750       0.007339        50.9100        18.0685       0.282557         2.5676         2.2368        24.7435        19.9723        59.8937      1845.6120      1863.6120
     2002.6884         9.8750       0.005083        47.5665        20.9915       0.280892         2.4520         2.2144        28.6145        19.2346        58.6740      1845.7331      1863.7331
     2002.8408         9.8750       0.001681        47.4483        22.7964       0.278783         2.3207         2.2020        31.0473        18.7800        57.8371      1845.8542      1863.8542
     2002.9932         9.8750       0.000311        48.1421        23.8918       0.269219         2.1854         2.1990        32.5529        19.1397        57.2011      1845.9754      1863.9754
     2003.1456         9.8750       0.004846        48.5411        24.6264       0.243967         2.0842         2.2056        33.5434        19.9670        56.7592      1846.0965      1864.0965
     2003.2980         9.8750       0.014989        48.3750        25.2670       0.208874         2.0542         2.2221        34.3485        20.7055        56.4516      1846.2176      1864.2176
     2003.4504         9.8750       0.026635        47.5514        26.1089       0.178432         2.0714         2.2535        35.3699        20.3839        56.2762      1846.3387      1864.3387
     2003.6028         9.8750       0.032815        46.3351        27.4721       0.162774         2.0672         2.2899        37.0765        17.9805        56.2162      1846.4598      1864.4598
     2003.7552         9.8750       0.026632        44.9748        29.7182       0.163457         2.0779         2.3103        40.0201        14.8659        56.2988      1846.5809      1864.5809
     2003.9076         9.8750       0.011962        43.7037        32.4870       0.169258         2.1246         2.3031        43.7649        13.4850        56.4515      1846.7020      1864.7020
     2004.0600         9.8750    -999.250000        42.9912        34.8604       0.177208         2.0906         2.2713        47.1020        14.9312        56.5960      1846.8231      1864.8231
     2004.2124         9.8750    -999.250000        43.0621        35.8239       0.193273         1.9353         2.2367        48.5670        19.0201        56.6959      1846.9442      1864.9442
