~Version Information Block
VERS .                 2.00:  CWLS LOG ASCII STANDARD - VERSION 2.00
WRAP .                   NO:  One line per depth step
~Well Information Block
#MNEM.UNIT        Data Type   Information
#---------- ----------------  -----------
STRT .M           1550.0604:  START DEPTH
STOP .M           3909.9744:  STOP DEPTH
STEP .M              0.1524:  STEP
NULL .              -999.25:  NULL VALUE
COMP .                     :  COMPANY
WELL .               GABO52:  WELL
FLD  .                     :  FIELD
LOC  .   6.643655, 5.227736:  LOCATION
CTRY .                     :  COUNTRY
STAT .                     :  STATE
CNTY .                     :  COUNTY
API  .                     :  API NUMBER
UWI  .                     :  UNIQUE WELL ID
SRVC .                     :  SERVICE COMPANY
DATE .                     :  LOG DATE
~Curve Information Block
#MNEM.UNIT         API CODE   Curve Description
#---------- ----------------  -----------------
DEPTH.M                    :  Depth
DRHO .G/C3                 :  Density Correction Log
DTS_COMP.US/F              :  Shear Sonic 
DT_COMP.US/F               :  Compressional Sonic
GR_COMP.GAPI               :  Gamma Ray
HCAL .INCHES               :  Caliper
NPHI_COMP.V/V              :  Neutron Porosity
PEF_COMP.B/E               :  Photo Electric Factor
RDEEP_COMP.OHMM            :  Deep Resistivity
RHOB_COMP.G/C3             :  Bulk Density
RSHAL_COMP.OHMM            :  Shallow Resistivity
TVD  .M                    :  Reference TVD
TVDSS.M                    :  Reference TVDss
~Parameter Information Block
#MNEM.UNIT            Value   Description
#---------- ----------------  -----------
SET  .                  LCS:  
~Other Information Block
#        DEPTH           DRHO       DTS_COMP        DT_COMP        GR_COMP           HCAL      NPHI_COMP       PEF_COMP     RDEEP_COMP      RHOB_COMP     RSHAL_COMP            TVD          TVDSS 
~A
# ...
     3058.3632       0.010689       162.6387        87.7060       132.5386         8.4115       0.312984         3.6170         4.2653         2.3915         4.6497      2730.2485      2710.1284
     3058.5156       0.007387       163.0668        89.0105       132.1842         8.4788       0.327068         3.4940         4.2382         2.3761         4.7879      2730.3589      2710.2388
     3058.6680       0.005096       161.4290        88.5956       124.0710         8.4564       0.311937         3.3828         4.1770         2.3648         4.9150      2730.4692      2710.3491
     3058.8204       0.002418       159.7509        87.7296       118.6566         8.5013       0.309016         3.3359         4.1939         2.3560         5.0482      2730.5796      2710.4595
     3058.9728       0.003840       155.7852        86.4848       109.5689         8.4227       0.301856         3.4081         4.2059         2.3708         5.1423      2730.6899      2710.5698
     3059.1252       0.024144       151.0267        84.7093       109.7889         8.3442       0.276475         3.6163         4.2396         2.4309         5.2327      2730.8005      2710.6804
     3059.2776       0.033706       148.8662        82.3037       110.6952         8.3442       0.265522         3.8220         4.3511         2.4809         5.4232      2730.9109      2710.7908
     3059.4300       0.031522       148.8308        82.8290       110.0719         8.5462       0.250823         3.9766         4.4770         2.4874         5.5837      2731.0212      2710.9011
     3059.5824       0.017170       149.1916        83.7903       108.2060         8.7033       0.268715         4.0279         4.7414         2.4537         5.7731      2731.1316      2711.0115
     3059.7348       0.023197       154.3054        84.7194       107.4733         8.6921       0.274326         4.0421         4.6302         2.4411         5.4807      2731.2419      2711.1218
     3059.8872       0.037498       159.1076        84.7875       111.5945         8.4788       0.288272         4.0190         4.5268         2.4537         5.2845      2731.3523      2711.2322
     3060.0396       0.049193       160.7460        86.6622       115.3518         8.4115       0.303585         3.9459         4.3879         2.4651         5.1865      2731.4626      2711.3425
     3060.1920       0.055156       161.5909        87.6735       119.0119         8.3217       0.313733         3.8202         4.3229         2.4589         5.0207      2731.5730      2711.4529
     3060.3444       0.044404       163.0566        87.7943       119.1897         8.3217       0.309470         3.6581         4.1932         2.4193         4.9625      2731.6833      2711.5632
     3060.4968       0.027702       165.5646        88.7035       116.3788         8.3442       0.307166         3.5073         4.1375         2.3734         4.8283      2731.7939      2711.6738
     3060.6492       0.021568       164.1485        90.7890       113.1029         8.4227       0.295483         3.3950         4.0827         2.3618         4.7225      2731.9043      2711.7842
     3060.8016       0.025856       164.8994        91.0747       110.4951         8.5237       0.310721         3.3007         4.0076         2.3822         4.6098      2732.0146      2711.8945
     3060.9540       0.028690       165.5931        90.5593       108.9046         8.5237       0.301245         3.2054         3.9229         2.3957         4.5016      2732.1250      2712.0049
     3061.1064       0.016114       165.7311        90.0795       106.6845         8.4564       0.313520         3.1384         3.9598         2.3699         4.4009      2732.2356      2712.1155
     3061.2588       0.030804       165.0499        88.6308       104.8759         8.3778       0.293953         3.1774         3.9047         2.3792         4.3081      2732.3459      2712.2258
     3061.4112       0.046510       162.7664        87.8036       106.1875         8.3442       0.293502         3.2751         3.8184         2.4108         4.2092      2732.4563      2712.3362
     3061.5636       0.059752       164.0126        88.5975       113.2155         8.3890       0.302852         3.3759         3.7102         2.4631         3.9868      2732.5667      2712.4465
     3061.7160       0.053293       165.2435        88.4170       121.5604         8.5013       0.325062         3.4346         3.6341         2.4802         3.7720      2732.6770      2712.5569
     3061.8684       0.058961       165.6785        88.8125       125.8434         8.5911       0.352277         3.5026         3.5430         2.5054         3.5643      2732.7874      2712.6672
     3062.0208       0.066046       165.7938        88.6811       128.3512         8.6023       0.389939         3.5418         3.4140         2.5168         3.3664      2732.8979      2712.7778
     3062.1732       0.068390       165.9955        88.2583       130.2995         8.4564       0.405221         3.5253         3.3205         2.5247         3.1830      2733.0083      2712.8882
     3062.3256       0.061255       165.3585        88.5573       132.1185         8.3442       0.390771         3.4635         3.1674         2.5126         3.0261      2733.1187      2712.9985
     3062.4780       0.058756       165.7515        87.4694       135.8800         8.3217       0.334782         3.4363         3.0860         2.5095         2.9020      2733.2290      2713.1089
     3062.6304       0.064413       167.5181        87.0684       137.4566         8.2768       0.331977         3.4512         3.0717         2.5226         2.9460      2733.3394      2713.2192
     3062.7828       0.071558       164.8214        86.0628       135.7014         8.2544       0.351371         3.5114         3.1474         2.5304         3.0184      2733.4497      2713.3296
     3062.9352       0.082015       163.8685        85.5824       133.6370         8.2544       0.367428         3.5757         3.1463         2.5479         3.0465      2733.5601      2713.4399
     3063.0876       0.094897       163.9442        85.6671       132.0125         8.2544       0.346127         3.6477         3.1259         2.5543         2.9988      2733.6704      2713.5503
     3063.2400       0.103809       163.7842        85.8865       136.7872         8.2544       0.329096         3.6709         3.1199         2.5602         2.9615      2733.7808      2713.6606
     3063.3924       0.104938       161.7788        86.1264       138.1113         8.2993       0.329489         3.6378         3.1154         2.5514         2.9752      2733.8914      2713.7712
     3063.5448       0.088596       160.3960        86.0143       136.4128         8.3217       0.347081         3.5813         3.0963         2.5379         2.9873      2734.0017      2713.8816
     3063.6972       0.066489       160.0578        85.1790       130.4342         8.3442       0.338992         3.5916         3.0991         2.5370         3.0355      2734.1121      2713.9919
     3063.8496       0.048214       158.4164        84.0332       127.3427         8.3778       0.335926         3.7230         3.1407         2.5406         3.1054      2734.2224      2714.1023
     3064.0020       0.051755       155.6539        82.2336       122.8386         8.3666       0.327855         3.9260         3.1959         2.5556         3.1987      2734.3328      2714.2126
     3064.1544       0.064733       152.5937        81.4028       123.0323         8.3442       0.322065         4.0894         3.2983         2.5647         3.3582      2734.4431      2714.3230
     3064.3068       0.075813       150.7525        80.3916       123.1359         8.3890       0.296909         4.1927         3.4679         2.5799         3.5243      2734.5537      2714.4336
     3064.4592       0.074121       150.0683        78.9843       121.2209         8.4339       0.264943         4.2852         3.8117         2.5929         3.7548      2734.6641      2714.5439
     3064.6116       0.066709       151.7491        79.5570       118.1898         8.5237       0.244695         4.3861         4.2462         2.6137         4.1373      2734.7744      2714.6543
