~Version Information Block
VERS .                 2.00:  CWLS LOG ASCII STANDARD - VERSION 2.00
WRAP .                   NO:  One line per depth step
~Well Information Block
#MNEM.UNIT        Data Type   Information
#---------- ----------------  -----------
STRT .M            800.1000:  START DEPTH
STOP .M           4245.4068:  STOP DEPTH
STEP .M              0.1524:  STEP
NULL .              -999.25:  NULL VALUE
COMP .                     :  COMPANY
WELL .               GABO51:  WELL
FLD  .                     :  FIELD
LOC  .   6.643728, 5.227344:  LOCATION
CTRY .                     :  COUNTRY
STAT .                     :  STATE
CNTY .                     :  COUNTY
API  .                     :  API NUMBER
UWI  .                     :  UNIQUE WELL ID
SRVC .                     :  SERVICE COMPANY
DATE .                     :  LOG DATE
~Curve Information Block
#MNEM.UNIT         API CODE   Curve Description
#---------- ----------------  -----------------
DEPTH.M                    :  Depth
DRHO_COMP.G/C3             :  Density Correction
DTSM_COMP.US/F             :  Shear Sonic
DT_COMP.US/F               :  Compressional Sonic
GR_COMP.GAPI               :  Gamma Ray
HCAL_COMP.INCHES           :  Caliper
NPHI_COMP.V/V              :  Neutron Porosity
PEF_COMP.B/E               :  Pho Electric Factor
RDEEP_COMP.OHMM            :  Deep Resistivity
RHOB_COMP.G/C3             :  Bulk Density
RSHAL_COMP.OHMM            :  Shallow Resistivity
TVDSS_COMP.M               :  Reference TVD sub-sea log.
TVD_COMP.M                 :  Reference TVD log.
~Parameter Information Block
#MNEM.UNIT            Value   Description
#---------- ----------------  -----------
SET  .                  LCS:  
~Other Information Block
#        DEPTH      DRHO_COMP      DTSM_COMP        DT_COMP        GR_COMP      HCAL_COMP      NPHI_COMP       PEF_COMP     RDEEP_COMP      RHOB_COMP     RSHAL_COMP     TVDSS_COMP       TVD_COMP 
~A
     2400.9096    -999.250000      -999.2500       222.8987        34.9150        14.1794    -999.250000      -999.2500      -999.2500      -999.2500      -999.2500      1947.8533      1967.6333
     2401.0620    -999.250000      -999.2500       208.0837        35.8265        13.5543    -999.250000      -999.2500      -999.2500      -999.2500      -999.2500      1947.9562      1967.7362
     2401.2144    -999.250000      -999.2500       204.3524        37.6495        13.0593    -999.250000      -999.2500      -999.2500      -999.2500      -999.2500      1948.0591      1967.8391
     2401.3668    -999.250000      -999.2500       213.3719        38.9408        13.2007    -999.250000      -999.2500      -999.2500      -999.2500      -999.2500      1948.1620      1967.9420
     2401.5192    -999.250000      -999.2500       217.7381        38.5990        12.6723    -999.250000      -999.2500      -999.2500      -999.2500      -999.2500      1948.2649      1968.0449
     2401.6716       0.035000      -999.2500       233.4388        38.5990        12.8286       0.423100         4.4581      -999.2500         2.1358      -999.2500      1948.3678      1968.1478
     2401.8240       0.018800      -999.2500       230.8243        38.7383        13.8110       0.408100         3.7673      -999.2500         2.1390      -999.2500      1948.4708      1968.2508
     2401.9764       0.004900      -999.2500       216.2781        37.2571        15.0726       0.390300         3.2330      -999.2500         2.1375      -999.2500      1948.5737      1968.3537
     2402.1288      -0.001000      -999.2500       218.1767        35.3202        15.9248       0.373200         2.9077      -999.2500         2.1426      -999.2500      1948.6766      1968.4566
     2402.2812      -0.010500       236.4862       224.3948        34.8581        17.1267       0.344600         2.6847      -999.2500         2.1502      -999.2500      1948.7796      1968.5596
     2402.4336      -0.018600       246.4310       226.9659        33.7187        17.1528       0.391600         2.4429      -999.2500         2.1550      -999.2500      1948.8825      1968.6625
     2402.5860      -0.022500       248.7947       229.6441        34.6302        17.5175       0.407300         2.2353      -999.2500         2.1545      -999.2500      1948.9855      1968.7655
     2402.7384      -0.019400       246.0346       231.6139        35.1682        17.4282       0.467600         2.1337      -999.2500         2.1476      -999.2500      1949.0885      1968.8685
     2402.8908      -0.019000       247.2647       240.6061        35.8519        17.3389       0.458500         2.1449      -999.2500         2.1364      -999.2500      1949.1915      1968.9715
     2403.0432      -0.014500       250.5507       273.6040        35.6240        16.2448       0.533700         2.2134      -999.2500         2.1241      -999.2500      1949.2944      1969.0744
     2403.1956      -0.005900       255.7208       306.7155        34.5226        16.5351       0.549500         2.2685      -999.2500         2.1174      -999.2500      1949.3974      1969.1774
     2403.3480       0.001500       256.7489       308.7513        34.3011        16.9370       0.475700         2.3044      -999.2500         2.1124      -999.2500      1949.5004      1969.2804
     2403.5004       0.005000       252.5752       315.2399        36.0101        17.1528       0.467700         2.4194      -999.2500         2.1075      -999.2500      1949.6032      1969.3832
     2403.6528       0.000600       249.2916       323.5896        40.6815        17.1937       0.378500         2.6750      -999.2500         2.0969      -999.2500      1949.7064      1969.4864
     2403.8052       0.000400       247.7110       321.8813        44.3211        17.1602       0.361800         3.0572      -999.2500         2.1027      -999.2500      1949.8095      1969.5895
     2403.9576      -0.000800       246.4683       311.0047        47.6696        16.9444       0.342400         3.4331      -999.2500         2.1204      -999.2500      1949.9125      1969.6925
     2404.1100       0.000000       244.6805       311.4343        46.5303        16.7025       0.317300         3.6990      -999.2500         2.1450      -999.2500      1950.0155      1969.7955
     2404.2624      -0.000700       241.4149       265.8868        44.0237        16.5016       0.280200         3.6520         8.5719         2.1555         6.6222      1950.1186      1969.8986
     2404.4148       0.001100       237.4776       255.4073        38.6243        16.2894       0.261400         3.3035         8.7401         2.1539         7.0804      1950.2216      1970.0016
     2404.5672       0.010800       234.0030       225.8356        35.2252        15.6345       0.263100         2.7241         7.3729         2.1511         6.9597      1950.3247      1970.1047
     2404.7196       0.010400       231.5555       219.0437        33.8580        13.3421       0.284500         2.2030         8.5621         2.1370         6.3496      1950.4277      1970.2077
     2404.8720       0.005000       230.8419       237.7401        33.5162        12.6165       0.283100         1.8822         9.1906         2.1282         7.4968      1950.5308      1970.3108
     2405.0244      -0.007100       230.4178       209.9977        33.0414        12.4267       0.297200         1.7792         9.0914         2.1189         7.2573      1950.6339      1970.4139
     2405.1768      -0.010400       230.2581       215.8211        33.7061        12.3671       0.314300         1.8090         9.2996         2.1136         6.8782      1950.7370      1970.5170
     2405.3292      -0.009900       231.7828       223.9005        34.0479        12.3002       0.320600         1.8973        11.2990         2.1074         6.6092      1950.8400      1970.6200
     2405.4816      -0.009400       234.5355       232.0640        33.2503        12.1253       0.327600         2.0281         9.1530         2.1031         7.0071      1950.9431      1970.7231
     2405.6340      -0.008300       239.0087       226.9301        30.6678        12.1588       0.307800         2.1874        11.2273         2.1012         6.5223      1951.0462      1970.8262
     2405.7864      -0.008200       243.6751       224.4206        29.1866        12.2034       0.309700         2.3169        10.5532         2.0976         7.0149      1951.1494      1970.9294
     2405.9388      -0.007900       242.9798       227.5259        28.9587        12.1662       0.310300         2.3876         7.8866         2.0924         5.8233      1951.2525      1971.0325
     2406.0912      -0.006800       236.4104       227.6260        30.5728        12.1588       0.316200         2.4221         8.0117         2.0832         5.4587      1951.3556      1971.1356
     2406.2436      -0.004100       231.1474       225.8393        31.3704        12.1513       0.299500         2.4616         9.5190         2.0746         5.6364      1951.4587      1971.2387
     2406.3960      -0.000100       228.7818       220.6541        37.1811        12.1699       0.291100         2.5397         8.9031         2.0667         5.2783      1951.5619      1971.3419
     2406.5484       0.002700       227.2977       229.2209        45.6884        12.1662       0.246100         2.6608         7.9050         2.0672         5.3876      1951.6650      1971.4450
     2406.7008       0.028800       226.3370       227.0010        57.1960        12.1364       0.207700         2.8671         6.9361         2.1482         5.3540      1951.7682      1971.5482
     2406.8532       0.066200       223.2001       223.1909        66.5514        12.1439       0.219400         3.1317         6.2639         2.2854         5.1803      1951.8713      1971.6513
     2407.0056       0.081200       218.7355       197.5332        75.4385        12.2406       0.263500         3.3754         6.9523         2.3838         5.6520      1951.9745      1971.7545
     2407.1580       0.058600       216.0077       194.2846        83.0722        12.4713       0.320600         3.5279         6.3121         2.3673         5.4137      1952.0777      1971.8577
