~Version Information Block
VERS .                 2.00:  CWLS LOG ASCII STANDARD - VERSION 2.00
WRAP .                   NO:  One line per depth step
~Well Information Block
#MNEM.UNIT        Data Type   Information
#---------- ----------------  -----------
STRT .M              0.0000:  START DEPTH
STOP .M           2950.4637:  STOP DEPTH
STEP .M              0.1524:  STEP
NULL .              -999.25:  NULL VALUE
COMP .                     :  COMPANY
WELL .               GABO15:  WELL
FLD  .                     :  FIELD
LOC  .   6.656416, 5.257802:  LOCATION
CTRY .                     :  COUNTRY
STAT .                     :  STATE
CNTY .                     :  COUNTY
API  .                     :  API NUMBER
UWI  .                     :  UNIQUE WELL ID
SRVC .                     :  SERVICE COMPANY
DATE .                     :  LOG DATE
~Curve Information Block
#MNEM.UNIT         API CODE   Curve Description
#---------- ----------------  -----------------
DEPTH.M                    :  Reference Depth.
BS_COMP.INCHES             :  Bit Size
CALI_COMP.INCHES          0:  Caliper
DRHO_COMP.G/C3            0:  Density Correction
DT_COMP.US/F              0:  Compressional Sonic
ECART_COMP.                :  Neutron Density Seperation
GR_COMP.GAPI               :  Gamma Ray
NPHI_COMP.V/V             0:  Neutron Porosity
PEF_COMP.B/E              0:  Photo Electric Factor
RHOB_COMP.G/C3            0:  Bulk Density
RT_COMP.OHMM              0:  True or Deep Resistivity
RXO_COMP.OHMM             0:  Invaded Zone Resistivity
SP_COMP.MV                 :  Values changed using TEXT_EDIT
TVDSS_COMP.M               :  Reference TVD sub-sea log.
TVD_COMP.M                 :  Reference TVD log.
~Parameter Information Block
#MNEM.UNIT            Value   Description
#---------- ----------------  -----------
SET  .                  LCS:  
MFST .DEGF               80:  Mud filtrate sample temperature
RMFS .OHMM              1.9:  Resistivity of Filtrate sample
SP_SH.MV                  0:  Shale baseline value for SP
~Other Information Block
COMMENT:
$$MUX      Data from LAS tape
$$MUX      fevsbd 09/10/97 ng95603  ASCII:      GABO15.fod
$$MUX
$$MUX
#        DEPTH        BS_COMP      CALI_COMP      DRHO_COMP        DT_COMP     ECART_COMP        GR_COMP      NPHI_COMP       PEF_COMP      RHOB_COMP        RT_COMP       RXO_COMP        SP_COMP     TVDSS_COMP       TVD_COMP 
~A
# ...
     2800.9594         9.8750        10.7461       0.039991      -999.2500        10.5392       113.6240       0.476981         3.4451         2.4320         1.7432         1.4422       -65.1069      2570.2914      2590.2914
     2801.1118         9.8750        10.7682       0.035988      -999.2500        10.2121       113.1900       0.468965         3.4731         2.4290         1.7829         1.4636       -64.6069      2570.4269      2590.4269
     2801.2642         9.8750        10.8672       0.030986      -999.2500         9.6723       114.0441       0.453972         3.5070         2.4270         1.8047         1.4372       -64.1250      2570.5624      2590.5624
     2801.4166         9.8750        10.9730       0.024981      -999.2500         9.2123       112.8040       0.441981         3.5139         2.4240         1.8080         1.4706       -64.1115      2570.6978      2590.6978
     2801.5690         9.8750        10.9709       0.016991      -999.2500         8.7655       108.9351       0.433974         3.4497         2.4150         1.8109         1.5022       -63.7635      2570.8333      2590.8333
     2801.7214         9.8750        10.9139       0.012998      -999.2500         8.2589       107.6938       0.422965         3.3248         2.4080         1.8124         1.5633       -64.1160      2570.9687      2590.9687
     2801.8738         9.8750        10.8810       0.011998      -999.2500         7.7999       110.1797       0.407991         3.2359         2.4100         1.7900         1.4975       -63.8885      2571.1042      2591.1042
     2802.0262         9.8750        10.8769       0.010998      -999.2500         7.7677       113.4718       0.404033         3.2060         2.4150         1.7891         1.5003       -64.2456      2571.2397      2591.2397
     2802.1786         9.8750        10.8439       0.010002      -999.2500         8.2147       114.6857       0.418047         3.1860         2.4140         1.7844         1.5286       -64.1429      2571.3751      2591.3751
     2802.3310         9.8750        10.7990       0.011016      -999.2500         8.7811       113.7027       0.438030         3.1710         2.4090         1.7804         1.4543       -64.5925      2571.5106      2591.5106
     2802.4834         9.8750        10.8110       0.018023      -999.2500         9.2538       113.5654       0.450998         3.1851         2.4110         1.7982         1.4901       -63.7098      2571.6461      2591.6461
     2802.6358         9.8750        10.8199       0.028007      -999.2500         9.4594       114.5945       0.449965         3.2351         2.4230         1.7997         1.5183       -63.4476      2571.7815      2591.7815
     2802.7882         9.8750        10.7970       0.030995      -999.2500         9.1987       114.7955       0.434951         3.2992         2.4350         1.8046         1.6030       -62.8929      2571.9170      2591.9170
     2802.9406         9.8750        10.7771       0.028988      -999.2500         8.6392       114.1402       0.413977         3.3721         2.4420         1.8300         1.5859       -63.3828      2572.0524      2592.0524
     2803.0930         9.8750        10.8222       0.023988      -999.2500         8.2866       113.8128       0.404012         3.4059         2.4410         1.8152         1.5247       -63.6026      2572.1879      2592.1879
     2803.2454         9.8750        10.9080       0.018995      -999.2500         8.2737       113.7288       0.409023         3.3569         2.4320         1.7646         1.5027       -63.8404      2572.3234      2592.3234
     2803.3978         9.8750        10.9098       0.017014      -999.2500         8.4469       111.5078       0.419007         3.3091         2.4240         1.7199         1.5185       -63.7501      2572.4588      2592.4588
     2803.5502         9.8750        10.8359       0.023023      -999.2500         8.5671       107.9973       0.422002         3.3562         2.4250         1.6889         1.5012       -63.7943      2572.5943      2592.5943
     2803.7026         9.8750        10.7870       0.033007      -999.2500         8.7603       106.8521       0.423005         3.4460         2.4330         1.6556         1.4233       -64.9867      2572.7297      2592.7297
     2803.8550         9.8750        10.7770       0.035974      -999.2500         8.8659       110.3254       0.424995         3.4538         2.4350         1.6639         1.4116       -64.6117      2572.8652      2592.8652
     2804.0074         9.8750        10.7618       0.024965      -999.2500         8.5186       115.6156       0.422988         3.3467         2.4210         1.6434         1.3632       -64.2456      2573.0007      2593.0007
     2804.1598         9.8750        10.6757       0.009981      -999.2500         7.9323       118.4381       0.417993         3.2351         2.4000         1.6189         1.3246       -64.1338      2573.1361      2593.1361
     2804.3122         9.8750        10.5329       0.001998      -999.2500         7.4730       118.4957       0.415000         3.2582         2.3820         1.6183         1.3896       -64.3574      2573.2716      2593.2716
     2804.4646         9.8750        10.4882       0.001014      -999.2500         7.3136       116.6569       0.415005         3.3652         2.3740         1.6231         1.3716       -63.8838      2573.4071      2593.4071
     2804.6170         9.8750        10.5822       0.007026      -999.2500         7.4413       117.0379       0.417019         3.4380         2.3770         1.6187         1.3434       -64.1294      2573.5425      2593.5425
     2804.7694         9.8750        10.6880       0.018016      -999.2500         7.9883       119.9871       0.425035         3.4590         2.3910         1.6502         1.3872       -64.2544      2573.6780      2593.6780
     2804.9218         9.8750        10.6888       0.024991      -999.2500         8.6871       121.3115       0.440014         3.4471         2.4010         1.6825         1.5059       -64.3663      2573.8134      2593.8134
     2805.0742         9.8750        10.6040       0.021002      -999.2500         8.8859       120.6519       0.445972         3.4811         2.4010         1.7109         1.5072       -64.1381      2573.9489      2593.9489
     2805.2266         9.8750        10.5841       0.022030      -999.2500         8.5659       118.9024       0.433951         3.5341         2.4050         1.7677         1.5238       -64.4912      2574.0844      2594.0844
     2805.3790         9.8750        10.6331       0.035040      -999.2500         8.2263       117.3745       0.412956         3.5953         2.4231         1.8163         1.5407       -64.2194      2574.2198      2594.2198
     2805.5314         9.8750        10.6892       0.052012      -999.2500         8.0527       117.1556       0.393970         3.7212         2.4460         1.7955         1.4939       -63.3782      2574.3553      2594.3553
     2805.6838         9.8750        10.7540       0.056984      -999.2500         7.7998       116.9669       0.381002         3.7868         2.4550         1.7726         1.4738       -63.4339      2574.4908      2594.4908
     2805.8362         9.8750        10.7338       0.049974      -999.2500         7.7142       116.0712       0.382037         3.7196         2.4490         1.7301         1.4554       -62.4993      2574.6262      2594.6262
     2805.9886         9.8750        10.6459       0.038981      -999.2500         8.1081       113.1653       0.398047         3.5576         2.4420         1.6891         1.4125       -63.3481      2574.7617      2594.7617
     2806.1410         9.8750        10.6111       0.030993      -999.2500         8.7340       110.3185       0.418019         3.3999         2.4400         1.6816         1.4090       -63.4818      2574.8971      2594.8971
     2806.2934         9.8750        10.6391       0.027988      -999.2500         9.0392       112.6834       0.425984         3.3680         2.4420         1.6827         1.4309       -63.8362      2575.0326      2595.0326
