~Version Information Block
VERS .                 2.00:  CWLS LOG ASCII STANDARD - VERSION 2.00
WRAP .                   NO:  One line per depth step
~Well Information Block
#MNEM.UNIT        Data Type   Information
#---------- ----------------  -----------
STRT .M            800.1000:  START DEPTH
STOP .M           4245.4068:  STOP DEPTH
STEP .M              0.1524:  STEP
NULL .              -999.25:  NULL VALUE
COMP .                     :  COMPANY
WELL .               GABO51:  WELL
FLD  .                     :  FIELD
LOC  .   6.643728, 5.227344:  LOCATION
CTRY .                     :  COUNTRY
STAT .                     :  STATE
CNTY .                     :  COUNTY
API  .                     :  API NUMBER
UWI  .                     :  UNIQUE WELL ID
SRVC .                     :  SERVICE COMPANY
DATE .                     :  LOG DATE
~Curve Information Block
#MNEM.UNIT         API CODE   Curve Description
#---------- ----------------  -----------------
DEPTH.M                    :  Depth
DRHO_COMP.G/C3             :  Density Correction
DTSM_COMP.US/F             :  Shear Sonic
DT_COMP.US/F               :  Compressional Sonic
GR_COMP.GAPI               :  Gamma Ray
HCAL_COMP.INCHES           :  Caliper
NPHI_COMP.V/V              :  Neutron Porosity
PEF_COMP.B/E               :  Pho Electric Factor
RDEEP_COMP.OHMM            :  Deep Resistivity
RHOB_COMP.G/C3             :  Bulk Density
RSHAL_COMP.OHMM            :  Shallow Resistivity
TVDSS_COMP.M               :  Reference TVD sub-sea log.
TVD_COMP.M                 :  Reference TVD log.
~Parameter Information Block
#MNEM.UNIT            Value   Description
#---------- ----------------  -----------
SET  .                  LCS:  
~Other Information Block
#        DEPTH      DRHO_COMP      DTSM_COMP        DT_COMP        GR_COMP      HCAL_COMP      NPHI_COMP       PEF_COMP     RDEEP_COMP      RHOB_COMP     RSHAL_COMP     TVDSS_COMP       TVD_COMP 
~A
# ...
     3853.8912      -0.010000       146.3548       149.1681        59.7027        12.3374       0.197100         1.6340         2.9121         2.2533         3.5556      3026.4153      3046.1953
     3854.0436      -0.010200       147.3161       151.6776        81.6545        12.4192       0.200600         1.7744         3.1090         2.2689         3.5566      3026.5400      3046.3200
     3854.1960      -0.010200       148.7992       151.7027        99.2071        12.4267       0.205200         2.0009         3.4080         2.2843         4.0525      3026.6647      3046.4447
     3854.3484      -0.009000       150.0127       150.2595       110.4868        12.2332       0.201500         2.3127         3.8303         2.3122         4.8266      3026.7894      3046.5694
     3854.5008      -0.008400       150.5849       150.1021       112.2085        12.2778       0.213500         2.5648         3.8884         2.3358         5.2374      3026.9141      3046.6941
     3854.6532      -0.006000       151.2120       149.2444       106.9611        12.3225       0.215800         2.6834         3.8811         2.3431         5.0862      3027.0388      3046.8188
     3854.8056      -0.005500       152.5223       145.9660        99.7768        12.2592       0.216400         2.6509         3.7592         2.3254         4.9111      3027.1635      3046.9435
     3854.9580      -0.005800       153.9478       148.7712       101.6251        12.2704       0.217200         2.5620         3.6628         2.3076         4.8280      3027.2881      3047.0681
     3855.1104      -0.007700       154.9560       149.0990       108.1638        12.2481       0.224300         2.4881         3.5369         2.2861         4.6167      3027.4127      3047.1927
     3855.2628      -0.008300       155.7554       151.5585       114.5126        12.3076       0.241600         2.4294         3.4481         2.2636         4.4468      3027.5373      3047.3173
     3855.4152      -0.005600       156.3198       152.6416       111.7781        12.3597       0.233200         2.3895         3.3751         2.2442         4.3267      3027.6620      3047.4420
     3855.5676      -0.004100       156.3044       153.3456       111.4553        12.3523       0.222400         2.3696         3.3771         2.2519         4.4984      3027.7865      3047.5665
     3855.7200       0.000200       155.8512       153.2350       111.1515        12.3374       0.227200         2.3906         3.3204         2.2975         4.1660      3027.9111      3047.6911
     3855.8724      -0.000600       155.6411       156.9437       112.7466        12.2853       0.249100         2.4755         3.3515         2.3292         4.1875      3028.0357      3047.8157
     3856.0248      -0.002500       155.7975       152.6387       114.1455        12.3299       0.250800         2.5582         3.5548         2.3398         4.3642      3028.1602      3047.9402
     3856.1772      -0.005900       156.5210       156.2194       117.3547        12.2704       0.246300         2.6476         3.6676         2.3390         4.4938      3028.2847      3048.0647
     3856.3296      -0.006000       157.8317       156.9781       119.8613        12.3150       0.240800         2.7293         3.7480         2.3452         4.4852      3028.4092      3048.1892
     3856.4820      -0.003300       158.7583       152.0289       121.6906        12.2555       0.244800         2.7895         3.8080         2.3364         4.5476      3028.5338      3048.3138
     3856.6344      -0.005000       158.8438       153.1014       124.6339        12.3374       0.244900         2.7952         3.7859         2.3096         4.4984      3028.6582      3048.4382
     3856.7868      -0.004700       158.5864       156.8467       121.9564        12.4602       0.249900         2.7426         3.7368         2.2924         4.4265      3028.7827      3048.5627
     3856.9392      -0.007200       158.6728       157.1139       117.1838        12.4341       0.241200         2.6965         3.6784         2.2887         4.3437      3028.9072      3048.6872
     3857.0916      -0.008900       158.2274       157.3187       112.5187        12.3746       0.230600         2.6449         3.6588         2.2951         4.3284      3029.0316      3048.8116
     3857.2440      -0.008700       156.9911       156.9879       114.7405        12.4416       0.234800         2.6539         3.6479         2.3329         4.3149      3029.1560      3048.9360
     3857.3964      -0.007500       156.5426       152.5878       115.3165        12.4862       0.248600         2.7256         3.7179         2.3744         4.3410      3029.2804      3049.0604
     3857.5488      -0.005000       157.1156       152.2462       115.9938        12.4341       0.252700         2.8367         3.9498         2.3847         4.6166      3029.4048      3049.1848
     3857.7012      -0.006400       157.4053       155.5154       116.1394        12.4044       0.245800         2.9050         4.0168         2.3332         4.6606      3029.5292      3049.3092
     3857.8536      -0.006400       157.4379       155.8305       120.1208        12.2704       0.237000         2.8615         4.0183         2.2935         4.5904      3029.6536      3049.4336
     3858.0060      -0.002600       158.3267       156.8014       126.5456        12.2704       0.237300         2.8271         3.9340         2.3117         4.1713      3029.7780      3049.5580
     3858.1584       0.000200       159.5411       156.9603       129.9320        12.5048       0.236200         2.8312         3.8415         2.3621         4.0850      3029.9023      3049.6823
     3858.3108      -0.000400       160.0352       157.1221       127.6723        12.6388       0.246700         2.8787         4.0090         2.3870         4.2526      3030.0266      3049.8066
     3858.4632      -0.004500       160.3129       155.6662       123.9820        12.5458       0.243500         2.8839         4.1418         2.3810         4.4786      3030.1510      3049.9310
     3858.6156      -0.008100       161.0076       156.6135       118.9814        12.6351       0.249300         2.8400         4.1055         2.3726         4.3347      3030.2753      3050.0553
     3858.7680      -0.008900       161.9048       159.4128       121.6716        12.6128       0.249200         2.8080         3.9364         2.3712         4.1373      3030.3996      3050.1796
     3858.9204      -0.009700       162.6583       161.4212       116.5445        12.6276       0.253800         2.7898         3.9092         2.3611         4.0544      3030.5239      3050.3039
     3859.0728      -0.008900       162.5626       164.7296       113.6391        12.4416       0.240200         2.7669         3.9222         2.3600         4.1227      3030.6481      3050.4281
     3859.2252      -0.007600       161.0203       162.0500       112.5250        12.3969       0.232200         2.7671         3.9105         2.3750         4.2329      3030.7724      3050.5524
     3859.3776      -0.005500       159.2298       159.1020       113.1643        12.3969       0.221900         2.8010         3.9342         2.4037         4.2413      3030.8966      3050.6766
     3859.5300      -0.004300       158.7782       159.0615       111.7655        12.6835       0.226300         2.8484         4.0083         2.4130         4.3727      3031.0209      3050.8009
     3859.6824      -0.001000       159.4918       156.9308       111.0818        12.6500       0.238000         2.8776         4.0740         2.3929         4.4084      3031.1451      3050.9251
     3859.8348      -0.004300       160.5054       156.7979       110.3286        12.7021       0.245100         2.8226         4.0469         2.3606         4.3099      3031.2693      3051.0493
     3859.9872      -0.004900       161.4071       159.7594       114.8481        12.7393       0.240300         2.7818         3.9864         2.3519         4.2758      3031.3935      3051.1735
     3860.1396      -0.008500       162.0314       160.0480       113.9556        12.8286       0.235200         2.7842         3.9630         2.3579         4.2347      3031.5177      3051.2977
