~Version Information Block
VERS .                 2.00:  CWLS LOG ASCII STANDARD - VERSION 2.00
WRAP .                   NO:  One line per depth step
~Well Information Block
#MNEM.UNIT        Data Type   Information
#---------- ----------------  -----------
STRT .M              0.0000:  START DEPTH
STOP .M           2799.8928:  STOP DEPTH
STEP .M              0.1524:  STEP
NULL .              -999.25:  NULL VALUE
COMP .                     :  COMPANY
WELL .              GABO-18:  WELL
FLD  .                     :  FIELD
LOC  .   6.635779, 5.238893:  LOCATION
CTRY .                     :  COUNTRY
STAT .                     :  STATE
CNTY .                     :  COUNTY
API  .                     :  API NUMBER
UWI  .                     :  UNIQUE WELL ID
SRVC .                     :  SERVICE COMPANY
DATE .                     :  LOG DATE
~Curve Information Block
#MNEM.UNIT         API CODE   Curve Description
#---------- ----------------  -----------------
DEPTH.M                    :  Reference Depth
BS_COMP.INCHES             :  Bit Size
CALI_COMP.INCHES          0:  Caliper
DRHO_COMP.G/C3            0:  Density Correction Log
ECART_COMP.                :  Neutron Density Seperation
GR   .GAPI                0:  Gamma Ray
GR_COMP.GAPI              0:  Gamma Ray Composite
NPHI .V/V                  :  Neutron Porosity
NPHI_COMP.V/V              :  Neutron Porosity Composite
PEF_COMP.B/E              0:  Photo Electric Factor
RHOB_COMP.G/C3            0:  Bulk Density
RT   .OHMM                0:  True or Deep Resistivity
RT_COMP.OHMM              0:  True or Deep Resistivity Composite
RXO  .OHMM                0:  Invaded Zone Resistivity
RXO_COMP.OHMM             0:  Invaded Zone Resistivity composite
SP_COMP.MV                0:  Spontaneous Potential
TVDSS_COMP.M               :  Reference tvdss log.
TVD_COMP.M                 :  Reference tvd log.
~Parameter Information Block
#MNEM.UNIT            Value   Description
#---------- ----------------  -----------
SET  .                  LCS:  
~Other Information Block
#        DEPTH        BS_COMP      CALI_COMP      DRHO_COMP     ECART_COMP             GR        GR_COMP           NPHI      NPHI_COMP       PEF_COMP      RHOB_COMP             RT        RT_COMP            RXO       RXO_COMP        SP_COMP     TVDSS_COMP       TVD_COMP 
~A
# ...
     2538.0696        12.2500        12.2919       0.044346        -2.3854        23.2530        23.2530         0.2154       0.215403         1.6166         2.2217         8.7007         8.7007        11.8242        11.8242       -34.6631      2325.4398      2343.5398
     2538.2220        12.2500        12.3132       0.044888        -2.1819        24.9960        24.9960         0.2113       0.211280         1.6490         2.2388         8.4681         8.4681        11.9635        11.9635       -35.8201      2325.5747      2343.6747
     2538.3744        12.2500        12.3304       0.044127        -2.3655        25.2016        25.2016         0.2026       0.202568         1.7107         2.2441         7.8923         7.8923        11.2298        11.2298       -35.3317      2325.7097      2343.8097
     2538.5268        12.2500        12.3335       0.040826        -2.8667        26.5931        26.5931         0.1931       0.193096         1.7438         2.2348         7.3766         7.3766        10.5861        10.5861       -36.3763      2325.8446      2343.9446
     2538.6792        12.2500        12.3164       0.035031        -3.3406        27.6739        27.6739         0.1864       0.186430         1.7399         2.2223         6.8923         6.8923        10.1768        10.1768       -37.6441      2325.9796      2344.0796
     2538.8316        12.2500        12.3065       0.028050        -3.6550        28.0272        28.0272         0.1834       0.183432         1.7112         2.2115         6.4768         6.4768        10.0121        10.0121       -38.8151      2326.1146      2344.2146
     2538.9840        12.2500        12.3023       0.023476        -3.6804        27.5290        27.5290         0.1840       0.184046         1.6974         2.2092         6.2533         6.2533        10.0211        10.0211       -39.9071      2326.2496      2344.3496
     2539.1364        12.2500        12.2930       0.025050        -3.3355        28.1245        28.1245         0.1888       0.188801         1.7028         2.2186         6.1666         6.1666        10.2514        10.2514       -40.5457      2326.3846      2344.4846
     2539.2888        12.2500        12.2758       0.025999        -3.1844        28.1140        28.1140         0.1899       0.189869         1.6984         2.2243         6.2051         6.2051        10.5736        10.5736       -41.4264      2326.5196      2344.6196
     2539.4412        12.2500        12.2659       0.026829        -3.2095        27.8138        27.8138         0.1876       0.187617         1.6890         2.2268         6.3042         6.3042        10.9127        10.9127       -42.3409      2326.6545      2344.7545
     2539.5936        12.2500        12.2807       0.029875        -3.2557        28.1309        28.1309         0.1844       0.184402         1.6890         2.2299         6.3568         6.3568        11.1703        11.1703       -42.7856      2326.7895      2344.8895
     2539.7460        12.2500        12.2849       0.028538        -3.0459        29.5111        29.5111         0.1867       0.186675         1.6144         2.2366         6.2998         6.2998        11.1144        11.1144       -42.6088      2326.9246      2345.0246
     2539.8984        12.2500        12.2777       0.023564        -2.9295        29.8742        29.8742         0.1908       0.190787         1.5811         2.2355         6.1982         6.1982        11.0028        11.0028       -42.3138      2327.0596      2345.1596
     2540.0508      -999.2500        12.2922       0.017728        -2.9643        29.6972        29.6972         0.1929       0.192943         1.5908         2.2302         6.0778         6.0778        10.8452        10.8452       -42.4144      2327.1946      2345.2946
     2540.2032      -999.2500        12.2873       0.013882        -3.1837        29.6749        29.6749         0.1895       0.189530         1.6373         2.2249         5.9633         5.9633        10.6401        10.6401       -43.3740      2327.3296      2345.4296
     2540.3556      -999.2500        12.2741       0.008549        -3.2793        33.0547        33.0547         0.1885       0.188492         1.6526         2.2219         5.8375         5.8375        10.3293        10.3293       -43.2407      2327.4646      2345.5646
     2540.5080      -999.2500        12.2644       0.007002        -2.9734        36.0345        36.0345         0.1985       0.198521         1.6565         2.2205         5.7594         5.7594        10.1807        10.1807       -42.8110      2327.5997      2345.6997
     2540.6604      -999.2500        12.2782       0.007606        -2.5826        38.2132        38.2132         0.2091       0.209068         1.6545         2.2224         5.7234         5.7234        10.1662        10.1662       -42.3509      2327.7347      2345.8347
     2540.8128      -999.2500        12.2761       0.009195        -2.3487        39.8187        39.8187         0.2128       0.212817         1.6524         2.2279         5.7195         5.7195        10.2482        10.2482       -42.0202      2327.8697      2345.9697
     2540.9652      -999.2500        12.2678       0.011480        -2.5222        45.6040        45.6040         0.2085       0.208526         1.6684         2.2263         5.6898         5.6898        10.2635        10.2635       -41.6111      2328.0048      2346.1048
     2541.1176      -999.2500        12.2610       0.014355        -2.5306        50.9222        50.9222         0.2095       0.209542         1.6673         2.2242         5.6659         5.6659        10.1186        10.1186       -42.2548      2328.1398      2346.2398
     2541.2700      -999.2500        12.2640       0.015998        -2.4673        53.4750        53.4750         0.2124       0.212392         1.6826         2.2226         5.6470         5.6470         9.9519         9.9519       -42.9333      2328.2749      2346.3749
     2541.4224      -999.2500        12.2778       0.016226        -2.4006        52.4095        52.4095         0.2146       0.214647         1.7265         2.2222         5.6576         5.6576         9.8504         9.8504       -43.1423      2328.4099      2346.5099
     2541.5748      -999.2500        12.2878       0.017749        -2.4710        48.2199        48.2199         0.2116       0.211619         1.7905         2.2238         5.8159         5.8159         9.9531         9.9531       -42.4947      2328.5450      2346.6450
     2541.7272      -999.2500        12.2823       0.019273        -2.8612        43.2789        43.2789         0.2017       0.201677         1.7800         2.2208         5.6547         5.6547        10.1935        10.1935       -42.3672      2328.6801      2346.7801
     2541.8796      -999.2500        12.2556       0.020398        -3.2797        38.9543        38.9543         0.1907       0.190687         1.7540         2.2182         5.5717         5.5717        10.3587        10.3587       -42.2979      2328.8152      2346.9152
     2542.0320      -999.2500        12.2495       0.020999        -3.6046        36.0323        36.0323         0.1815       0.181467         1.7320         2.2173         5.6166         5.6166        10.4038        10.4038       -42.3759      2328.9502      2347.0502
     2542.1844      -999.2500        12.2532       0.021000        -3.6960        35.7516        35.7516         0.1778       0.177812         1.7275         2.2188         5.6623         5.6623        10.3468        10.3468       -43.1494      2329.0853      2347.1853
     2542.3368      -999.2500        12.2729       0.016891        -3.5917        36.0155        36.0155         0.1841       0.184138         1.6804         2.2135         5.7040         5.7040        10.2623        10.2623       -43.6920      2329.2204      2347.3204
     2542.4892      -999.2500        12.3016       0.012767        -3.5164        36.2857        36.2857         0.1882       0.188176         1.6599         2.2106         5.7076         5.7076        10.3239        10.3239       -44.3965      2329.3555      2347.4555
