~Version Section
VERS.   2.0:  CWLS Log ASCII Standard - Version 2.0
WRAP.    NO:  One data record per depth sample.
~Well Information Section
#MNEM.UNIT      VALUE                    DESCRIPTION
#---------      ----------               -----------
STRT.M                   0               :START DEPTH
STOP.M          3180.43555               :STOP DEPTH
STEP.M               .1524               :STEP
NULL.          -999.250000               :NULL VALUE
COMP.                                    :Oil Company
WELL.         GABO-21                    :Non unique well name
FLD.              FNG00147               :Field name
LOC.  6.610748, 5.225944                 :Location
PROV.                                    :Province
SRVC.                                    :Service
DATE.           2013-08-16               :Date unloaded
UWI.          			               :Unique well id
~Curve Information Section
#MNEM.UNIT                   API CODE                 Curve Description
#---------                   ----------               -----------------
BOREHOLE-DEPTH.M                                   :DEPTH
GR.GAPI                                   :
RT.OHMM                                   :
RXO.OHMM                                   :
TVD.M                                   :
TVDSS.M                                   :
~A
# ...
1445.6664    -999.2500    -999.2500    -999.2500    1444.5750    1425.2550    
1445.8188    -999.2500    -999.2500    -999.2500    1444.7273    1425.4073    
1445.9712    -999.2500    -999.2500    -999.2500    1444.8798    1425.5597    
1446.1237    -999.2500    -999.2500    -999.2500    1445.0320    1425.7120    
1446.2760    -999.2500    -999.2500    -999.2500    1445.1843    1425.8643    
1446.4285    -999.2500    -999.2500    -999.2500    1445.3367    1426.0167    
1446.5808    -999.2500    -999.2500    -999.2500    1445.4890    1426.1689    
1446.7333    -999.2500    -999.2500    -999.2500    1445.6414    1426.3214    
1446.8856    -999.2500    -999.2500    -999.2500    1445.7937    1426.4738    
1447.0380    -999.2500    -999.2500    -999.2500    1445.9460    1426.6260    
1447.1904    -999.2500    -999.2500    -999.2500    1446.0984    1426.7784    
1447.3428    -999.2500    -999.2500    -999.2500    1446.2507    1426.9307    
1447.4952    -999.2500    -999.2500    -999.2500    1446.4030    1427.0830    
1447.6476    -999.2500    -999.2500    -999.2500    1446.5554    1427.2354    
1447.8000    -999.2500    -999.2500    -999.2500    1446.7076    1427.3877    
1447.9524    -999.2500    -999.2500    -999.2500    1446.8600    1427.5400    
1448.1049    -999.2500    -999.2500    -999.2500    1447.0125    1427.6924    
1448.2572    -999.2500    -999.2500    -999.2500    1447.1647    1427.8447    
1448.4097    -999.2500    -999.2500    -999.2500    1447.3170    1427.9969    
1448.5620    -999.2500    -999.2500    -999.2500    1447.4694    1428.1493    
1448.7145    -999.2500    -999.2500    -999.2500    1447.6217    1428.3018    
1448.8668    -999.2500    -999.2500    -999.2500    1447.7740    1428.4540    
1449.0192    -999.2500    -999.2500    -999.2500    1447.9263    1428.6063    
1449.1716    -999.2500    -999.2500    -999.2500    1448.0787    1428.7587    
1449.3240    -999.2500    -999.2500    -999.2500    1448.2310    1428.9110    
1449.4764    -999.2500    -999.2500    -999.2500    1448.3833    1429.0634    
1449.6288    -999.2500    -999.2500    -999.2500    1448.5356    1429.2156    
1449.7812    -999.2500    -999.2500    -999.2500    1448.6880    1429.3680    
1449.9336    -999.2500    -999.2500    -999.2500    1448.8403    1429.5203    
1450.0861    -999.2500    -999.2500    -999.2500    1448.9926    1429.6726    
1450.2384    16.1835      48.5948      32.8438      1449.1449    1429.8250    
1450.3909    19.4897      48.5947      32.8438      1449.2972    1429.9772    
1450.5432    22.7959      52.8343      35.7056      1449.4496    1430.1296    
1450.6957    26.1022      52.8343      35.7055      1449.6019    1430.2819    
1450.8480    26.1022      52.8338      35.7036      1449.7542    1430.4342    
1451.0004    27.8424      52.8338      35.7037      1449.9061    1430.5861    
1451.1528    27.8423      51.5728      33.8004      1450.0588    1430.7388    
1451.3052    29.4962      53.7139      38.7774      1450.2111    1430.8911    
1451.4576    29.4091      52.7550      35.9541      1450.3635    1431.0435    
1451.6100    31.0630      48.3306      26.1320      1450.5157    1431.1958    
1451.7625    27.5827      52.3693      40.4311      1450.6681    1431.3481    
1451.9148    24.1894      46.5477      32.9073      1450.8204    1431.5004    
1452.0673    22.4479      46.5672      35.5111      1450.9727    1431.6527    
1452.2196    22.5342      53.4274      36.6038      1451.1250    1431.8051    
1452.3721    24.2744      48.4277      27.9433      1451.2773    1431.9573    
1452.5244    22.6219      49.5516      28.8942      1451.4296    1432.1096    
1452.6768    24.3621      54.1810      30.8233      1451.5819    1432.2618    
1452.8292    22.6219      46.3294      34.4010      1451.7343    1432.4142    
1452.9816    22.5349      41.9005      30.7122      1451.8865    1432.5665    
1453.1340    20.7947      39.4974      25.9103      1452.0388    1432.7188    
1453.2864    20.8817      39.3852      25.6739      1452.1910    1432.8711    
1453.4388    22.7089      34.1897      19.5018      1452.3434    1433.0234    
1453.5912    24.3620      28.9663      16.8028      1452.4957    1433.1757    
1453.7437    24.3628      26.0286      16.9053      1452.6479    1433.3280    
1453.8960    22.6226      25.9995      14.5037      1452.8003    1433.4803    
1454.0485    21.0558      25.6045      14.4063      1452.9526    1433.6326    
1454.2008    22.7082      25.4380      13.6661      1453.1049    1433.7849    
1454.3533    24.3614      24.8756      14.7210      1453.2572    1433.9373    
1454.5056    26.0153      24.8415      13.2872      1453.4095    1434.0895    
1454.6580    24.3627      23.9146      13.1885      1453.5618    1434.2418    
1454.8104    26.1021      23.3536      16.1790      1453.7141    1434.3940    
1454.9628    29.6688      18.7253      12.0860      1453.8665    1434.5464    
1455.1152    31.3214      16.3297      9.5860       1454.0187    1434.6987    
1455.2676    26.2756      18.8710      13.5097      1454.1710    1434.8510    
1455.4200    22.7960      17.0477      10.3176      1454.3232    1435.0033    
1455.5724    21.0557      15.3038      9.5190       1454.4756    1435.1556    
1455.7249    24.4489      14.1066      10.2251      1454.6279    1435.3079    
1455.8772    34.8888      10.0894      7.8840       1454.7802    1435.4601    
1456.0297    59.1648      5.5795       4.2046       1454.9324    1435.6124    
1456.1820    71.4331      5.9027       3.9695       1455.0847    1435.7646    
1456.3345    71.4340      8.8820       5.4421       1455.2371    1435.9170    
1456.4868    59.3392      12.4342      7.6016       1455.3893    1436.0693    
1456.6392    54.0317      16.7780      11.1776      1455.5415    1436.2216    
1456.7916    50.3774      18.4988      16.1694      1455.6938    1436.3738    
1456.9440    45.1569      19.8039      19.3242      1455.8461    1436.5261    
1457.0964    43.5032      22.6918      20.7822      1455.9984    1436.6783    
1457.2488    38.3696      25.2578      26.8760      1456.1508    1436.8307    
1457.4012    36.6294      29.8476      34.5809      1456.3029    1436.9829    
1457.5536    36.5430      30.1274      34.0951      1456.4552    1437.1353    
1457.7061    41.6765      29.5990      32.3870      1456.6075    1437.2875    
1457.8584    43.4167      24.9535      19.1593      1456.7596    1437.4397    
1458.0109    43.3298      24.2469      19.9193      1456.9120    1437.5920    
1458.1632    40.0235      23.3761      18.8171      1457.0643    1437.7443    
1458.3157    36.5431      22.5344      19.4785      1457.2166    1437.8966    
1458.4680    34.8023      21.8290      16.7988      1457.3688    1438.0488    
1458.6204    32.8888      19.5384      15.6932      1457.5211    1438.2010    
1458.7728    34.8027      17.2363      14.1298      1457.6733    1438.3534    
1458.9252    50.6388      9.6506       7.3520       1457.8256    1438.5056    
1459.0776    62.9063      7.4557       5.4799       1457.9779    1438.6580    
1459.2300    69.6060      8.3729       6.2775       1458.1302    1438.8102    
1459.3824    62.5584      8.8006       6.3698       1458.2825    1438.9625    
1459.5348    58.9904      9.9698       7.1577       1458.4347    1439.1147    
1459.6873    57.3373      10.4150      8.7289       1458.5870    1439.2670    
1459.8396    53.7693      10.5405      9.5933       1458.7393    1439.4193    
1459.9921    50.3766      9.7368       8.8956       1458.8916    1439.5717    
1460.1444    52.2036      8.7512       7.4609       1459.0438    1439.7238    
1460.2969    59.1642      7.7030       6.9381       1459.1960    1439.8761    
1460.4492    66.2988      6.3436       5.2691       1459.3484    1440.0284    
1460.6016    78.6558      5.2186       4.5680       1459.5007    1440.1807    
1460.7540    92.5770      3.7220       3.0440       1459.6530    1440.3330    
1460.9064    106.4112     3.3381       2.6923       1459.8053    1440.4854    
1461.0588    109.5419     3.3135       2.6576       1459.9575    1440.6375    
