~Version Information Block
VERS .                 2.00:  CWLS LOG ASCII STANDARD - VERSION 2.00
WRAP .                   NO:  One line per depth step
~Well Information Block
#MNEM.UNIT        Data Type   Information
#---------- ----------------  -----------
STRT .M           1084.4784:  START DEPTH
STOP .M           2540.6604:  STOP DEPTH
STEP .M              0.1524:  STEP
NULL .              -999.25:  NULL VALUE
COMP .                     :  COMPANY
WELL .               GABA17:  WELL
FLD  .                     :  FIELD
LOC  .   6.675366, 5.270403:  LOCATION
CTRY .                     :  COUNTRY
STAT .                     :  STATE
CNTY .                     :  COUNTY
API  .                     :  API NUMBER
UWI  .                     :  UNIQUE WELL ID
SRVC .                     :  SERVICE COMPANY
DATE .                     :  LOG DATE
~Curve Information Block
#MNEM.UNIT         API CODE   Curve Description
#---------- ----------------  -----------------
DEPTH.M                    :  Reference Depth
BS_COMP.INCHES             :  Bit Size
DRHO_COMP.G/C3             :  Density Correction
GR_COMP.GAPI               :  Gamma Ray
LLS_COMP.OHMM             0:  Resistivity
NPHI_COMP.V/V              :  Neutron Porosity
PEF_COMP.B/E               :  Photo Electric Factor
RHOB_COMP.G/C3             :  Bulk Density
RT_COMP.OHMM               :  True Resistivity
RXO_COMP.OHMM              :  Invaded Zone Resistivity
TVDSS_COMP.M               :  Reference TVD sub-sea log.
TVD_COMP.M                 :  Reference TVD log.
~Parameter Information Block
#MNEM.UNIT            Value   Description
#---------- ----------------  -----------
SET  .                  LCS:  
DEPTH_BOTTOM.M         2530:  Downhole depth
DEPTH_TOP.M            1787:  Downhole depth
UNDER_SAMPLING_RATE.      1:  Full sampling rate if equal to 1
~Other Information Block
#        DEPTH        BS_COMP      DRHO_COMP        GR_COMP       LLS_COMP      NPHI_COMP       PEF_COMP      RHOB_COMP        RT_COMP       RXO_COMP     TVDSS_COMP       TVD_COMP 
~A
# ...
     2229.7644         9.8750       0.036209        83.9837         3.1098       0.521244         5.5029         2.5502         2.7225         3.1475      2207.9386      2225.9386
     2229.9168         9.8750       0.015742        82.2187         2.7729       0.534200         5.5901         2.5393         2.4932         2.8575      2208.0907      2226.0907
     2230.0692         9.8750       0.011561        83.0453         2.6379       0.551831         5.4064         2.5019         2.3122         2.6394      2208.2429      2226.2429
     2230.2216         9.8750       0.028439        84.6613         2.5934       0.563633         4.9892         2.4589         2.1892         2.5077      2208.3950      2226.3950
     2230.3740         9.8750       0.050592        85.0612         2.4598       0.565807         4.5602         2.4276         2.0661         2.3759      2208.5472      2226.5472
     2230.5264         9.8750       0.061959        83.7608         2.2266       0.563051         4.3614         2.4130         1.9641         2.2660      2208.6993      2226.6993
     2230.6788         9.8750       0.065559        82.7809         2.0491       0.561811         4.3587         2.4057         1.9627         2.2602      2208.8515      2226.8515
     2230.8312         9.8750       0.075999        84.1627         2.0490       0.560482         4.3965         2.4021         1.9613         2.2543      2209.0036      2227.0036
     2230.9836         9.8750       0.095119        86.6073         2.2149       0.554765         4.4282         2.4084         1.9598         2.2485      2209.1558      2227.1558
     2231.1360         9.8750       0.111078        87.4495         2.5215       0.546872         4.4416         2.4317         2.2162         2.5230      2209.3079      2227.3079
     2231.2884         9.8750       0.117983        86.5322         2.8847       0.544686         4.4909         2.4648         2.5037         2.8313      2209.4601      2227.4601
     2231.4408         9.8750       0.116755        86.0199         3.2122       0.550645         4.6791         2.4982         2.7911         3.1395      2209.6122      2227.6122
     2231.5932         9.8750       0.105775        86.5315         3.3333       0.556663         4.9006         2.5299         2.7464         3.0644      2209.7644      2227.7644
     2231.7456         9.8750       0.082308        85.6078         3.0530       0.555746         5.0375         2.5563         2.4906         2.7458      2209.9165      2227.9165
     2231.8980         9.8750       0.055737        81.1959         2.5252       0.552018         5.0804         2.5573         2.2348         2.4272      2210.0687      2228.0687
     2232.0504         9.8750       0.046794        75.5948         2.0601       0.556070         4.9802         2.5173         2.0090         2.1610      2210.2208      2228.2208
     2232.2028         9.8750       0.066809        73.7939         1.7938       0.575210         4.6639         2.4511         1.8438         2.0008      2210.3730      2228.3730
     2232.3552         9.8750       0.095552        77.1317         1.6891       0.604513         4.2362         2.3919         1.6786         1.8407      2210.5251      2228.5251
     2232.5076         9.8750       0.109395        82.5248         1.6885       0.630510         3.9172         2.3610         1.5259         1.6935      2210.6773      2228.6773
     2232.6600         9.8750       0.109898        86.0366         1.7662       0.643515         3.7782         2.3530         1.6117         1.7940      2210.8294      2228.8294
     2232.8124         9.8750       0.107429        86.0949         1.8753       0.639868         3.7452         2.3563         1.6975         1.8944      2210.9816      2228.9816
     2232.9648         9.8750       0.104004        84.6429         1.9964       0.625903         3.7432         2.3631         1.7832         1.9949      2211.1337      2229.1337
     2233.1172         9.8750       0.096194        84.0275         2.0903       0.610213         3.7503         2.3708         1.8381         2.0336      2211.2859      2229.2859
     2233.2696         9.8750       0.085526        84.8739         2.1148       0.600877         3.7496         2.3775         1.8836         2.0537      2211.4380      2229.4380
     2233.4220         9.8750       0.077355        87.0672         2.0823       0.603359         3.7523         2.3800         1.9292         2.0738      2211.5902      2229.5902
     2233.5744         9.8750       0.075340        90.1206         2.0859       0.612351         3.7667         2.3798         2.0865         2.2448      2211.7424      2229.7424
     2233.7268         9.8750       0.079909        93.2517         2.2314       0.614544         3.7825         2.3833         2.3610         2.5739      2211.8945      2229.8945
     2233.8792         9.8750       0.086184        95.1869         2.6195       0.598818         3.7917         2.3985         2.6355         2.9030      2212.0467      2230.0467
     2234.0316         9.8750       0.088004        94.6083         3.3062       0.564576         3.8049         2.4302         2.8923         3.2011      2212.1988      2230.1988
     2234.1840         9.8750       0.083282        91.5337         4.0655       0.524327         3.9116         2.4744         3.0815         3.3812      2212.3510      2230.3510
     2234.3364         9.8750       0.073832        87.4132         4.3007       0.492822         4.1827         2.5168         3.2707         3.5612      2212.5031      2230.5031
     2234.4888         9.8750       0.061800        84.2418         3.8045       0.479604         4.5482         2.5374         3.4600         3.7413      2212.6553      2230.6553
     2234.6412         9.8750       0.051255        83.3775         3.1235       0.484886         4.8255         2.5278         3.1189         3.3809      2212.8075      2230.8075
     2234.7936         9.8750       0.047750        85.4098         2.6708       0.502456         4.8369         2.4954         2.7358         2.9776      2212.9596      2230.9596
     2234.9460         9.8750       0.052023        89.5021         2.4515       0.522774         4.6004         2.4561         2.3526         2.5744      2213.1118      2231.1118
     2235.0984         9.8750       0.060539        94.1078         2.3949       0.537704         4.2638         2.4230         2.2186         2.4405      2213.2639      2231.2639
     2235.2508         9.8750       0.069351        97.8472         2.4153       0.545744         3.9648         2.3998         2.2212         2.4544      2213.4161      2231.4161
     2235.4032         9.8750       0.077511       100.1264         2.4529       0.548782         3.7885         2.3865         2.2237         2.4683      2213.5682      2231.5682
     2235.5556         9.8750       0.085948       101.3631         2.4910       0.549263         3.7377         2.3798         2.2466         2.4954      2213.7204      2231.7204
     2235.7080         9.8750       0.092466       101.6723         2.5357       0.547302         3.7754         2.3779         2.3048         2.5455      2213.8726      2231.8726
     2235.8604         9.8750       0.094672       101.0679         2.5895       0.543065         3.8348         2.3804         2.3630         2.5956      2214.0247      2232.0247
     2236.0128         9.8750       0.093517        99.6964         2.6463       0.538823         3.8920         2.3874         2.4215         2.6459      2214.1769      2232.1769
     2236.1652         9.8750       0.091318        98.0369         2.7030       0.537371         3.9392         2.3961         2.4826         2.6978      2214.3291      2232.3291
     2236.3176         9.8750       0.090008        96.4960         2.7591       0.539444         3.9496         2.4017         2.5436         2.7498      2214.4812      2232.4812
     2236.4700         9.8750       0.090584        94.9216         2.8063       0.543160         3.9315         2.4033         2.6047         2.8018      2214.6334      2232.6334
