~Version Information Block
VERS .                 2.00:  CWLS LOG ASCII STANDARD - VERSION 2.00
WRAP .                   NO:  One line per depth step
~Well Information Block
#MNEM.UNIT        Data Type   Information
#---------- ----------------  -----------
STRT .M            800.1000:  START DEPTH
STOP .M           4245.4068:  STOP DEPTH
STEP .M              0.1524:  STEP
NULL .              -999.25:  NULL VALUE
COMP .                     :  COMPANY
WELL .               GABO51:  WELL
FLD  .                     :  FIELD
LOC  .   6.643728, 5.227344:  LOCATION
CTRY .                     :  COUNTRY
STAT .                     :  STATE
CNTY .                     :  COUNTY
API  .                     :  API NUMBER
UWI  .                     :  UNIQUE WELL ID
SRVC .                     :  SERVICE COMPANY
DATE .                     :  LOG DATE
~Curve Information Block
#MNEM.UNIT         API CODE   Curve Description
#---------- ----------------  -----------------
DEPTH.M                    :  Depth
DRHO_COMP.G/C3             :  Density Correction
DTSM_COMP.US/F             :  Shear Sonic
DT_COMP.US/F               :  Compressional Sonic
GR_COMP.GAPI               :  Gamma Ray
HCAL_COMP.INCHES           :  Caliper
NPHI_COMP.V/V              :  Neutron Porosity
PEF_COMP.B/E               :  Pho Electric Factor
RDEEP_COMP.OHMM            :  Deep Resistivity
RHOB_COMP.G/C3             :  Bulk Density
RSHAL_COMP.OHMM            :  Shallow Resistivity
TVDSS_COMP.M               :  Reference TVD sub-sea log.
TVD_COMP.M                 :  Reference TVD log.
~Parameter Information Block
#MNEM.UNIT            Value   Description
#---------- ----------------  -----------
SET  .                  LCS:  
~Other Information Block
#        DEPTH      DRHO_COMP      DTSM_COMP        DT_COMP        GR_COMP      HCAL_COMP      NPHI_COMP       PEF_COMP     RDEEP_COMP      RHOB_COMP     RSHAL_COMP     TVDSS_COMP       TVD_COMP 
~A
# ...
     2887.3704      -0.031000       181.4098       180.9263        32.8205        12.2927       0.080500         1.7209        41.6352         1.9255       115.2753      2282.1552      2301.9352
     2887.5228      -0.035200       185.0382       183.3629        31.3394        12.3150       0.084700         1.6416        66.3777         1.9134       186.9062      2282.2616      2302.0416
     2887.6752      -0.036100       187.4117       183.6477        29.4024        12.3150       0.097400         1.6095       104.0382         1.9146       231.6104      2282.3680      2302.1480
     2887.8276      -0.033500       188.5772       184.5013        31.1115        12.2927       0.133400         1.6352       146.5234         1.9313       260.6127      2282.4744      2302.2544
     2887.9800      -0.024200       189.6135       188.2396        30.6557        12.2816       0.201600         1.6292       202.2190         1.9815       312.7302      2282.5809      2302.3609
     2888.1324      -0.017200       191.0602       188.4646        30.0789        12.2778       0.251400         1.6010       243.5052         2.0427       274.0773      2282.6873      2302.4673
     2888.2848      -0.013300       193.5129       188.7025        29.5021        12.2853       0.249200         1.5276       294.5406         2.0854       298.9744      2282.7937      2302.5737
     2888.4372      -0.012100       196.2288       189.4078        30.5276        12.3374       0.239200         1.5110       382.9256         2.0926       311.3676      2282.9001      2302.6801
     2888.5896      -0.013400       197.2785       188.0449        33.2620        12.3448       0.236000         1.5100       649.0971         2.0885       399.9100      2283.0065      2302.7865
     2888.7420      -0.015100       197.0711       184.5642        29.6232        12.3597       0.235700         1.5125       602.8920         2.0896       345.8384      2283.1129      2302.8929
     2888.8944      -0.016200       197.1808       186.7067        28.5408        12.3597       0.249200         1.4999       445.0572         2.0915       342.8167      2283.2193      2302.9993
     2889.0468      -0.014800       196.6917       183.0081        25.6924        12.3597       0.236200         1.4931       328.8046         2.0885       342.0638      2283.3257      2303.1057
     2889.1992      -0.011500       195.9120       178.8898        27.6293        12.3597       0.223900         1.4921       338.0037         2.0862       311.8447      2283.4322      2303.2122
     2889.3516      -0.010600       195.1758       176.0543        28.7117        12.3746       0.217200         1.4966       414.7134         2.0843       326.8259      2283.5386      2303.3186
     2889.5040      -0.012400       193.0331       174.8526        30.3068        12.3820       0.223500         1.5008       409.8963         2.0828       321.4751      2283.6450      2303.4250
     2889.6564      -0.015300       191.0844       174.9690        30.5560        12.4155       0.231700         1.5120       292.3324         2.0808       305.0984      2283.7514      2303.5314
     2889.8088      -0.016300       191.3645       177.7152        29.0749        12.3671       0.234700         1.5271       224.7116         2.0819       279.9510      2283.8578      2303.6378
     2889.9612      -0.014800       194.7094       178.5656        28.0494        12.3262       0.240600         1.5463       212.3463         2.0809       285.2672      2283.9642      2303.7442
     2890.1136      -0.013400       199.9281       184.5097        28.5978        12.2927       0.239900         1.5609       218.9096         2.0835       300.2017      2284.0705      2303.8505
     2890.2660      -0.013600       204.7891       185.0140        30.3068        12.2592       0.238100         1.5679       232.2020         2.0842       311.1172      2284.1769      2303.9569
     2890.4184      -0.013500       205.5365       187.1433        30.1929        12.2704       0.236400         1.5644       221.7657         2.0854       309.6419      2284.2833      2304.0633
     2890.5708      -0.012900       200.6154       189.8062        29.7371        12.2704       0.229600         1.5562       220.8166         2.0887       310.1823      2284.3897      2304.1697
     2890.7232      -0.010600       195.2198       191.9548        29.5164        12.2778       0.227600         1.5638       213.8539         2.0925       307.8992      2284.4961      2304.2761
     2890.8756      -0.012600       193.0418       197.5404        30.2000        12.2629       0.223800         1.5792       222.7541         2.0942       303.9777      2284.6025      2304.3825
     2891.0280      -0.017500       193.7552       203.8603        29.6232        12.2481       0.227600         1.6011       232.6861         2.0893       309.5610      2284.7089      2304.4889
     2891.1804      -0.019300       195.0406       203.5786        29.1793        12.2183       0.224900         1.6231       248.3216         2.0835       329.2784      2284.8153      2304.5953
     2891.3328      -0.019000       194.2890       203.5786        30.1834        12.1960       0.231000         1.6384       238.5765         2.0809       331.8681      2284.9217      2304.7017
     2891.4852      -0.013500       191.7952       193.8818        30.9881        12.1699       0.223200         1.6619       231.2707         2.0824       319.0142      2285.0280      2304.8080
     2891.6376      -0.011500       189.6027       193.9480        32.4502        12.1960       0.226300         1.6886       235.4057         2.0867       319.9849      2285.1344      2304.9144
     2891.7900      -0.008900       190.3734       194.8212        30.9975        12.2108       0.221200         1.7311       257.3993         2.0944       321.9550      2285.2408      2305.0208
     2891.9424      -0.009800       196.0002       196.7825        30.6557        12.1885       0.229700         1.7610       301.4042         2.0984       323.3607      2285.3472      2305.1272
     2892.0948      -0.007800       203.6155       198.7302        29.0606        12.1811       0.238600         1.7973       290.1750         2.0972       309.6078      2285.4535      2305.2335
     2892.2472      -0.007000       207.6891       203.0320        29.9650        12.1253       0.252900         1.8244       264.8548         2.0913       286.2366      2285.5599      2305.3399
     2892.3996      -0.006700       206.3276       202.3930        32.7707        12.1067       0.252500         1.8396       262.8012         2.0835       272.4271      2285.6663      2305.4463
     2892.5520      -0.007100       203.1946       198.4821        33.3404        12.1699       0.266600         1.8214       266.6705         2.0828       287.6804      2285.7726      2305.5526
     2892.7044      -0.007300       201.6136       196.0110        36.0748        12.2778       0.267300         1.7776       250.1652         2.0818       264.2071      2285.8790      2305.6590
     2892.8568      -0.006900       200.6505       191.6672        35.2274        12.2927       0.269500         1.7375       227.5291         2.0815       234.5273      2285.9854      2305.7654
     2893.0092      -0.010000       200.3950       186.9567        36.1389        12.3374       0.264500         1.6929       260.1679         2.0872       270.1896      2286.0917      2305.8717
     2893.1616      -0.009700       201.8831       186.0558        35.2274        12.3076       0.261800         1.6634       267.3312         2.1034       254.1935      2286.1981      2305.9781
     2893.3140      -0.009900       203.7596       189.6133        33.6110        12.3225       0.230100         1.6387       286.4940         2.1191       235.0472      2286.3045      2306.0845
     2893.4664      -0.012800       203.6562       190.4306        31.6740        12.3076       0.204700         1.6177       284.3483         2.1189       244.9832      2286.4108      2306.1908
     2893.6188      -0.016000       200.7135       191.0376        29.5520        12.3225       0.203500         1.5928       258.9682         2.1055       258.6928      2286.5172      2306.2972
