~Version Section
VERS.   2.0:  CWLS Log ASCII Standard - Version 2.0
WRAP.    NO:  One data record per depth sample.
~Well Information Section
#MNEM.UNIT      VALUE                    DESCRIPTION
#---------      ----------               -----------
STRT.M                   0               :START DEPTH
STOP.M          3180.43555               :STOP DEPTH
STEP.M               .1524               :STEP
NULL.          -999.250000               :NULL VALUE
COMP.                                    :Oil Company
WELL.         GABO-21                    :Non unique well name
FLD.              FNG00147               :Field name
LOC.  6.610748, 5.225944                 :Location
PROV.                                    :Province
SRVC.                                    :Service
DATE.           2013-08-16               :Date unloaded
UWI.          			               :Unique well id
~Curve Information Section
#MNEM.UNIT                   API CODE                 Curve Description
#---------                   ----------               -----------------
BOREHOLE-DEPTH.M                                   :DEPTH
GR.GAPI                                   :
RT.OHMM                                   :
RXO.OHMM                                   :
TVD.M                                   :
TVDSS.M                                   :
~A
# ...
1787.6520    31.3227      30.1351      26.5768      1784.5931    1765.2732    
1787.8044    31.3227      30.1783      28.3339      1784.7415    1765.4214    
1787.9568    31.3227      26.7588      29.2311      1784.8895    1765.5695    
1788.1093    31.3227      26.5704      25.7689      1785.0376    1765.7177    
1788.2616    31.2363      22.6503      22.5094      1785.1857    1765.8657    
1788.4141    29.5825      20.8665      19.0995      1785.3339    1766.0139    
1788.5664    29.4960      16.5168      15.8060      1785.4821    1766.1620    
1788.7189    27.9290      14.4109      16.0883      1785.6301    1766.3101    
1788.8712    35.1489      11.4820      12.4260      1785.7782    1766.4583    
1789.0237    47.7626      7.6467       7.4255       1785.9263    1766.6063    
1789.1760    73.6916      5.1223       4.6579       1786.0743    1766.7544    
1789.3284    88.9208      4.0510       3.7164       1786.2224    1766.9023    
1789.4808    95.2759      3.6434       3.2529       1786.3705    1767.0505    
1789.6332    83.2677      4.3416       3.6797       1786.5186    1767.1986    
1789.7856    74.9165      4.0999       3.6739       1786.6666    1767.3466    
1789.9380    71.7819      3.6240       3.6481       1786.8147    1767.4948    
1790.0905    77.0024      4.1885       4.0794       1786.9628    1767.6428    
1790.2428    83.6123      6.0615       5.7886       1787.1108    1767.7908    
1790.3953    86.9198      6.4738       6.0847       1787.2589    1767.9388    
1790.5476    86.6581      7.1934       7.3389       1787.4069    1768.0869    
1790.7001    84.6596      6.8975       7.5330       1787.5549    1768.2349    
1790.8524    75.6067      8.6936       8.4683       1787.7030    1768.3831    
1791.0049    60.2934      10.2029      11.1174      1787.8510    1768.5310    
1791.1572    48.8040      9.2930       9.3948       1787.9990    1768.6790    
1791.3096    51.0692      8.1778       7.7311       1788.1470    1768.8270    
1791.4620    62.7311      10.0665      9.2015       1788.2950    1768.9750    
1791.6144    58.8188      11.9390      10.5313      1788.4430    1769.1230    
1791.7668    46.5513      14.7727      12.1977      1788.5909    1769.2710    
1791.9192    32.8900      16.7940      17.9738      1788.7390    1769.4189    
1792.0717    29.4961      17.5478      18.7600      1788.8870    1769.5670    
1792.2240    28.0192      17.3552      19.0212      1789.0350    1769.7150    
1792.3765    31.8451      15.7221      17.8144      1789.1829    1769.8629    
1792.5288    42.4586      14.4697      14.4411      1789.3309    1770.0109    
1792.6813    52.8091      14.4696      14.4409      1789.4789    1770.1589    
1792.8336    61.1642      12.5820      11.8514      1789.6268    1770.3068    
1792.9860    62.8181      12.5545      10.2727      1789.7748    1770.4548    
1793.1384    64.4719      12.5545      10.2727      1789.9227    1770.6027    
1793.2908    64.5583      11.9514      10.7987      1790.0707    1770.7507    
1793.4432    66.1257      12.4003      12.1432      1790.2186    1770.8986    
1793.5956    66.0392      12.4982      11.4216      1790.3665    1771.0465    
1793.7480    64.4719      12.4872      10.8870      1790.5144    1771.1945    
1793.9004    66.0390      12.4873      10.8872      1790.6624    1771.3424    
1794.0529    64.1234      14.0936      14.1072      1790.8103    1771.4904    
1794.2052    58.5573      15.9214      14.7457      1790.9583    1771.6382    
1794.3577    46.6357      17.3460      18.6277      1791.1061    1771.7861    
1794.5100    39.7642      18.3833      18.9445      1791.2540    1771.9340    
1794.6625    34.7165      18.3834      18.9446      1791.4019    1772.0819    
1794.8148    32.9764      19.3911      20.0073      1791.5498    1772.2299    
1794.9672    31.4103      21.0217      20.4609      1791.6976    1772.3776    
1795.1196    31.4980      21.0217      20.4608      1791.8455    1772.5255    
1795.2720    33.2382      19.9772      18.9189      1791.9934    1772.6733    
1795.4244    34.9771      21.1713      16.3323      1792.1412    1772.8212    
1795.5768    38.3697      20.6804      18.1922      1792.2891    1772.9691    
1795.7292    40.1096      21.6774      19.6158      1792.4369    1773.1169    
1795.8816    38.2831      21.6775      19.6160      1792.5848    1773.2648    
1796.0341    34.8028      24.1798      23.9905      1792.7325    1773.4126    
1796.1864    31.3227      26.3828      28.7690      1792.8805    1773.5605    
1796.3389    31.3227      28.0005      22.6020      1793.0283    1773.7083    
1796.4912    31.2362      26.8220      24.8031      1793.1761    1773.8561    
1796.6437    29.4960      23.0195      21.5907      1793.3239    1774.0039    
1796.7960    27.7559      23.0193      21.5906      1793.4718    1774.1519    
1796.9484    26.1887      20.0167      20.5758      1793.6196    1774.2996    
1797.1008    28.0152      17.2835      16.9952      1793.7675    1774.4474    
1797.2532    31.5819      17.2833      16.9949      1793.9152    1774.5952    
1797.4056    37.0615      13.2270      12.0785      1794.0630    1774.7430    
1797.5580    40.8013      10.1774      9.2534       1794.2107    1774.8907    
1797.7104    49.8543      5.2245       4.8087       1794.3585    1775.0385    
1797.8628    65.4294      3.7014       3.3475       1794.5063    1775.1863    
1798.0153    85.8788      4.1223       3.4296       1794.6541    1775.3341    
1798.1676    97.6211      5.7772       4.4093       1794.8018    1775.4818    
1798.3201    100.8422     6.6567       5.9608       1794.9496    1775.6296    
1798.4724    99.1884      6.8212       6.6736       1795.0973    1775.7773    
1798.6249    98.8428      6.8211       6.6736       1795.2451    1775.9250    
1798.7772    91.4506      5.9433       5.9881       1795.3928    1776.0728    
1798.9296    84.0580      6.2241       6.0490       1795.5406    1776.2206    
1799.0820    69.0880      6.9524       6.9854       1795.6884    1776.3683    
1799.2344    67.9522      4.3905       4.2481       1795.8361    1776.5160    
1799.3868    66.8170      4.0890       4.0237       1795.9836    1776.6637    
1799.5392    76.5613      4.0890       4.0237       1796.1315    1776.8115    
1799.6917    72.5630      4.5409       4.5177       1796.2792    1776.9592    
1799.8440    68.5641      6.8580       5.6702       1796.4269    1777.1069    
1799.9965    54.8210      6.8581       5.6703       1796.5746    1777.2546    
1800.1488    44.8118      8.1068       7.8171       1796.7222    1777.4022    
1800.3013    36.8892      7.6406       7.6276       1796.8699    1777.5499    
1800.4536    44.3736      5.2616       5.3190       1797.0176    1777.6976    
1800.6061    61.9478      3.8856       3.7794       1797.1653    1777.8453    
1800.7584    82.0515      3.8856       3.7794       1797.3129    1777.9929    
1800.9108    86.5757      3.8226       3.2664       1797.4606    1778.1406    
1801.0632    84.2307      4.7491       3.8203       1797.6083    1778.2883    
1801.2156    70.3957      6.1011       5.3582       1797.7559    1778.4359    
1801.3680    58.6477      6.7407       6.7721       1797.9036    1778.5836    
1801.5204    48.5525      6.7407       6.7721       1798.0511    1778.7312    
1801.6729    45.3316      7.0525       7.5215       1798.1989    1778.8788    
1801.8252    47.3293      6.7328       7.4696       1798.3466    1779.0265    
1801.9777    47.6752      6.7328       7.4695       1798.4941    1779.1741    
1802.1300    58.2024      5.6111       5.8322       1798.6417    1779.3217    
1802.2825    68.3846      4.7118       4.4937       1798.7894    1779.4694    
1802.4348    81.7873      4.2351       4.0496       1798.9370    1779.6169    
1802.5873    85.0084      3.6749       3.4384       1799.0846    1779.7646    
1802.7396    84.7490      4.0522       3.8191       1799.2322    1779.9122    
1802.8920    77.6151      3.9736       3.7587       1799.3798    1780.0598    
1803.0444    63.7790      6.3960       6.5195       1799.5273    1780.2074    
