~Version Information Block
VERS .                 2.00:  CWLS LOG ASCII STANDARD - VERSION 2.00
WRAP .                   NO:  One line per depth step
~Well Information Block
#MNEM.UNIT        Data Type   Information
#---------- ----------------  -----------
STRT .M              0.0000:  START DEPTH
STOP .M           2954.7312:  STOP DEPTH
STEP .M              0.1524:  STEP
NULL .              -999.25:  NULL VALUE
COMP .                     :  COMPANY
WELL .               GABO16:  WELL
FLD  .                     :  FIELD
LOC  .   6.656374, 5.257763:  LOCATION
CTRY .                     :  COUNTRY
STAT .                     :  STATE
CNTY .                     :  COUNTY
API  .                     :  API NUMBER
UWI  .                     :  UNIQUE WELL ID
SRVC .                     :  SERVICE COMPANY
DATE .                     :  LOG DATE
~Curve Information Block
#MNEM.UNIT         API CODE   Curve Description
#---------- ----------------  -----------------
DEPTH.M                    :  Reference Depth
BS_COMP.INCHES             :  Bit Size
CALI_COMP.INCHES           :  Caliper
DRHO_COMP.G/C3             :  Density Neutron Seperation
DT_COMP.US/F              0:  Compressional Sonic
GR_COMP.GAPI              0:  Gamma Ray
NPHI_COMP.V/V              :  Neutron Porosity
PEF_COMP.B/E              0:  Photo Electric Factor
RHOB_COMP.G/C3            0:  Bulk Density
RT_COMP.OHMM              0:  True or Deep Resistivity
RXO_COMP.OHMM             0:  Invaded Zone Resistivity
SP_COMP.MV                0:  Spontanuous Potential
TVDSS_COMP.M               :  Reference TVD sub-sea log.
TVD_COMP.M                 :  Reference TVD log.
~Parameter Information Block
#MNEM.UNIT            Value   Description
#---------- ----------------  -----------
SET  .                  LCS:  
~Other Information Block
COMMENT:
COMMENT:
$$MUX      Data from LAS tape
$$MUX      fevsbd 09/10/97 ng95603  ASCII:      GABO-16
$$MUX
$$MUX

#        DEPTH        BS_COMP      CALI_COMP      DRHO_COMP        DT_COMP        GR_COMP      NPHI_COMP       PEF_COMP      RHOB_COMP        RT_COMP       RXO_COMP        SP_COMP     TVDSS_COMP       TVD_COMP 
~A
# ...
     1607.3628        12.2500        12.8576      -0.018400       115.4821        43.8480       0.336778         1.8022         2.1907        23.1452        11.7229        79.9719      1528.4672      1548.9672
     1607.5152        12.2500        12.8550      -0.013516       115.7719        44.2057       0.348152         1.8335         2.1867        20.6783        11.8044        80.7335      1528.6038      1549.1038
     1607.6676        12.2500        12.7381      -0.012314       117.0874        46.2564       0.358463         1.8251         2.1818        19.1164        11.0355        81.4770      1528.7404      1549.2404
     1607.8200        12.2500        12.5808      -0.014298       118.7849        49.3838       0.368812         1.7786         2.1748        18.4734         8.8619        81.5619      1528.8770      1549.3770
     1607.9724        12.2500        12.5955      -0.015898       119.7645        53.4699       0.372456         1.7300         2.1694        18.3617         6.7077        81.3913      1529.0135      1549.5135
     1608.1248        12.2500        12.5581      -0.017010       119.6809        58.4957       0.358812         1.6928         2.1699        18.5893         6.4396        81.4508      1529.1500      1549.6500
     1608.2772        12.2500        12.4146      -0.020400       118.5175        61.8527       0.333458         1.6654         2.1768        19.3295         7.4405        81.5633      1529.2866      1549.7866
     1608.4296        12.2500        12.3929      -0.023781       116.6601        60.3841       0.313851         1.6478         2.1836        20.9772         8.1194        81.2720      1529.4231      1549.9231
     1608.5820        12.2500        12.4476      -0.022789       115.3245        54.4510       0.304154         1.6497         2.1844        23.8055         8.7549        80.5834      1529.5596      1550.0596
     1608.7344        12.2500        12.5686      -0.019310       114.8979        47.0126       0.292649         1.6593         2.1827        27.9200         9.5197        80.5054      1529.6962      1550.1962
     1608.8868        12.2500        12.7363      -0.018109       114.7742        40.3083       0.276598         1.6513         2.1814        33.4997         9.9493        81.3180      1529.8326      1550.3326
     1609.0392        12.2500        12.8979      -0.018995       114.8853        35.4890       0.264489         1.6240         2.1775        39.9743        10.3992        82.2903      1529.9692      1550.4692
     1609.1916        12.2500        12.9401      -0.018800       115.8613        32.9873       0.258698         1.5773         2.1673        45.4728        10.6669        83.0085      1530.1057      1550.6057
     1609.3440        12.2500        12.6717      -0.018709       117.5908        32.1500       0.260839         1.5212         2.1523        48.8512        10.1805        83.6618      1530.2422      1550.7422
     1609.4964        12.2500        12.3622      -0.020801       119.0831        31.7259       0.270774         1.4747         2.1382        50.8655         9.4079        84.2634      1530.3787      1550.8787
     1609.6488        12.2500        12.2503      -0.023091       120.1253        31.5090       0.281193         1.4423         2.1268        52.4167         8.8774        84.6264      1530.5153      1551.0153
     1609.8012        12.2500        12.2111      -0.023397       121.0073        31.9809       0.285375         1.4342         2.1178        54.1782         8.5286        84.9267      1530.6517      1551.1517
     1609.9536        12.2500        12.2189      -0.022910       121.4179        32.8049       0.284639         1.4560         2.1124        56.2898         8.4350        85.1424      1530.7881      1551.2881
     1610.1060        12.2500        12.2518      -0.024705       121.4339        33.3358       0.288828         1.5004         2.1113        57.6202         8.8114        85.2167      1530.9246      1551.4246
     1610.2584        12.2500        12.2382      -0.027593       121.6405        33.4064       0.296248         1.5436         2.1117        58.8497         9.1413        85.4443      1531.0612      1551.5612
     1610.4108        12.2500        12.2013      -0.028794       121.7931        33.4524       0.297425         1.5609         2.1094        62.7015         8.8247        86.0568      1531.1975      1551.6975
     1610.5632        12.2500        12.1876      -0.028700       121.8476        33.8781       0.292432         1.5598         2.1044        67.6402         8.3419        86.9042      1531.3340      1551.8340
     1610.7156        12.2500        12.1875      -0.028699       122.1013        34.3273       0.289003         1.5435         2.0994        69.5820         8.1940        87.5330      1531.4705      1551.9705
     1610.8680        12.2500        12.1875      -0.028394       122.1095        34.5409       0.289622         1.5151         2.0951        69.5003         8.1979        87.9950      1531.6069      1552.1069
     1611.0204        12.2500        12.1875      -0.026596       121.9575        34.6693       0.289737         1.4993         2.0940        69.3684         8.3310        88.1180      1531.7433      1552.2433
     1611.1728        12.2500        12.1875      -0.023808       122.0396        34.5053       0.285118         1.5096         2.0985        68.5256         8.6694        87.6829      1531.8798      1552.3798
     1611.3252        12.2500        12.1875      -0.022907       122.2824        34.1964       0.281009         1.5263         2.1056        68.5395         8.9404        87.3832      1532.0161      1552.5161
     1611.4776        12.2500        12.1875      -0.023692       122.9376        34.5119       0.283211         1.5131         2.1077        71.1733         9.0344        87.4421      1532.1526      1552.6526
     1611.6300        12.2500        12.1875      -0.022689       123.7413        35.6259       0.291460         1.4688         2.1018        73.3491         8.9187        87.5334      1532.2889      1552.7889
     1611.7824        12.2500        12.1876      -0.019201       123.8827        36.5331       0.301192         1.4358         2.0937        72.3325         8.4052        87.2949      1532.4254      1552.9254
     1611.9348        12.2500        12.2052      -0.015921       123.5083        35.8347       0.305048         1.4415         2.0929        70.0020         7.9600        86.9742      1532.5618      1553.0618
     1612.0872        12.2500        12.2460      -0.017518       123.2705        33.9549       0.300482         1.4769         2.0989        67.3932         8.2445        87.1964      1532.6982      1553.1982
     1612.2396        12.2500        12.2753      -0.023302       123.5090        33.3488       0.293123         1.5103         2.1014        64.6516         8.9609        87.7811      1532.8345      1553.3345
     1612.3920        12.2500        12.2812      -0.029494       124.2512        35.6338       0.290267         1.5179         2.0942        63.8374         9.2788        88.3096      1532.9709      1553.4709
     1612.5444        12.2500        12.2812      -0.034388       125.3483        39.5949       0.295834         1.5005         2.0825        64.7348         8.8461        88.5464      1533.1073      1553.6073
     1612.6968        12.2500        12.2812      -0.036486       126.5621        42.4324       0.304509         1.4754         2.0728        64.6682         8.2267        88.5363      1533.2437      1553.7437
     1612.8492        12.2500        12.2812      -0.035289       127.2492        42.7801       0.309992         1.4607         2.0677        63.5202         8.0123        88.2755      1533.3800      1553.8800
     1613.0016        12.2500        12.2892      -0.031606       127.0535        41.6971       0.308108         1.4651         2.0692        62.8029         8.2280        87.9012      1533.5164      1554.0164
     1613.1540        12.2500        12.3144      -0.029320       126.2719        39.8671       0.301796         1.4830         2.0781        61.7734         8.8061        87.6772      1533.6527      1554.1527
