~Version Information Block
VERS .                 2.00:  CWLS LOG ASCII STANDARD - VERSION 2.00
WRAP .                   NO:  One line per depth step
~Well Information Block
#MNEM.UNIT        Data Type   Information
#---------- ----------------  -----------
STRT .M              0.0000:  START DEPTH
STOP .M           2799.8928:  STOP DEPTH
STEP .M              0.1524:  STEP
NULL .              -999.25:  NULL VALUE
COMP .                     :  COMPANY
WELL .              GABO-18:  WELL
FLD  .                     :  FIELD
LOC  .   6.635779, 5.238893:  LOCATION
CTRY .                     :  COUNTRY
STAT .                     :  STATE
CNTY .                     :  COUNTY
API  .                     :  API NUMBER
UWI  .                     :  UNIQUE WELL ID
SRVC .                     :  SERVICE COMPANY
DATE .                     :  LOG DATE
~Curve Information Block
#MNEM.UNIT         API CODE   Curve Description
#---------- ----------------  -----------------
DEPTH.M                    :  Reference Depth
BS_COMP.INCHES             :  Bit Size
CALI_COMP.INCHES          0:  Caliper
DRHO_COMP.G/C3            0:  Density Correction Log
ECART_COMP.                :  Neutron Density Seperation
GR   .GAPI                0:  Gamma Ray
GR_COMP.GAPI              0:  Gamma Ray Composite
NPHI .V/V                  :  Neutron Porosity
NPHI_COMP.V/V              :  Neutron Porosity Composite
PEF_COMP.B/E              0:  Photo Electric Factor
RHOB_COMP.G/C3            0:  Bulk Density
RT   .OHMM                0:  True or Deep Resistivity
RT_COMP.OHMM              0:  True or Deep Resistivity Composite
RXO  .OHMM                0:  Invaded Zone Resistivity
RXO_COMP.OHMM             0:  Invaded Zone Resistivity composite
SP_COMP.MV                0:  Spontaneous Potential
TVDSS_COMP.M               :  Reference tvdss log.
TVD_COMP.M                 :  Reference tvd log.
~Parameter Information Block
#MNEM.UNIT            Value   Description
#---------- ----------------  -----------
SET  .                  LCS:  
~Other Information Block
#        DEPTH        BS_COMP      CALI_COMP      DRHO_COMP     ECART_COMP             GR        GR_COMP           NPHI      NPHI_COMP       PEF_COMP      RHOB_COMP             RT        RT_COMP            RXO       RXO_COMP        SP_COMP     TVDSS_COMP       TVD_COMP 
~A
# ...
     2634.0816      -999.2500        14.2446       0.024142         9.4232       125.5970       125.5970         0.4732       0.473166         3.5307         2.3825         1.7745         1.7745         1.6408         1.6408         0.3543      2411.4671      2429.5671
     2634.2340      -999.2500        13.8915       0.019490         9.2547       126.7888       126.7888         0.4708       0.470754         3.5234         2.3781         1.7442         1.7442         1.6434         1.6434        -0.1312      2411.6053      2429.7053
     2634.3864      -999.2500        13.9764       0.017202         9.2598       128.7137       128.7137         0.4732       0.473194         3.5249         2.3743         1.7229         1.7229         1.6495         1.6495        -1.0192      2411.7436      2429.8436
     2634.5388      -999.2500        14.0804       0.017001         9.7086       129.9654       129.9654         0.4869       0.486859         3.5764         2.3740         1.7662         1.7662         1.6569         1.6569        -0.1827      2411.8818      2429.9818
     2634.6912      -999.2500        14.0288       0.018828        10.2024       127.7320       127.7320         0.4976       0.497558         3.6182         2.3809         1.8486         1.8486         1.7011         1.7011         0.3600      2412.0201      2430.1201
     2634.8436      -999.2500        13.6451       0.020779        10.2480       122.6916       122.6916         0.4915       0.491547         3.6958         2.3932         1.9203         1.9203         1.7743         1.7743         0.5106      2412.1584      2430.2584
     2634.9960      -999.2500        14.0237       0.020019         9.1812       116.3434       116.3434         0.4509       0.450856         3.8862         2.4076         1.9112         1.9112         1.8588         1.8588         0.4476      2412.2966      2430.3966
     2635.1484      -999.2500        14.1302       0.028172         9.0164       118.9012       118.9012         0.4395       0.439455         4.0552         2.4184         2.0179         2.0179         1.8833         1.8833        -0.3055      2412.4349      2430.5349
     2635.3008      -999.2500        14.1847       0.030996         8.5573       117.8100       117.8100         0.4275       0.427460         3.9892         2.4154         2.2024         2.2024         1.9162         1.9162        -0.9906      2412.5732      2430.6732
     2635.4532      -999.2500        14.3518       0.032336         7.7846       115.3694       115.3694         0.4057       0.405730         3.8360         2.4130         2.4154         2.4154         1.9947         1.9947        -1.8607      2412.7115      2430.8115
     2635.6056      -999.2500        14.2858       0.036114         6.7502       114.5803       114.5803         0.3678       0.367812         3.7430         2.4245         2.6034         2.6034         2.1430         2.1430        -3.1155      2412.8498      2430.9498
     2635.7580      -999.2500        13.9957       0.039163         6.2260       126.5041       126.5041         0.3443       0.344313         3.6881         2.4374         2.5929         2.5929         2.1752         2.1752        -3.4288      2412.9881      2431.0881
     2635.9104      -999.2500        13.8112       0.030045         6.2941       131.7766       131.7766         0.3592       0.359158         3.5093         2.4161         2.4358         2.4358         2.0778         2.0778        -3.4999      2413.1264      2431.2264
     2636.0628      -999.2500        13.8854       0.018226         6.3466       129.9820       129.9820         0.3807       0.380734         3.3387         2.3828         2.4287         2.4287         2.0038         2.0038        -3.8951      2413.2647      2431.3647
     2636.2152      -999.2500        14.1314       0.009852         5.9340       121.7761       121.7761         0.3844       0.384357         3.2698         2.3561         2.7950         2.7950         2.0920         2.0920        -4.8841      2413.4031      2431.5031
     2636.3676      -999.2500        13.8744       0.008323         4.3978       113.9747       113.9747         0.3259       0.325938         3.4144         2.3767         3.8923         3.8923         2.7124         2.7124        -5.9219      2413.5414      2431.6414
     2636.5200      -999.2500        13.4433       0.006798         2.5787       105.0789       105.0789         0.2428       0.242799         3.8404         2.4243         7.4246         7.4246         5.4709         5.4709        -7.7949      2413.6797      2431.7797
     2636.6724      -999.2500        13.0083       0.004185         1.0840        99.6469        99.6469         0.1735       0.173546         4.0784         2.4650        12.4484        12.4484        12.1067        12.1067       -10.0039      2413.8180      2431.9180
     2636.8248      -999.2500        12.8046    -999.250000         0.1372       100.4234       100.4234         0.1346       0.134630         3.9649         2.4825        16.9521        16.9521        20.7639        20.7639       -12.2385      2413.9564      2432.0564
     2636.9772      -999.2500        12.6970    -999.250000        -0.2560       111.8019       111.8019         0.1356       0.135622         3.5323         2.4612        14.1280        14.1280        21.2653        21.2653       -13.9734      2414.0947      2432.1947
     2637.1296      -999.2500        12.6110    -999.250000        -0.5032       121.1866       121.1866         0.1589       0.158917         3.2254         2.4100        10.7350        10.7350        14.6908        14.6908       -15.8356      2414.2331      2432.3331
     2637.2820      -999.2500        12.5605    -999.250000        -0.5659       133.8882       133.8882         0.1928       0.192838         3.0530         2.3503         8.3506         8.3506         9.4314         9.4314       -18.0187      2414.3714      2432.4714
     2637.4344      -999.2500        12.5978    -999.250000        -0.4886       150.1352       150.1352         0.2302       0.230152         3.0136         2.2920         7.1938         7.1938         6.8324         6.8324       -20.5501      2414.5098      2432.6098
     2637.5868      -999.2500        12.6229    -999.250000        -0.3967       167.8197       167.8197         0.2594       0.259430         3.0996         2.2478         7.0006         7.0006         5.9076         5.9076       -23.3988      2414.6482      2432.7482
     2637.7392      -999.2500        12.5966    -999.250000        -0.6852       173.7510       173.7510         0.2606       0.260567         3.0819         2.2315         7.1206         7.1206         5.9078         5.9078       -25.3854      2414.7865      2432.8865
     2637.8916      -999.2500        12.5309       0.010293        -1.0498       176.3584       176.3584         0.2570       0.257035         3.0012         2.2191         7.3740         7.3740         6.0700         6.0700       -27.4274      2414.9249      2433.0249
     2638.0440      -999.2500        12.4451       0.013661        -1.3888       176.7614       176.7614         0.2537       0.253722         2.8925         2.2077         7.6144         7.6144         6.2555         6.2555       -29.2628      2415.0633      2433.1633
     2638.1964      -999.2500        12.4458       0.015948        -1.5996       175.3753       175.3753         0.2543       0.254257         2.8011         2.1963         7.6551         7.6551         6.3752         6.3752       -30.3763      2415.2017      2433.3017
     2638.3488      -999.2500        12.4465       0.027173        -1.7432       175.7393       175.7393         0.2488       0.248759         2.7417         2.1982         7.5458         7.5458         6.2834         6.2834       -32.0481      2415.3401      2433.4401
     2638.5012      -999.2500        12.4380       0.034038        -1.8293       177.6604       177.6604         0.2466       0.246635         2.7098         2.1975         7.4275         7.4275         6.1588         6.1588       -33.2983      2415.4785      2433.5785
