~Version Information Block
VERS .                 2.00:  CWLS LOG ASCII STANDARD - VERSION 2.00
WRAP .                   NO:  One line per depth step
~Well Information Block
#MNEM.UNIT        Data Type   Information
#---------- ----------------  -----------
STRT .M              0.0000:  START DEPTH
STOP .M           2799.8928:  STOP DEPTH
STEP .M              0.1524:  STEP
NULL .              -999.25:  NULL VALUE
COMP .                     :  COMPANY
WELL .              GABO-18:  WELL
FLD  .                     :  FIELD
LOC  .   6.635779, 5.238893:  LOCATION
CTRY .                     :  COUNTRY
STAT .                     :  STATE
CNTY .                     :  COUNTY
API  .                     :  API NUMBER
UWI  .                     :  UNIQUE WELL ID
SRVC .                     :  SERVICE COMPANY
DATE .                     :  LOG DATE
~Curve Information Block
#MNEM.UNIT         API CODE   Curve Description
#---------- ----------------  -----------------
DEPTH.M                    :  Reference Depth
BS_COMP.INCHES             :  Bit Size
CALI_COMP.INCHES          0:  Caliper
DRHO_COMP.G/C3            0:  Density Correction Log
ECART_COMP.                :  Neutron Density Seperation
GR   .GAPI                0:  Gamma Ray
GR_COMP.GAPI              0:  Gamma Ray Composite
NPHI .V/V                  :  Neutron Porosity
NPHI_COMP.V/V              :  Neutron Porosity Composite
PEF_COMP.B/E              0:  Photo Electric Factor
RHOB_COMP.G/C3            0:  Bulk Density
RT   .OHMM                0:  True or Deep Resistivity
RT_COMP.OHMM              0:  True or Deep Resistivity Composite
RXO  .OHMM                0:  Invaded Zone Resistivity
RXO_COMP.OHMM             0:  Invaded Zone Resistivity composite
SP_COMP.MV                0:  Spontaneous Potential
TVDSS_COMP.M               :  Reference tvdss log.
TVD_COMP.M                 :  Reference tvd log.
~Parameter Information Block
#MNEM.UNIT            Value   Description
#---------- ----------------  -----------
SET  .                  LCS:  
~Other Information Block
#        DEPTH        BS_COMP      CALI_COMP      DRHO_COMP     ECART_COMP             GR        GR_COMP           NPHI      NPHI_COMP       PEF_COMP      RHOB_COMP             RT        RT_COMP            RXO       RXO_COMP        SP_COMP     TVDSS_COMP       TVD_COMP 
~A
# ...
     2300.3256        12.2500        12.6172    -999.250000        -2.5420        35.7828        35.7828         0.2303       0.230339         1.7311         2.1890         7.7289         7.7289         8.7190         8.7190       -19.6680      2124.5707      2142.6707
     2300.4780        12.2500        12.6301       0.007171        -2.5503        37.0391        37.0391         0.2322       0.232203         1.7261         2.1855         7.7677         7.7677         8.3716         8.3716       -20.2603      2124.6950      2142.7950
     2300.6304        12.2500        12.6476       0.008998        -2.6391        37.5064        37.5064         0.2339       0.233930         1.7139         2.1782         7.7780         7.7780         7.9385         7.9385       -20.4804      2124.8192      2142.9192
     2300.7828        12.2500        12.6452       0.009000        -2.8385        37.0824        37.0824         0.2334       0.233435         1.6834         2.1690         7.7384         7.7384         7.6610         7.6610       -20.1455      2124.9435      2143.0435
     2300.9352        12.2500        12.6048       0.008323        -3.0793        36.7061        36.7061         0.2264       0.226414         1.6766         2.1687         7.8220         7.8220         7.6558         7.6558       -19.7154      2125.0677      2143.1677
     2301.0876        12.2500        12.5697       0.008000        -3.2117        36.7519        36.7519         0.2215       0.221459         1.6847         2.1703         7.8043         7.8043         7.7031         7.7031       -19.3797      2125.1920      2143.2920
     2301.2400        12.2500        12.5638       0.007598        -3.2448        38.9822        38.9822         0.2199       0.219940         1.7002         2.1712         7.6949         7.6949         7.7494         7.7494       -19.2353      2125.3162      2143.4162
     2301.3924        12.2500        12.5598       0.006075        -3.2339        46.4477        46.4477         0.2221       0.222095         1.7124         2.1681         7.5691         7.5691         7.7547         7.7547       -19.4066      2125.4405      2143.5405
     2301.5448        12.2500        12.5395       0.004551        -2.9088        54.8721        54.8721         0.2328       0.232805         1.7732         2.1665         7.5224         7.5224         7.7550         7.7550       -19.8890      2125.5648      2143.6648
     2301.6972        12.2500        12.5318    -999.250000        -2.6233        61.4923        61.4923         0.2402       0.240241         1.8486         2.1684         7.5065         7.5065         7.7901         7.7901       -20.0971      2125.6890      2143.7890
     2301.8496        12.2500        12.5080    -999.250000        -2.5214        65.0993        65.0993         0.2413       0.241309         1.9095         2.1717         7.4920         7.4920         7.9007         7.9007       -19.9299      2125.8133      2143.9133
     2302.0020        12.2500        12.4917    -999.250000        -2.7359        64.5514        64.5514         0.2336       0.233558         1.9253         2.1739         7.4496         7.4496         8.1275         8.1275       -19.3367      2125.9375      2144.0375
     2302.1544        12.2500        12.4905    -999.250000        -3.1204        56.9548        56.9548         0.2243       0.224308         1.8758         2.1701         7.4183         7.4183         8.4406         8.4406       -19.3639      2126.0618      2144.1618
     2302.3068        12.2500        12.4867    -999.250000        -3.2363        48.4226        48.4226         0.2222       0.222152         1.7899         2.1679         7.4668         7.4668         8.7800         8.7800       -19.4388      2126.1860      2144.2860
     2302.4592        12.2500        12.5061    -999.250000        -3.2300        40.9149        40.9149         0.2225       0.222542         1.6995         2.1676         7.5381         7.5381         9.0420         9.0420       -19.7741      2126.3103      2144.4103
     2302.6116        12.2500        12.5285    -999.250000        -3.2202        35.7699        35.7699         0.2218       0.221782         1.6295         2.1694         7.5906         7.5906         9.1593         9.1593       -20.4976      2126.4345      2144.5345
     2302.7640        12.2500        12.5411    -999.250000        -3.3252        32.2975        32.2975         0.2159       0.215886         1.5967         2.1739         7.6249         7.6249         9.2020         9.2020       -21.3723      2126.5588      2144.6588
     2302.9164        12.2500        12.5213    -999.250000        -3.5176        32.0939        32.0939         0.2091       0.209121         1.5989         2.1756         7.6347         7.6347         9.1712         9.1712       -21.8722      2126.6830      2144.7830
     2303.0688        12.2500        12.5122       0.007033        -3.6782        34.0791        34.0791         0.2047       0.204676         1.6129         2.1750         7.6522         7.6522         9.1196         9.1196       -22.0470      2126.8073      2144.9073
     2303.2212        12.2500        12.5068       0.008998        -3.7479        37.4335        37.4335         0.2034       0.203377         1.6323         2.1736         7.6804         7.6804         9.0735         9.0735       -21.9461      2126.9315      2145.0315
     2303.3736        12.2500        12.5066       0.009000        -3.6953        40.3994        40.3994         0.2022       0.202211         1.6773         2.1782         7.6621         7.6621         9.0483         9.0483       -21.7122      2127.0558      2145.1558
     2303.5260        12.2500        12.5165       0.009631        -3.4484        42.2773        42.2773         0.2061       0.206118         1.7342         2.1840         7.5315         7.5315         9.1355         9.1355       -21.8487      2127.1801      2145.2801
     2303.6784        12.2500        12.4982       0.008428        -3.1666        43.4630        43.4630         0.2152       0.215161         1.7708         2.1831         7.4154         7.4154         9.2483         9.2483       -22.0730      2127.3043      2145.4043
     2303.8308        12.2500        12.4929       0.005692        -2.9830        43.9260        43.9260         0.2252       0.225240         1.7740         2.1754         7.3864         7.3864         9.3431         9.3431       -22.1884      2127.4286      2145.5286
     2303.9832        12.2500        12.5097       0.004167        -3.1637        43.2750        43.2750         0.2244       0.224392         1.7298         2.1678         7.5600         7.5600         9.3583         9.3583       -21.8373      2127.5528      2145.6528
     2304.1356        12.2500        12.5551       0.003322        -3.4252        40.2479        40.2479         0.2138       0.213783         1.6992         2.1724         7.8472         7.8472         9.3953         9.3953       -20.8797      2127.6771      2145.7771
     2304.2880        12.2500        12.6290    -999.250000        -3.5641        37.7594        37.7594         0.2060       0.205960         1.6914         2.1785         7.9236         7.9236         9.4795         9.4795       -19.9099      2127.8013      2145.9013
     2304.4404        12.2500        12.6831    -999.250000        -3.6001        36.4225        36.4225         0.2022       0.202198         1.6980         2.1830         7.8023         7.8023         9.5698         9.5698       -19.1087      2127.9256      2146.0256
     2304.5928        12.2500        12.6902    -999.250000        -3.6182        36.5969        36.5969         0.2017       0.201655         1.7018         2.1830         7.5860         7.5860         9.5882         9.5882       -18.6482      2128.0498      2146.1498
     2304.7452        12.2500        12.6368    -999.250000        -3.6701        38.3590        38.3590         0.1988       0.198788         1.7274         2.1852         7.5542         7.5542         9.6610         9.6610       -19.4296      2128.1741      2146.2741
