~Version Information Block
VERS .                 2.00:  CWLS LOG ASCII STANDARD - VERSION 2.00
WRAP .                   NO:  One line per depth step
~Well Information Block
#MNEM.UNIT        Data Type   Information
#---------- ----------------  -----------
STRT .M           1550.0604:  START DEPTH
STOP .M           3909.9744:  STOP DEPTH
STEP .M              0.1524:  STEP
NULL .              -999.25:  NULL VALUE
COMP .                     :  COMPANY
WELL .               GABO52:  WELL
FLD  .                     :  FIELD
LOC  .   6.643655, 5.227736:  LOCATION
CTRY .                     :  COUNTRY
STAT .                     :  STATE
CNTY .                     :  COUNTY
API  .                     :  API NUMBER
UWI  .                     :  UNIQUE WELL ID
SRVC .                     :  SERVICE COMPANY
DATE .                     :  LOG DATE
~Curve Information Block
#MNEM.UNIT         API CODE   Curve Description
#---------- ----------------  -----------------
DEPTH.M                    :  Depth
DRHO .G/C3                 :  Density Correction Log
DTS_COMP.US/F              :  Shear Sonic 
DT_COMP.US/F               :  Compressional Sonic
GR_COMP.GAPI               :  Gamma Ray
HCAL .INCHES               :  Caliper
NPHI_COMP.V/V              :  Neutron Porosity
PEF_COMP.B/E               :  Photo Electric Factor
RDEEP_COMP.OHMM            :  Deep Resistivity
RHOB_COMP.G/C3             :  Bulk Density
RSHAL_COMP.OHMM            :  Shallow Resistivity
TVD  .M                    :  Reference TVD
TVDSS.M                    :  Reference TVDss
~Parameter Information Block
#MNEM.UNIT            Value   Description
#---------- ----------------  -----------
SET  .                  LCS:  
~Other Information Block
#        DEPTH           DRHO       DTS_COMP        DT_COMP        GR_COMP           HCAL      NPHI_COMP       PEF_COMP     RDEEP_COMP      RHOB_COMP     RSHAL_COMP            TVD          TVDSS 
~A
# ...
     3436.0104       0.064464       168.2242        87.5254       142.1682         8.9951       0.345696         3.3923         3.4092         2.5280         3.5410      3013.6101      2993.4900
     3436.1628       0.061359       168.0683        88.1145       143.9148         9.1073       0.345199         3.3468         3.3220         2.5264         3.4823      3013.7256      2993.6055
     3436.3152       0.056603       168.7892        87.5974       144.2610         9.1971       0.363417         3.3392         3.2448         2.5138         3.3772      3013.8411      2993.7209
     3436.4676       0.051246       171.5642        88.0418       145.8391         9.3317       0.372599         3.3626         3.1951         2.5084         3.3003      3013.9565      2993.8364
     3436.6200       0.053247       173.4907        89.8138       139.5225         9.3991       0.378906         3.3879         3.1550         2.5199         3.2126      3014.0720      2993.9519
     3436.7724       0.053773       171.5057        89.3979       142.6677         9.3766       0.363713         3.4001         3.1351         2.5230         3.2191      3014.1877      2994.0676
     3436.9248       0.062845       171.4076        87.7787       142.5185         9.2195       0.335103         3.4102         3.1338         2.5239         3.1941      3014.3032      2994.1831
     3437.0772       0.081963       171.3640        87.2572       144.5515         9.0175       0.346529         3.4536         3.0835         2.5119         3.2348      3014.4187      2994.2986
     3437.2296       0.106928       170.5481        87.5808       142.7126         8.9726       0.341369         3.5168         2.9845         2.5074         3.1111      3014.5342      2994.4141
     3437.3820       0.128902       168.8556        88.0335       141.6696         9.1073       0.356687         3.5770         2.9008         2.5205         3.0260      3014.6497      2994.5295
     3437.5344       0.126536       170.1074        89.0212       142.3450         9.2644       0.356885         3.5913         2.8306         2.5283         2.9404      3014.7651      2994.6450
     3437.6868       0.108445       174.1700        90.8079       139.7077         9.2644       0.397227         3.5607         2.7449         2.5302         2.8685      3014.8806      2994.7605
     3437.8392       0.083280       176.4761        92.3117       140.8300         9.3093       0.402721         3.5040         2.6671         2.5202         2.7971      3014.9961      2994.8760
     3437.9916       0.067416       177.3515        92.5874       137.8958         9.3317       0.420706         3.4458         2.5685         2.5095         2.7284      3015.1116      2994.9915
     3438.1440       0.064780       178.2229        92.5475       137.2992         9.3542       0.408236         3.4300         2.5353         2.5016         2.6799      3015.2271      2995.1069
     3438.2964       0.060892       179.2214        92.7266       130.6658         9.2644       0.392439         3.4525         2.5008         2.4942         2.6968      3015.3425      2995.2224
     3438.4488       0.056291       179.5111        93.4787       129.2101         9.3430       0.380205         3.4878         2.4675         2.5043         2.6838      3015.4580      2995.3379
     3438.6012       0.049254       179.7514        94.3024       133.3329         9.3542       0.381286         3.4909         2.4551         2.5171         2.6798      3015.5735      2995.4534
     3438.7536       0.048092       179.8761        93.4523       139.3113         9.3766       0.440068         3.4639         2.4073         2.5261         2.5889      3015.6890      2995.5688
     3438.9060       0.052638       180.1387        92.7899       139.2216         9.4215       0.426847         3.4376         2.3597         2.5191         2.5054      3015.8044      2995.6843
     3439.0584       0.063307       180.2422        92.7012       136.1887         9.4664       0.405723         3.4577         2.3580         2.5125         2.5026      3015.9199      2995.7998
     3439.2108       0.074214       180.7030        91.9447       133.0305         9.3991       0.382023         3.5372         2.3806         2.5234         2.5429      3016.0354      2995.9153
     3439.3632       0.075704       181.0968        91.1928       131.8145         9.5337       0.369284         3.6513         2.3770         2.5325         2.5646      3016.1509      2996.0308
     3439.5156       0.074879       179.7872        91.2574       132.4322         9.3766       0.395717         3.7305         2.3542         2.5436         2.5335      3016.2664      2996.1462
     3439.6680       0.073684       178.8200        92.0820       133.2423         9.3991       0.388557         3.7263         2.3359         2.5300         2.5146      3016.3818      2996.2617
     3439.8204       0.076008       180.2828        92.1584       138.1997         9.4215       0.412402         3.6582         2.3453         2.5184         2.4950      3016.4976      2996.3774
     3439.9728       0.073040       181.0987        92.0531       138.3270         9.4215       0.381112         3.5991         2.3350         2.5037         2.4949      3016.6130      2996.4929
     3440.1252       0.062382       180.9019        92.7834       139.7774         9.4889       0.360543         3.5862         2.3353         2.5024         2.4929      3016.7285      2996.6084
     3440.2776       0.054343       180.9669        93.5871       135.4423         9.3766       0.339498         3.6085         2.3202         2.4935         2.4818      3016.8440      2996.7239
     3440.4300       0.056572       180.6082        93.0971       135.8064         9.3991       0.376821         3.6047         2.2910         2.4808         2.4871      3016.9595      2996.8394
     3440.5824       0.073627       180.7455        92.2289       135.4460         9.3766       0.400002         3.5667         2.2581         2.4736         2.4640      3017.0750      2996.9548
     3440.7348       0.080677       182.4845        93.2442       136.1687         9.4103       0.404383         3.5098         2.2288         2.4669         2.4277      3017.1904      2997.0703
     3440.8872       0.072909       183.1281        94.1846       133.3387         9.5113       0.417477         3.4897         2.2135         2.4705         2.4230      3017.3059      2997.1858
     3441.0396       0.054199       182.8408        94.5140       137.1389         9.3093       0.445504         3.4972         2.2089         2.4630         2.4137      3017.4214      2997.3013
     3441.1920       0.048873       181.9400        93.9918       131.2124         9.3542       0.457062         3.5086         2.1789         2.4767         2.3785      3017.5369      2997.4167
     3441.3444       0.056241       182.2554        93.8932       135.3721         9.6909       0.430804         3.5085         2.1390         2.4892         2.3536      3017.6523      2997.5322
     3441.4968       0.063382       185.2214        94.5902       133.0301         9.3093       0.419031         3.5096         2.1098         2.4973         2.3231      3017.7678      2997.6477
     3441.6492       0.068226       186.5405        94.3894       135.7974         9.3093       0.415822         3.5117         2.0853         2.4982         2.3110      3017.8833      2997.7632
     3441.8016       0.067547       186.7863        94.2414       130.6052         9.3991       0.425846         3.5175         2.0668         2.4958         2.2996      3017.9988      2997.8787
     3441.9540       0.072197       187.2207        94.2467       137.4904         9.3766       0.421944         3.5537         2.0452         2.5019         2.2863      3018.1143      2997.9941
     3442.1064       0.075189       185.3353        94.0288       133.7829         9.5113       0.410282         3.6248         2.0348         2.5048         2.2573      3018.2297      2998.1096
     3442.2588       0.078278       183.1718        94.1852       133.1786         9.5001       0.382080         3.6788         2.0327         2.5165         2.2617      3018.3452      2998.2251
