~Version Information Block
VERS .                 2.00:  CWLS LOG ASCII STANDARD - VERSION 2.00
WRAP .                   NO:  One line per depth step
~Well Information Block
#MNEM.UNIT        Data Type   Information
#---------- ----------------  -----------
STRT .M              0.0000:  START DEPTH
STOP .M           2799.8928:  STOP DEPTH
STEP .M              0.1524:  STEP
NULL .              -999.25:  NULL VALUE
COMP .                     :  COMPANY
WELL .              GABO-18:  WELL
FLD  .                     :  FIELD
LOC  .   6.635779, 5.238893:  LOCATION
CTRY .                     :  COUNTRY
STAT .                     :  STATE
CNTY .                     :  COUNTY
API  .                     :  API NUMBER
UWI  .                     :  UNIQUE WELL ID
SRVC .                     :  SERVICE COMPANY
DATE .                     :  LOG DATE
~Curve Information Block
#MNEM.UNIT         API CODE   Curve Description
#---------- ----------------  -----------------
DEPTH.M                    :  Reference Depth
BS_COMP.INCHES             :  Bit Size
CALI_COMP.INCHES          0:  Caliper
DRHO_COMP.G/C3            0:  Density Correction Log
ECART_COMP.                :  Neutron Density Seperation
GR   .GAPI                0:  Gamma Ray
GR_COMP.GAPI              0:  Gamma Ray Composite
NPHI .V/V                  :  Neutron Porosity
NPHI_COMP.V/V              :  Neutron Porosity Composite
PEF_COMP.B/E              0:  Photo Electric Factor
RHOB_COMP.G/C3            0:  Bulk Density
RT   .OHMM                0:  True or Deep Resistivity
RT_COMP.OHMM              0:  True or Deep Resistivity Composite
RXO  .OHMM                0:  Invaded Zone Resistivity
RXO_COMP.OHMM             0:  Invaded Zone Resistivity composite
SP_COMP.MV                0:  Spontaneous Potential
TVDSS_COMP.M               :  Reference tvdss log.
TVD_COMP.M                 :  Reference tvd log.
~Parameter Information Block
#MNEM.UNIT            Value   Description
#---------- ----------------  -----------
SET  .                  LCS:  
~Other Information Block
#        DEPTH        BS_COMP      CALI_COMP      DRHO_COMP     ECART_COMP             GR        GR_COMP           NPHI      NPHI_COMP       PEF_COMP      RHOB_COMP             RT        RT_COMP            RXO       RXO_COMP        SP_COMP     TVDSS_COMP       TVD_COMP 
~A
# ...
     2684.3736      -999.2500        13.2544       0.018869         9.6022       109.0694       109.0694         0.4870       0.487030         3.5985         2.3684         1.9548         1.9548         1.7379         1.7379        -2.5534      2457.3898      2475.4898
     2684.5260      -999.2500        13.1869       0.023417        11.3403       110.1711       110.1711         0.5322       0.532217         3.5569         2.3800         1.9089         1.9089         1.7142         1.7142        -2.4191      2457.5299      2475.6299
     2684.6784      -999.2500        13.0851       0.028356        13.3148       111.0515       111.0515         0.5835       0.583475         3.5724         2.3933         1.8542         1.8542         1.6765         1.6765        -2.3151      2457.6701      2475.7701
     2684.8308      -999.2500        12.9921       0.034636        14.9706       111.7340       111.7340         0.6273       0.627324         3.6465         2.4030         1.8054         1.8054         1.6296         1.6296        -2.0785      2457.8102      2475.9102
     2684.9832      -999.2500        12.9768       0.047585        15.1434       111.9695       111.9695         0.6325       0.632502         3.7425         2.4030         1.8068         1.8068         1.5930         1.5930        -1.1833      2457.9504      2476.0504
     2685.1356      -999.2500        12.9206       0.048997        12.0162       108.7102       108.7102         0.5505       0.550499         3.8474         2.3833         1.9719         1.9719         1.6515         1.6515        -1.1607      2458.0906      2476.1906
     2685.2880      -999.2500        12.7890       0.047236         9.2344       105.2175       105.2175         0.4763       0.476329         4.0071         2.3678         2.2637         2.2637         1.8265         1.8265        -2.1845      2458.2308      2476.3308
     2685.4404      -999.2500        12.5843       0.055164         7.3150       101.9059       101.9059         0.4213       0.421251         4.2319         2.3637         2.6638         2.6638         2.1414         2.1414        -4.3557      2458.3710      2476.4710
     2685.5928      -999.2500        12.6937       0.093238         6.2752        98.7095        98.7095         0.3818       0.381834         4.5283         2.3774         3.1483         3.1483         2.6311         2.6311        -7.8028      2458.5112      2476.6112
     2685.7452      -999.2500        12.9432       0.109529         4.3401       100.3869       100.3869         0.3413       0.341289         4.3755         2.3482         3.6533         3.6533         3.0767         3.0767        -9.3695      2458.6514      2476.7514
     2685.8976      -999.2500        13.1218       0.126731         3.7260       100.9677       100.9677         0.3184       0.318422         4.3292         2.3556         3.8787         3.8787         3.3120         3.3120        -9.9195      2458.7916      2476.8916
     2686.0500      -999.2500        13.1472       0.147530         4.4979        99.7563        99.7563         0.3108       0.310803         4.3482         2.4069         3.8205         3.8205         3.3663         3.3663        -9.9847      2458.9318      2477.0318
     2686.2024      -999.2500        13.1411       0.172204         6.5101        96.4722        96.4722         0.3144       0.314425         4.3532         2.5015         3.5107         3.5107         3.2879         3.2879       -10.1126      2459.0721      2477.1721
     2686.3548      -999.2500        13.1176       0.128052         6.7163        96.7946        96.7946         0.3366       0.336571         4.2519         2.4749         3.5842         3.5842         3.1653         3.1653       -10.1576      2459.2123      2477.3123
     2686.5072      -999.2500        13.1063       0.096220         6.6036        95.8113        95.8113         0.3405       0.340480         4.1914         2.4627         4.0091         4.0091         3.2434         3.2434        -9.7716      2459.3525      2477.4525
     2686.6596      -999.2500        13.1320       0.075228         6.2089        94.6698        94.6698         0.3212       0.321174         4.2138         2.4752         4.5353         4.5353         3.5315         3.5315        -9.0363      2459.4928      2477.5928
     2686.8120      -999.2500        13.2461       0.064684         5.7046        94.6467        94.6467         0.2801       0.280116         4.3355         2.5184         4.9105         4.9105         3.9550         3.9550        -8.0965      2459.6330      2477.7330
     2686.9644      -999.2500        13.1205       0.073053         6.5687       100.5570       100.5570         0.2658       0.265814         4.4300         2.5854         4.3660         4.3660         3.7020         3.7020        -7.8009      2459.7733      2477.8733
     2687.1168      -999.2500        12.8677       0.073242         7.4252       109.4859       109.4859         0.2773       0.277253         4.3034         2.6092         3.5259         3.5259         3.0818         3.0818        -7.3409      2459.9136      2478.0136
     2687.2692      -999.2500        12.6466       0.060545         7.6851       116.4925       116.4925         0.3001       0.300095         4.0537         2.5841         2.8296         2.8296         2.5261         2.5261        -7.6499      2460.0538      2478.1538
     2687.4216      -999.2500        12.7255       0.039128         7.0094       118.5133       118.5133         0.3224       0.322395         3.7499         2.5131         2.4861         2.4861         2.2454         2.2454        -9.0215      2460.1941      2478.2941
     2687.5740      -999.2500        12.8932       0.039873         4.9839       110.9634       110.9634         0.3156       0.315571         3.5243         2.4232         2.5877         2.5877         2.3561         2.3561       -10.9038      2460.3344      2478.4344
     2687.7264      -999.2500        13.0884       0.055824         2.4402       104.6055       104.6055         0.3019       0.301942         3.3639         2.3188         2.8441         2.8441         2.6407         2.6407       -12.4291      2460.4747      2478.5747
     2687.8788      -999.2500        13.2537       0.070522         0.6017       102.3233       102.3233         0.2937       0.293705         3.2425         2.2406         3.1427         3.1427         2.8449         2.8449       -13.7257      2460.6150      2478.7150
     2688.0312      -999.2500        13.3260       0.085284        -0.1391       104.8229       104.8229         0.2899       0.289860         3.1396         2.2099         3.3622         3.3622         2.8823         2.8823       -14.3160      2460.7553      2478.8553
     2688.1836      -999.2500        13.1053       0.115751         0.4497       112.0367       112.0367         0.2788       0.278760         3.0161         2.2579         3.2392         3.2392         2.6905         2.6905       -12.7498      2460.8956      2478.9956
     2688.3360      -999.2500        13.0053       0.110820         1.5875       110.4976       110.4976         0.2992       0.299207         3.0745         2.2807         2.8456         2.8456         2.4135         2.4135        -9.2351      2461.0359      2479.1359
     2688.4884      -999.2500        12.8414       0.087951         3.3303       109.7243       109.7243         0.3399       0.339863         3.3566         2.3001         2.4228         2.4228         2.1980         2.1980        -5.9824      2461.1762      2479.2762
     2688.6408      -999.2500        12.5186       0.060532         5.7929       111.1469       111.1469         0.3974       0.397387         3.7182         2.3273         2.0621         2.0621         2.0474         2.0474        -3.6946      2461.3166      2479.4166
     2688.7932      -999.2500        12.5480       0.047566         9.1548       115.0125       115.0125         0.4685       0.468539         3.9020         2.3768         1.8638         1.8638         1.9330         1.9330        -3.0629      2461.4569      2479.5569
