~Version Information Block
VERS .                 2.00:  CWLS LOG ASCII STANDARD - VERSION 2.00
WRAP .                   NO:  One line per depth step
~Well Information Block
#MNEM.UNIT        Data Type   Information
#---------- ----------------  -----------
STRT .M              0.0000:  START DEPTH
STOP .M           2748.9912:  STOP DEPTH
STEP .M              0.1524:  STEP
NULL .              -999.25:  NULL VALUE
COMP .                     :  COMPANY
WELL .               GABO13:  LOCATION
FLD  .                     :  FIELD
LOC  .   6.617986, 5.233868:  LOCATION
CTRY .                     :  COUNTRY
STAT .                     :  STATE
CNTY .                     :  COUNTY
API  .                     :  API NUMBER
UWI  .                     :  UNIQUE WELL ID
SRVC .                     :  SERVICE COMPANY
DATE .                     :  LOG DATE
~Curve Information Block
#MNEM.UNIT         API CODE   Curve Description
#---------- ----------------  -----------------
DEPTH.M                    :  Depth
BS_COMP.INCHES             :  Bit Size
CALI_COMP.INCHES          0:  Caliper
DRHO_COMP.G/C3             :  Density Correction Log
DT_COMP.US/F              0:  Compressional Sonic
ECART_COMP.                :  Neutron Density Seperation
GR_COMP.GAPI              0:  Gamma Ray
NPHI_COMP.V/V              :  Neutron Porosity
PEF_COMP.B/E              0:  Photo Electric Factor
RHOB_COMP.G/C3            0:  Bulk Density
RDeep_COMP.OHMM           0:  Deep Resistivity
RShal_COMP.OHMM           0:  Shallow Resistivity
SP_COMP.MV                0:  Spontaneous Potential
TVDSS_COMP.M               :  Reference TVD sub-sea log.
TVD_COMP.M                 :  Reference TVD log.
~Parameter Information Block
#MNEM.UNIT            Value   Description
#---------- ----------------  -----------
SET  .                  LCS:  
~Other Information Block
#        DEPTH        BS_COMP      CALI_COMP      DRHO_COMP        DT_COMP     ECART_COMP        GR_COMP      NPHI_COMP       PEF_COMP      RHOB_COMP      RDeep_COMP     RShal_COMP        SP_COMP     TVDSS_COMP       TVD_COMP 
~A
# ...
     2438.4000        12.2500        14.6253       0.027665        91.9982         6.0172       123.6221       0.333652         3.2658         2.4447         3.5967         2.8527        -7.9587      2424.0178      2437.8178
     2438.5524        12.2500        14.8496       0.031265        92.3900         6.5379       126.5174       0.353812         3.1884         2.4372         3.5224         2.7309        -7.7057      2424.1697      2437.9697
     2438.7048        12.2500        14.7474       0.034263        92.5982         6.5125       122.4140       0.354106         3.2168         2.4354         3.5063         2.6116        -7.5477      2424.3216      2438.1216
     2438.8572        12.2500        14.4458       0.040597        92.6193         5.9695       117.6278       0.333452         3.2713         2.4428         3.5356         2.5685        -7.5341      2424.4734      2438.2734
     2439.0096        12.2500        14.2211       0.046436        92.2897         5.3240       115.0728       0.303430         3.3623         2.4605         3.6037         2.6445        -7.7092      2424.6253      2438.4253
     2439.1620        12.2500        14.2442       0.044279        91.5736         4.7421       114.2235       0.272340         3.5603         2.4833         3.6996         2.8448        -8.1291      2424.7772      2438.5772
     2439.3144        12.2500        14.1822       0.034641        90.4419         4.1637       114.0688       0.245625         3.8038         2.4989         3.7879         3.1440        -8.6967      2424.9291      2438.7291
     2439.4668        12.2500        14.1313       0.027263        89.4126         3.9790       113.8326       0.237310         3.9295         2.5034         3.8396         3.4330        -8.9442      2425.0809      2438.8809
     2439.6192        12.2500        14.1460       0.024482        88.9045         4.5368       113.0833       0.258499         3.9432         2.4959         3.8536         3.5579        -8.7924      2425.2328      2439.0328
     2439.7716        12.2500        14.2046       0.022080        89.0737         5.5281       111.8668       0.299967         3.9123         2.4764         3.8325         3.3941        -8.4352      2425.3847      2439.1847
     2439.9240        12.2500        14.4596       0.018183        90.0532         6.1709       113.0979       0.330463         3.7982         2.4577         3.7638         2.9660        -7.8956      2425.5366      2439.3366
     2440.0764        12.2500        14.6114       0.019481        91.5187         6.8831       114.2719       0.348642         3.6262         2.4631         3.6457         2.5594        -7.2155      2425.6884      2439.4884
     2440.2288        12.2500        14.6215       0.039343        92.4695         7.9453       114.2856       0.366828         3.4903         2.4858         3.4957         2.3550        -6.4952      2425.8403      2439.6403
     2440.3812        12.2500        14.6403       0.088701        92.4671         9.0553       114.0794       0.386784         3.4501         2.5081         3.3521         2.3511        -5.8245      2425.9922      2439.7922
     2440.5336        12.2500        15.0474       0.153389        92.0245         9.7682       117.3508       0.398065         3.4903         2.5250         3.2748         2.4615        -5.2980      2426.1441      2439.9441
     2440.6860        12.2500        15.0796       0.174987        91.1636         9.7386       119.9939       0.387994         3.5703         2.5403         3.2859         2.5829        -5.0414      2426.2960      2440.0960
     2440.8384        12.2500        14.9065       0.138590        90.2217         9.0823       119.5374       0.359177         3.7802         2.5555         3.3548         2.6705        -5.2301      2426.4478      2440.2478
     2440.9908        12.2500        14.7556       0.077924        89.4525         8.3820       115.7455       0.331074         4.2421         2.5673         3.4410         2.7445        -5.8837      2426.5997      2440.3997
     2441.1432        12.2500        14.4119       0.035954        88.4002         8.5199       108.6480       0.332704         4.9238         2.5715         3.5143         2.8530        -6.7369      2426.7516      2440.5516
     2441.2956        12.2500        14.2075       0.020015        87.1068         9.7883       102.0797       0.371215         5.5761         2.5706         3.5641         2.9785        -7.4215      2426.9035      2440.7035
     2441.4480        12.2500        14.2442       0.016226        87.5866        11.3817        97.5310       0.421046         6.2222         2.5673         3.5757         3.0173        -7.8730      2427.0554      2440.8554
     2441.6004        12.2500        14.3624       0.015382        90.1821        12.7255        94.4417       0.465306         6.8131         2.5607         3.5305         2.9091        -8.0727      2427.2072      2441.0072
     2441.7528        12.2500        14.2983       0.014389        93.1794        13.7254        91.6470       0.500404         7.1211         2.5522         3.4192         2.6977        -7.9678      2427.3591      2441.1591
     2441.9052        12.2500        14.2813       0.013240        95.6239        13.8902        95.3223       0.506890         7.2674         2.5497         3.2587         2.5097        -7.6543      2427.5110      2441.3110
     2442.0576        12.2500        14.4531       0.012589        96.6182        12.7145       100.5335       0.465940         7.5830         2.5592         3.0765         2.3689        -6.9949      2427.6629      2441.4629
     2442.2100        12.2500        14.6009       0.011972        95.4941        11.4240       104.7732       0.413153         7.7720         2.5826         2.8856         2.2631        -5.8973      2427.8148      2441.6148
     2442.3624        12.2500        14.4352       0.010473        92.9516        11.8133       108.5529       0.410126         7.3370         2.6070         2.6957         2.2045        -4.5981      2427.9667      2441.7667
     2442.5148        12.2500        14.5614       0.008323        91.4805        13.4104       104.5362       0.465283         6.5619         2.5949         2.5299         2.1739        -3.6011      2428.1185      2441.9185
     2442.6672        12.2500        14.7775       0.007040        91.8044        14.5927        98.2991       0.532440         5.9034         2.5421         2.3929         2.0813        -2.9274      2428.2704      2442.0704
     2442.8196        12.2500        14.9995       0.008675        94.1833        16.5335        94.5148       0.630917         5.2532         2.4749         2.2674         1.8827        -2.3706      2428.4223      2442.2223
     2442.9720        12.2500        15.2888       0.021679        98.5082        19.3927        94.5043       0.751069         4.4337         2.4178         2.1448         1.6335        -1.9084      2428.5742      2442.3742
     2443.1244        12.2500        15.3611       0.062792       102.6625        18.9585        96.9563       0.759805         3.7392         2.3817         2.0413         1.4675        -1.6984      2428.7261      2442.5261
     2443.2768        12.2500        15.1841       0.124681       104.8601        15.5994        96.4148       0.669568         3.4223         2.3642         1.9651         1.4117        -1.6217      2428.8780      2442.6780
     2443.4292        12.2500        14.9004       0.175427       105.6329        12.1801        93.1070       0.574555         3.3993         2.3515         1.9223         1.4102        -1.4131      2429.0299      2442.8299
     2443.5816        12.2500        14.6504       0.193580       105.7444        10.1474        89.5058       0.525248         3.4754         2.3320         1.9096         1.4200        -1.1182      2429.1817      2442.9817
     2443.7340        12.2500        14.7083       0.183175       105.2589         9.8925        90.1389       0.530684         3.5160         2.3101         1.9056         1.4236        -1.0707      2429.3336      2443.1336
