~Version Information Block
VERS .                 2.00:  CWLS LOG ASCII STANDARD - VERSION 2.00
WRAP .                   NO:  One line per depth step
~Well Information Block
#MNEM.UNIT        Data Type   Information
#---------- ----------------  -----------
STRT .M              0.0000:  START DEPTH
STOP .M           2731.4652:  STOP DEPTH
STEP .M              0.1524:  STEP
NULL .              -999.25:  NULL VALUE
COMP .                     :  COMPANY
WELL .              GABO-19:  WELL
FLD  .                     :  FIELD
LOC  .   6.687920, 5.237424:  LOCATION
CTRY .                     :  COUNTRY
STAT .                     :  STATE
CNTY .                     :  COUNTY
API  .                     :  API NUMBER
UWI  .                     :  UNIQUE WELL ID
SRVC .                     :  SERVICE COMPANY
DATE .                     :  LOG DATE
~Curve Information Block
#MNEM.UNIT         API CODE   Curve Description
#---------- ----------------  -----------------
DEPTH.M                    :  Reference TVD log.
BS_COMP.INCHES             :  BIT SIZE
DRHO_COMP.G/C3            0:  Density Correction
GR_COMP.GAPI              0:  Gamma Ray
LLS_COMP.OHMM             0:  Deep Laterolog resistivity
NPHI_COMP.V/V              :  Neutron Porosity
PEF_COMP.B/E              0:  Photo Electric Facotr
RHOB_COMP.G/C3            0:  Bulk Density
RT_COMP.OHMM              0:  True Resistivity
RXO_COMP.OHMM             0:  Invaded Zone Resistivity
SP_COMP.MV                0:  Spontaneous Potential
TVDSS_COMP.M               :  Reference TVD sub-sea log.
TVD_COMP.M                 :  Reference TVD log.
~Parameter Information Block
#MNEM.UNIT            Value   Description
#---------- ----------------  -----------
SET  .                  LCS:  
~Other Information Block
#        DEPTH        BS_COMP      DRHO_COMP        GR_COMP       LLS_COMP      NPHI_COMP       PEF_COMP      RHOB_COMP        RT_COMP       RXO_COMP        SP_COMP     TVDSS_COMP       TVD_COMP 
~A
# ...
     1185.0624         9.8750    -999.250000        18.0058      -999.2500    -999.250000      -999.2500      -999.2500      -999.2500         0.8206       135.2103      1137.8704      1155.8704
     1185.2148         9.8750    -999.250000        17.3752      -999.2500    -999.250000      -999.2500      -999.2500      -999.2500         0.8359       138.0144      1138.0116      1156.0116
     1185.3672         9.8750    -999.250000        17.4643      -999.2500    -999.250000      -999.2500      -999.2500      -999.2500         1.0830       139.3328      1138.1528      1156.1528
     1185.5196         9.8750    -999.250000        18.0267      -999.2500    -999.250000      -999.2500      -999.2500      -999.2500         1.7680       139.0201      1138.2940      1156.2940
     1185.6720         9.8750    -999.250000        18.5886      -999.2500    -999.250000      -999.2500      -999.2500      -999.2500         3.1573       137.4264      1138.4352      1156.4352
     1185.8244         9.8750    -999.250000        18.9923      -999.2500    -999.250000      -999.2500      -999.2500      -999.2500         4.0786       135.2266      1138.5763      1156.5763
     1185.9768         9.8750    -999.250000        19.3119      -999.2500    -999.250000      -999.2500      -999.2500      -999.2500         3.8851       132.8177      1138.7175      1156.7175
     1186.1292         9.8750    -999.250000        19.4527      -999.2500    -999.250000      -999.2500      -999.2500      -999.2500         3.7743       130.4966      1138.8587      1156.8587
     1186.2816         9.8750    -999.250000        19.4394      -999.2500    -999.250000      -999.2500      -999.2500      -999.2500         3.9856       128.4452      1138.9999      1156.9999
     1186.4340         9.8750    -999.250000        19.4859      -999.2500    -999.250000      -999.2500      -999.2500      -999.2500         4.2625       126.7069      1139.1410      1157.1410
     1186.5864         9.8750    -999.250000        19.9676      -999.2500    -999.250000      -999.2500      -999.2500      -999.2500         4.1945       125.1127      1139.2822      1157.2822
     1186.7388         9.8750    -999.250000        20.9948      -999.2500    -999.250000      -999.2500      -999.2500      -999.2500         3.7749       123.4909      1139.4234      1157.4234
     1186.8912         9.8750    -999.250000        21.9416      -999.2500    -999.250000      -999.2500      -999.2500      -999.2500         3.4723       121.8444      1139.5645      1157.5645
     1187.0436         9.8750    -999.250000        22.1930      -999.2500    -999.250000      -999.2500      -999.2500      -999.2500         3.5620       120.2830      1139.7057      1157.7057
     1187.1960         9.8750    -999.250000        21.9492      -999.2500    -999.250000      -999.2500      -999.2500      -999.2500         3.8950       118.7918      1139.8468      1157.8468
     1187.3484         9.8750    -999.250000        21.3360      -999.2500    -999.250000      -999.2500      -999.2500      -999.2500         4.2147       117.1879      1139.9880      1157.9880
     1187.5008         9.8750    -999.250000        20.4260      -999.2500    -999.250000      -999.2500      -999.2500      -999.2500         4.4746       115.3203      1140.1292      1158.1292
     1187.6532         9.8750    -999.250000        19.3666      -999.2500    -999.250000      -999.2500      -999.2500      -999.2500         4.8876       113.1603      1140.2703      1158.2703
     1187.8056         9.8750    -999.250000        18.5197      -999.2500    -999.250000      -999.2500      -999.2500      -999.2500         5.4999       110.9794      1140.4114      1158.4114
     1187.9580         9.8750    -999.250000        18.2851      -999.2500    -999.250000      -999.2500      -999.2500      -999.2500         6.0289       109.0323      1140.5526      1158.5526
     1188.1104         9.8750    -999.250000        18.7466      -999.2500    -999.250000      -999.2500      -999.2500      -999.2500         6.2964       107.3354      1140.6937      1158.6937
     1188.2628         9.8750    -999.250000        19.9517      -999.2500    -999.250000      -999.2500      -999.2500      -999.2500         6.7027       105.7588      1140.8349      1158.8349
     1188.4152         9.8750    -999.250000        21.4186      -999.2500    -999.250000      -999.2500      -999.2500      -999.2500         7.5428       104.1164      1140.9760      1158.9760
     1188.5676         9.8750    -999.250000        22.3408      -999.2500    -999.250000      -999.2500      -999.2500      -999.2500         8.7108       102.3549      1141.1171      1159.1171
     1188.7200         9.8750    -999.250000        22.1022      -999.2500    -999.250000      -999.2500      -999.2500      -999.2500         9.9554       100.5291      1141.2582      1159.2582
     1188.8724         9.8750    -999.250000        20.9250      -999.2500    -999.250000      -999.2500      -999.2500      -999.2500        11.1425        98.6687      1141.3994      1159.3994
     1189.0248         9.8750    -999.250000        19.8001      -999.2500    -999.250000      -999.2500      -999.2500      -999.2500        12.1193        96.7968      1141.5405      1159.5405
     1189.1772         9.8750    -999.250000        19.2220      -999.2500    -999.250000      -999.2500      -999.2500      -999.2500        12.6490        94.9584      1141.6816      1159.6816
     1189.3296         9.8750    -999.250000        19.0054        60.1216    -999.250000      -999.2500      -999.2500       566.0578        12.7226        93.1704      1141.8227      1159.8227
     1189.4820         9.8750    -999.250000        18.8952        61.7401    -999.250000      -999.2500      -999.2500       560.0244        12.7186        91.3793      1141.9638      1159.9638
     1189.6344         9.8750    -999.250000        19.1748        63.5760    -999.250000      -999.2500      -999.2500       557.1243        13.1524        89.5422      1142.1049      1160.1049
     1189.7868         9.8750    -999.250000        20.0673        65.6080    -999.250000      -999.2500      -999.2500       553.9097        14.2256        87.7426      1142.2460      1160.2460
     1189.9392         9.8750    -999.250000        21.4274        67.6007    -999.250000      -999.2500      -999.2500       548.0076        15.8382        86.1253      1142.3872      1160.3872
     1190.0916         9.8750    -999.250000        22.4214        69.3101    -999.250000      -999.2500      -999.2500       538.9688        17.2125        84.6888      1142.5283      1160.5283
     1190.2440         9.8750    -999.250000        22.1308        70.4423    -999.250000      -999.2500      -999.2500       527.6863        17.1567        83.3595      1142.6693      1160.6693
     1190.3964         9.8750    -999.250000        20.9809        71.0042    -999.250000      -999.2500      -999.2500       516.3701        15.9146        82.0365      1142.8104      1160.8104
     1190.5488         9.8750    -999.250000        19.7575        70.9001    -999.250000      -999.2500      -999.2500       505.3243        14.4435        80.6853      1142.9515      1160.9515
     1190.7012         9.8750    -999.250000        19.0502        70.3306    -999.250000      -999.2500      -999.2500       492.7700        13.3960        79.3133      1143.0926      1161.0926
     1190.8536         9.8750    -999.250000        19.4139        69.4717    -999.250000      -999.2500      -999.2500       476.9818        12.6708        77.9499      1143.2337      1161.2337
     1191.0060         9.8750    -999.250000        20.5939        68.6493    -999.250000      -999.2500      -999.2500       460.0567        11.8346        76.6454      1143.3748      1161.3748
     1191.1584         9.8750    -999.250000        22.1221        68.1382    -999.250000      -999.2500      -999.2500       445.7354        11.1013        75.4464      1143.5159      1161.5159
     1191.3108         9.8750    -999.250000        23.1788        68.0912    -999.250000      -999.2500      -999.2500       436.4776        10.8366        74.2971      1143.6570      1161.6570
