~Version Information Block
VERS .                 2.00:  CWLS LOG ASCII STANDARD - VERSION 2.00
WRAP .                   NO:  One line per depth step
~Well Information Block
#MNEM.UNIT        Data Type   Information
#---------- ----------------  -----------
STRT .M              0.0000:  START DEPTH
STOP .M           2954.7312:  STOP DEPTH
STEP .M              0.1524:  STEP
NULL .              -999.25:  NULL VALUE
COMP .                     :  COMPANY
WELL .               GABO16:  WELL
FLD  .                     :  FIELD
LOC  .   6.656374, 5.257763:  LOCATION
CTRY .                     :  COUNTRY
STAT .                     :  STATE
CNTY .                     :  COUNTY
API  .                     :  API NUMBER
UWI  .                     :  UNIQUE WELL ID
SRVC .                     :  SERVICE COMPANY
DATE .                     :  LOG DATE
~Curve Information Block
#MNEM.UNIT         API CODE   Curve Description
#---------- ----------------  -----------------
DEPTH.M                    :  Reference Depth
BS_COMP.INCHES             :  Bit Size
CALI_COMP.INCHES           :  Caliper
DRHO_COMP.G/C3             :  Density Neutron Seperation
DT_COMP.US/F              0:  Compressional Sonic
GR_COMP.GAPI              0:  Gamma Ray
NPHI_COMP.V/V              :  Neutron Porosity
PEF_COMP.B/E              0:  Photo Electric Factor
RHOB_COMP.G/C3            0:  Bulk Density
RT_COMP.OHMM              0:  True or Deep Resistivity
RXO_COMP.OHMM             0:  Invaded Zone Resistivity
SP_COMP.MV                0:  Spontanuous Potential
TVDSS_COMP.M               :  Reference TVD sub-sea log.
TVD_COMP.M                 :  Reference TVD log.
~Parameter Information Block
#MNEM.UNIT            Value   Description
#---------- ----------------  -----------
SET  .                  LCS:  
~Other Information Block
COMMENT:
COMMENT:
$$MUX      Data from LAS tape
$$MUX      fevsbd 09/10/97 ng95603  ASCII:      GABO-16
$$MUX
$$MUX

#        DEPTH        BS_COMP      CALI_COMP      DRHO_COMP        DT_COMP        GR_COMP      NPHI_COMP       PEF_COMP      RHOB_COMP        RT_COMP       RXO_COMP        SP_COMP     TVDSS_COMP       TVD_COMP 
~A
# ...
     2576.1696        12.2500        14.8353      -0.011532       103.4929       104.3998       0.414169         3.4126         2.4302         2.1130         2.8042        86.1190      2359.3306      2379.8306
     2576.3220        12.2500        14.7713      -0.020081       102.2445       107.2361       0.396504         3.5040         2.4372         2.2304         2.8672        85.2924      2359.4624      2379.9624
     2576.4744        12.2500        14.6742      -0.025854       100.2868       110.3993       0.364320         3.5140         2.4398         2.3583         3.2560        83.6415      2359.5940      2380.0940
     2576.6268        12.2500        14.6295      -0.025069        98.8685       114.6639       0.329236         3.4361         2.4290         2.5028         4.0379        80.8478      2359.7258      2380.2258
     2576.7792        12.2500        14.6680      -0.019784        97.9495       119.5094       0.302969         3.3382         2.4107         2.6820         4.8325        77.7791      2359.8577      2380.3577
     2576.9316        12.2500        14.7088      -0.012210        95.3415       123.4940       0.290740         3.2703         2.3981         2.8977         5.2274        75.7146      2359.9893      2380.4893
     2577.0840        12.2500        14.7169      -0.006141        91.5683       125.8929       0.287346         3.2484         2.3998         3.1343         5.2156        74.5630      2360.1211      2380.6211
     2577.2364        12.2500        14.7400      -0.005943        88.5988       126.2481       0.282173         3.2536         2.4150         3.3507         5.1955        73.6441      2360.2527      2380.7527
     2577.3888        12.2500        14.7301      -0.012003        87.7673       123.8012       0.265160         3.2726         2.4360         3.4947         5.7568        72.7440      2360.3845      2380.8845
     2577.5412        12.2500        14.6602      -0.018572        89.3976       120.3060       0.238465         3.2601         2.4480         3.5483         6.6465        71.7412      2360.5164      2381.0164
     2577.6936        12.2500        14.5941      -0.021076        92.6681       118.9544       0.221727         3.1648         2.4349         3.5315         6.7366        70.6137      2360.6482      2381.1482
     2577.8460        12.2500        14.5705      -0.020091        96.7439       120.1416       0.227009         3.0160         2.3936         3.4772         5.9998        69.5275      2360.7798      2381.2798
     2577.9984        12.2500        14.5764      -0.017808       100.6193       121.7920       0.246626         2.8610         2.3396         3.4086         5.4042        68.4667      2360.9116      2381.4116
     2578.1508        12.2500        14.6174      -0.016715       103.2782       121.9627       0.266054         2.7197         2.2936         3.3306         5.2201        67.3686      2361.0432      2381.5432
     2578.3032        12.2500        14.6931      -0.017799       104.6948       122.2608       0.281738         2.6308         2.2669         3.2452         5.1368        66.7562      2361.1750      2381.6750
     2578.4556        12.2500        14.7319      -0.018779       104.9888       124.2810       0.296420         2.6059         2.2574         3.1698         5.0645        66.8482      2361.3069      2381.8069
     2578.6080        12.2500        14.7009      -0.016679       104.7875       124.5871       0.309786         2.6099         2.2538         3.1138         5.0386        67.0624      2361.4387      2381.9387
     2578.7604        12.2500        14.6269      -0.011499       105.2653       119.8091       0.320827         2.5890         2.2443         3.0739         4.9920        66.9813      2361.5703      2382.0703
     2578.9128        12.2500        14.5412      -0.006226       105.9710       110.8940       0.327303         2.5106         2.2293         3.0525         4.8771        66.7013      2361.7021      2382.2021
     2579.0652        12.2500        14.4905      -0.004638       106.2183       101.9183       0.326411         2.4208         2.2168         3.0570         4.7347        66.3761      2361.8340      2382.3340
     2579.2176        12.2500        14.4805      -0.008521       105.8306        95.0254       0.320147         2.4008         2.2123         3.0927         4.6418        66.1344      2361.9658      2382.4658
     2579.3700        12.2500        14.4646      -0.015489       104.7694        89.5084       0.309892         2.4657         2.2149         3.1685         4.6514        66.1451      2362.0974      2382.5974
     2579.5224        12.2500        14.4256      -0.020881       103.5338        85.4959       0.296917         2.5213         2.2212         3.3063         4.7608        66.3402      2362.2292      2382.7292
     2579.6748        12.2500        14.3606      -0.023588       101.6391        82.8402       0.287720         2.4961         2.2289         3.5223         4.8924        66.6292      2362.3611      2382.8611
     2579.8272        12.2500        14.1943      -0.024451        98.0974        80.1160       0.291998         2.4813         2.2406         3.7894         5.0312        67.3329      2362.4929      2382.9929
     2579.9796        12.2500        14.1605      -0.018275        92.2183        75.1421       0.299451         2.8197         2.2827         4.0590         5.3036        68.7531      2362.6245      2383.1245
     2580.1320        12.2500        14.1681      -0.008521        84.6236        68.4378       0.277783         3.6194         2.3778         4.3215         6.1317        70.5925      2362.7563      2383.2563
     2580.2844        12.2500        14.1835      -0.001710        77.6073        65.7747       0.233448         4.2239         2.4722         4.5839         8.2656        72.4999      2362.8882      2383.3882
     2580.4368        12.2500        14.1875       0.003737        73.5575        64.6856       0.195833         4.8023         2.5660         4.7966        11.1555        74.3462      2363.0200      2383.5200
     2580.5892        12.2500        14.1875       0.014586        73.6568        64.9467       0.177093         5.2131         2.6293         4.8639        12.5139        76.1507      2363.1516      2383.6516
     2580.7416        12.2500        14.1817       0.037803        76.9157        66.5084       0.180084         5.2627         2.6540         4.7404        11.6107        77.9296      2363.2834      2383.7834
     2580.8940        12.2500        14.1857       0.061328        81.9099        70.0818       0.200197         5.0574         2.6470         4.4635        10.0981        79.5138      2363.4153      2383.9153
     2581.0464        12.2500        14.2243       0.060136        86.9851        75.3316       0.233946         4.8478         2.6206         4.0870         8.7046        80.6319      2363.5471      2384.0471
     2581.1988        12.2500        14.2165       0.035397        90.9671        80.7596       0.283907         4.6308         2.5799         3.6541         6.6940        81.3475      2363.6790      2384.1790
     2581.3512        12.2500        14.1606       0.010096        94.1417        85.3810       0.346535         4.3496         2.5305         3.2259         4.3494        82.3802      2363.8108      2384.3108
     2581.5036        12.2500        14.1622      -0.001442        96.5926        88.2830       0.399988         4.0904         2.4921         2.8636         2.8629        83.9271      2363.9424      2384.4424
     2581.6560        12.2500        14.1755      -0.004596        98.6004        89.2322       0.424277         4.0138         2.4805         2.6111         2.4373        85.2634      2364.0742      2384.5742
     2581.8084        12.2500        14.1524      -0.007052        98.7017        89.5648       0.419608         4.1456         2.4984         2.4850         2.5198        85.9720      2364.2061      2384.7061
     2581.9608        12.2500        14.1490      -0.002603        95.1581        89.9089       0.399762         4.3521         2.5308         2.4581         2.8166        86.1835      2364.3379      2384.8379
