~Version Information Block
VERS .                 2.00:  CWLS LOG ASCII STANDARD - VERSION 2.00
WRAP .                   NO:  One line per depth step
~Well Information Block
#MNEM.UNIT        Data Type   Information
#---------- ----------------  -----------
STRT .M              0.0000:  START DEPTH
STOP .M           2954.7312:  STOP DEPTH
STEP .M              0.1524:  STEP
NULL .              -999.25:  NULL VALUE
COMP .                     :  COMPANY
WELL .               GABO16:  WELL
FLD  .                     :  FIELD
LOC  .   6.656374, 5.257763:  LOCATION
CTRY .                     :  COUNTRY
STAT .                     :  STATE
CNTY .                     :  COUNTY
API  .                     :  API NUMBER
UWI  .                     :  UNIQUE WELL ID
SRVC .                     :  SERVICE COMPANY
DATE .                     :  LOG DATE
~Curve Information Block
#MNEM.UNIT         API CODE   Curve Description
#---------- ----------------  -----------------
DEPTH.M                    :  Reference Depth
BS_COMP.INCHES             :  Bit Size
CALI_COMP.INCHES           :  Caliper
DRHO_COMP.G/C3             :  Density Neutron Seperation
DT_COMP.US/F              0:  Compressional Sonic
GR_COMP.GAPI              0:  Gamma Ray
NPHI_COMP.V/V              :  Neutron Porosity
PEF_COMP.B/E              0:  Photo Electric Factor
RHOB_COMP.G/C3            0:  Bulk Density
RT_COMP.OHMM              0:  True or Deep Resistivity
RXO_COMP.OHMM             0:  Invaded Zone Resistivity
SP_COMP.MV                0:  Spontanuous Potential
TVDSS_COMP.M               :  Reference TVD sub-sea log.
TVD_COMP.M                 :  Reference TVD log.
~Parameter Information Block
#MNEM.UNIT            Value   Description
#---------- ----------------  -----------
SET  .                  LCS:  
~Other Information Block
COMMENT:
COMMENT:
$$MUX      Data from LAS tape
$$MUX      fevsbd 09/10/97 ng95603  ASCII:      GABO-16
$$MUX
$$MUX

#        DEPTH        BS_COMP      CALI_COMP      DRHO_COMP        DT_COMP        GR_COMP      NPHI_COMP       PEF_COMP      RHOB_COMP        RT_COMP       RXO_COMP        SP_COMP     TVDSS_COMP       TVD_COMP 
~A
# ...
     2695.0416        12.2500        14.7378      -0.016181       101.6273        94.4930       0.425247         3.9810         2.4018         1.4320         2.3550        82.0675      2462.2207      2482.7207
     2695.1940        12.2500        14.8726      -0.007137        99.5936        94.3833       0.390659         3.9871         2.4108         1.5002         2.6175        82.1108      2462.3525      2482.8525
     2695.3464        12.2500        14.6720      -0.003233        99.5784        94.8584       0.360386         3.8780         2.4189         1.5902         2.4257        82.6811      2462.4846      2482.9846
     2695.4988        12.2500        14.4892      -0.003908       100.3190        96.7279       0.353103         3.7764         2.4227         1.6851         2.1053        83.2337      2462.6165      2483.1165
     2695.6512        12.2500        14.4244      -0.005683       100.1545        99.2973       0.375334         3.7190         2.4220         1.7603         2.0682        83.6087      2462.7485      2483.2485
     2695.8036        12.2500        14.4511      -0.005171        98.3916       100.9179       0.404668         3.7494         2.4258         1.8029         2.1915        83.7283      2462.8806      2483.3806
     2695.9560        12.2500        14.7336      -0.000684        96.8941       100.9205       0.409271         3.9401         2.4413         1.8199         2.2858        83.3198      2463.0125      2483.5125
     2696.1084        12.2500        14.9019       0.005973        96.2362       100.0064       0.385975         4.1934         2.4655         1.8256         2.3945        82.9175      2463.1445      2483.6445
     2696.2608        12.2500        14.7370       0.008952        95.4499        98.7718       0.356682         4.2222         2.4881         1.8357         2.5875        82.8306      2463.2764      2483.7764
     2696.4132        12.2500        14.6656       0.005375        95.5381        97.1568       0.347536         3.9698         2.4935         1.8655         2.7662        82.6852      2463.4084      2483.9084
     2696.5656        12.2500        14.8009      -0.001687        96.6399        96.0912       0.356464         3.6943         2.4775         1.9194         2.7097        82.2312      2463.5403      2484.0403
     2696.7180        12.2500        14.9563      -0.006962        96.5708        97.0698       0.365554         3.5768         2.4524         1.9740         2.5029        81.8570      2463.6724      2484.1724
     2696.8704        12.2500        15.0171      -0.007087        94.8681       100.0017       0.366756         3.5862         2.4368         1.9922         2.4583        82.0238      2463.8044      2484.3044
     2697.0228        12.2500        15.0116      -0.005404        93.4008       102.7926       0.355352         3.5909         2.4378         1.9777         2.6554        82.3608      2463.9363      2484.4363
     2697.1752        12.2500        14.9855      -0.004201        93.0763       103.6499       0.333130         3.5309         2.4491         1.9628         3.0715        82.4723      2464.0684      2484.5684
     2697.3276        12.2500        14.8491      -0.003091        93.9300       102.8961       0.312883         3.4722         2.4541         1.9641         3.3743        82.5053      2464.2002      2484.7002
     2697.4800        12.2500        14.6488      -0.000685        95.3226       102.2756       0.309170         3.4174         2.4450         1.9777         3.1512        82.5443      2464.3323      2484.8323
     2697.6324        12.2500        14.4974       0.003799        95.9425       103.4290       0.320399         3.3140         2.4309         1.9870         2.7059        82.5482      2464.4644      2484.9644
     2697.7848        12.2500        14.5226       0.008070        95.6931       106.1159       0.330610         3.1793         2.4259         1.9796         2.5031        82.5483      2464.5962      2485.0962
     2697.9372        12.2500        14.6947       0.008161        95.8081       107.3857       0.329489         3.0754         2.4335         1.9639         2.5323        82.5146      2464.7283      2485.2283
     2698.0896        12.2500        14.7821       0.002891        96.3802       105.8803       0.324029         3.0345         2.4435         1.9550         2.5928        82.4294      2464.8601      2485.3601
     2698.2420        12.2500        14.7189      -0.003661        96.0549       102.8773       0.328121         3.0303         2.4493         1.9591         2.5767        82.4934      2464.9922      2485.4922
     2698.3944        12.2500        14.6747      -0.004855        94.8023        99.8549       0.342659         3.0363         2.4497         1.9730         2.5213        82.8495      2465.1243      2485.6243
     2698.5468        12.2500        14.7554       0.000086        93.8834        98.0832       0.356215         3.0614         2.4506         1.9865         2.4857        83.1083      2465.2561      2485.7561
     2698.6992        12.2500        14.7684       0.003155        93.4469        98.1033       0.353303         3.1243         2.4571         1.9927         2.5684        83.2782      2465.3882      2485.8882
     2698.8516        12.2500        14.6256       0.000073        93.3947        99.9123       0.334399         3.1885         2.4646         1.9975         2.8822        83.3738      2465.5200      2486.0200
     2699.0040        12.2500        14.5655      -0.006689        93.9902       102.1591       0.318765         3.2222         2.4638         2.0155         3.1254        83.1049      2465.6521      2486.1521
     2699.1564        12.2500        14.6404      -0.011980        94.2051       103.1667       0.318834         3.2418         2.4558         2.0551         2.9350        82.8707      2465.7842      2486.2842
     2699.3088        12.2500        14.6908      -0.014497        93.9544       102.9140       0.326240         3.2883         2.4477         2.1158         2.6452        82.7491      2465.9160      2486.4160
     2699.4612        12.2500        14.6582      -0.016594        93.2514       102.4770       0.326783         3.3435         2.4453         2.2086         2.6512        82.3470      2466.0481      2486.5481
     2699.6136        12.2500        14.6291      -0.017897        90.3090       103.1022       0.319164         3.3692         2.4482         2.3676         2.7854        81.5460      2466.1802      2486.6802
     2699.7660        12.2500        14.6283      -0.018802        85.3697       104.6668       0.311399         3.5120         2.4597         2.6048         2.8819        80.7894      2466.3120      2486.8120
     2699.9184        12.2500        14.5506      -0.020000        79.9120       104.2491       0.303538         3.9699         2.4860         2.8781         3.0918        80.5169      2466.4441      2486.9441
     2700.0708        12.2500        14.4495      -0.021155        75.5812        99.9843       0.284502         4.6126         2.5230         3.1295         4.1947        80.3632      2466.5759      2487.0759
     2700.2232        12.2500        14.3947      -0.016144        74.3984        94.3957       0.252652         4.9190         2.5495         3.3184         7.7174        79.8929      2466.7080      2487.2080
     2700.3756        12.2500        14.3717      -0.003408        76.4611        91.4967       0.221426         4.7055         2.5474         3.4430        12.9560        79.1529      2466.8401      2487.3401
     2700.5280        12.2500        14.4241       0.008219        80.5976        92.3116       0.209590         4.3163         2.5193         3.5171        15.2483        78.3771      2466.9719      2487.4719
     2700.6804        12.2500        14.5191       0.008726        86.1256        94.6014       0.226083         3.9191         2.4833         3.5398        11.7956        77.9390      2467.1040      2487.6040
     2700.8328        12.2500        14.5660      -0.000892        91.4422        97.3228       0.263563         3.5454         2.4518         3.4937         6.3861        78.0762      2467.2358      2487.7358
