~Version Information Block
VERS .                 2.00:  CWLS LOG ASCII STANDARD - VERSION 2.00
WRAP .                   NO:  One line per depth step
~Well Information Block
#MNEM.UNIT        Data Type   Information
#---------- ----------------  -----------
STRT .M              0.0000:  START DEPTH
STOP .M           2799.8928:  STOP DEPTH
STEP .M              0.1524:  STEP
NULL .              -999.25:  NULL VALUE
COMP .                     :  COMPANY
WELL .              GABO-18:  WELL
FLD  .                     :  FIELD
LOC  .   6.635779, 5.238893:  LOCATION
CTRY .                     :  COUNTRY
STAT .                     :  STATE
CNTY .                     :  COUNTY
API  .                     :  API NUMBER
UWI  .                     :  UNIQUE WELL ID
SRVC .                     :  SERVICE COMPANY
DATE .                     :  LOG DATE
~Curve Information Block
#MNEM.UNIT         API CODE   Curve Description
#---------- ----------------  -----------------
DEPTH.M                    :  Reference Depth
BS_COMP.INCHES             :  Bit Size
CALI_COMP.INCHES          0:  Caliper
DRHO_COMP.G/C3            0:  Density Correction Log
ECART_COMP.                :  Neutron Density Seperation
GR   .GAPI                0:  Gamma Ray
GR_COMP.GAPI              0:  Gamma Ray Composite
NPHI .V/V                  :  Neutron Porosity
NPHI_COMP.V/V              :  Neutron Porosity Composite
PEF_COMP.B/E              0:  Photo Electric Factor
RHOB_COMP.G/C3            0:  Bulk Density
RT   .OHMM                0:  True or Deep Resistivity
RT_COMP.OHMM              0:  True or Deep Resistivity Composite
RXO  .OHMM                0:  Invaded Zone Resistivity
RXO_COMP.OHMM             0:  Invaded Zone Resistivity composite
SP_COMP.MV                0:  Spontaneous Potential
TVDSS_COMP.M               :  Reference tvdss log.
TVD_COMP.M                 :  Reference tvd log.
~Parameter Information Block
#MNEM.UNIT            Value   Description
#---------- ----------------  -----------
SET  .                  LCS:  
~Other Information Block
#        DEPTH        BS_COMP      CALI_COMP      DRHO_COMP     ECART_COMP             GR        GR_COMP           NPHI      NPHI_COMP       PEF_COMP      RHOB_COMP             RT        RT_COMP            RXO       RXO_COMP        SP_COMP     TVDSS_COMP       TVD_COMP 
~A
     2058.0096        12.2500      -999.2500    -999.250000      -999.2500        29.2389        29.2389         0.0146    -999.250000      -999.2500      -999.2500        10.8451        10.8451         4.8608         4.8608        -8.7723      1929.6401      1947.7401
     2058.1620        12.2500      -999.2500    -999.250000      -999.2500        32.0766        32.0766         0.2416       0.241631      -999.2500      -999.2500        10.6295        10.6295         4.7183         4.7183        -9.3354      1929.7593      1947.8593
     2058.3144        12.2500      -999.2500    -999.250000      -999.2500        33.5829        33.5829         0.2863       0.286323      -999.2500      -999.2500        10.6069        10.6069         4.7850         4.7850       -10.1008      1929.8785      1947.9785
     2058.4668        12.2500        12.3204    -999.250000      -999.2500        34.2313        34.2313         0.2692       0.269185      -999.2500         2.0938        10.6907        10.6907         5.0098         5.0098       -10.8358      1929.9977      1948.0977
     2058.6192        12.2500        12.3318    -999.250000      -999.2500        34.2285        34.2285         0.2507       0.250688         1.7086         2.1012        10.8108        10.8108         5.3504         5.3504       -11.4926      1930.1169      1948.2169
     2058.7716        12.2500        12.3767    -999.250000      -999.2500        33.4238        33.4238         0.2381       0.238115         1.6895         2.1264        10.8093        10.8093         5.7071         5.7071       -12.4627      1930.2361      1948.3361
     2058.9240        12.2500        12.4827    -999.250000      -999.2500        31.3123        31.3123         0.2323       0.232256         1.6935         2.1496        10.9040        10.9040         5.8923         5.8923       -12.6395      1930.3553      1948.4553
     2059.0764        12.2500        12.4974    -999.250000      -999.2500        29.6223        29.6223         0.2296       0.229571         1.6903         2.1633        10.9616        10.9616         5.8976         5.8976       -12.8407      1930.4744      1948.5744
     2059.2288        12.2500        12.4289       0.015447      -999.2500        28.6842        28.6842         0.2292       0.229184         1.6741         2.1679        10.9373        10.9373         5.7553         5.7553       -13.3577      1930.5936      1948.6936
     2059.3812        12.2500        12.4442       0.023065      -999.2500        27.9237        27.9237         0.2316       0.231623         1.6535         2.1724        10.8131        10.8131         5.5786         5.5786       -14.3589      1930.7127      1948.8127
     2059.5336        12.2500        12.4843       0.027341      -999.2500        28.5101        28.5101         0.2389       0.238885         1.7079         2.1656        10.6214        10.6214         5.4519         5.4519       -14.2294      1930.8319      1948.9319
     2059.6860        12.2500        12.4835       0.033737      -999.2500        28.3627        28.3627         0.2457       0.245710         1.7485         2.1620        10.2960        10.2960         5.3276         5.3276       -13.8174      1930.9510      1949.0510
     2059.8384        12.2500        12.4633       0.041731      -999.2500        27.4618        27.4618         0.2532       0.253233         1.7717         2.1622         9.9849         9.9849         5.1957         5.1957       -13.2437      1931.0701      1949.1701
     2059.9908        12.2500        12.4839       0.048590      -999.2500        26.4232        26.4232         0.2653       0.265318         1.7984         2.1630         9.9963         9.9963         5.0524         5.0524       -12.4772      1931.1892      1949.2892
     2060.1432        12.2500        12.5354       0.050432      -999.2500        28.1827        28.1827         0.2614       0.261419         1.8351         2.1601         9.3602         9.3602         4.9938         4.9938       -11.9774      1931.3083      1949.4083
     2060.2956        12.2500        12.6027       0.047169      -999.2500        33.5455        33.5455         0.2632       0.263184         1.8720         2.1523         8.7463         8.7463         4.9639         4.9639       -11.4813      1931.4274      1949.5274
     2060.4480        12.2500        12.6640       0.040594      -999.2500        43.8109        43.8109         0.2699       0.269949         1.9556         2.1433         8.6585         8.6585         5.0060         5.0060       -11.1327      1931.5466      1949.6466
     2060.6004        12.2500        12.6970       0.032975      -999.2500        60.3038        60.3038         0.2791       0.279145         2.1420         2.1382         9.6215         9.6215         5.1719         5.1719       -11.1186      1931.6657      1949.7657
     2060.7528        12.2500        12.9295       0.025355      -999.2500        78.8645        78.8645         0.3197       0.319692         2.6456         2.1893         9.2496         9.2496         4.9029         4.9029       -11.0241      1931.7848      1949.8848
     2060.9052        12.2500        13.0919       0.031431      -999.2500        90.3104        90.3104         0.3979       0.397905         2.9833         2.2714         8.7555         8.7555         4.5101         4.5101        -9.8243      1931.9040      1950.0040
     2061.0576        12.2500        13.3178       0.035815      -999.2500        94.4330        94.4330         0.4558       0.455837         3.1085         2.3339         8.1097         8.1097         4.2138         4.2138        -8.9246      1932.0231      1950.1231
     2061.2100        12.2500        13.7099       0.026985      -999.2500        91.8961        91.8961         0.4473       0.447332         3.0184         2.3374         7.3785         7.3785         4.2048         4.2048        -9.3853      1932.1422      1950.2422
     2061.3624        12.2500        14.3014       0.011749      -999.2500        91.2110        91.2110         0.3580       0.358048         3.0839         2.2833         7.6688         7.6688         4.7390         4.7390       -10.7310      1932.2614      1950.3614
     2061.5148        12.2500        14.0354       0.005706      -999.2500        94.2297        94.2297         0.3257       0.325729         3.1333         2.2648         8.1443         8.1443         5.0023         5.0023       -11.4958      1932.3806      1950.4806
     2061.6672        12.2500        13.6282    -999.250000      -999.2500       100.6947       100.6947         0.3184       0.318401         3.1071         2.2623         8.2239         8.2239         4.9588         4.9588       -12.2118      1932.4997      1950.5997
     2061.8196        12.2500        13.4161    -999.250000      -999.2500       109.8678       109.8678         0.3206       0.320615         2.9960         2.2655         7.7147         7.7147         4.6534         4.6534       -13.1112      1932.6189      1950.7189
     2061.9720        12.2500        13.4390    -999.250000      -999.2500       118.2467       118.2467         0.3320       0.332029         2.9114         2.2693         7.1127         7.1127         4.4416         4.4416       -14.0584      1932.7381      1950.8381
     2062.1244        12.2500        13.4675    -999.250000      -999.2500       118.3078       118.3078         0.3663       0.366343         3.0474         2.2818         6.9961         6.9961         4.3905         4.3905       -14.8005      1932.8573      1950.9573
     2062.2768        12.2500        13.4750    -999.250000      -999.2500       117.3602       117.3602         0.3989       0.398857         3.1936         2.2967         6.9720         6.9720         4.3826         4.3826       -15.1015      1932.9765      1951.0765
     2062.4292        12.2500        13.4609       0.005293      -999.2500       117.8914       117.8914         0.4221       0.422073         3.2571         2.3099         6.9059         6.9059         4.3766         4.3766       -15.0904      1933.0957      1951.1957
