~Version Information Block
VERS .                 2.00:  CWLS LOG ASCII STANDARD - VERSION 2.00
WRAP .                   NO:  One line per depth step
~Well Information Block
#MNEM.UNIT        Data Type   Information
#---------- ----------------  -----------
STRT .M              0.0000:  START DEPTH
STOP .M           2950.4637:  STOP DEPTH
STEP .M              0.1524:  STEP
NULL .              -999.25:  NULL VALUE
COMP .                     :  COMPANY
WELL .               GABO15:  WELL
FLD  .                     :  FIELD
LOC  .   6.656416, 5.257802:  LOCATION
CTRY .                     :  COUNTRY
STAT .                     :  STATE
CNTY .                     :  COUNTY
API  .                     :  API NUMBER
UWI  .                     :  UNIQUE WELL ID
SRVC .                     :  SERVICE COMPANY
DATE .                     :  LOG DATE
~Curve Information Block
#MNEM.UNIT         API CODE   Curve Description
#---------- ----------------  -----------------
DEPTH.M                    :  Reference Depth.
BS_COMP.INCHES             :  Bit Size
CALI_COMP.INCHES          0:  Caliper
DRHO_COMP.G/C3            0:  Density Correction
DT_COMP.US/F              0:  Compressional Sonic
ECART_COMP.                :  Neutron Density Seperation
GR_COMP.GAPI               :  Gamma Ray
NPHI_COMP.V/V             0:  Neutron Porosity
PEF_COMP.B/E              0:  Photo Electric Factor
RHOB_COMP.G/C3            0:  Bulk Density
RT_COMP.OHMM              0:  True or Deep Resistivity
RXO_COMP.OHMM             0:  Invaded Zone Resistivity
SP_COMP.MV                 :  Values changed using TEXT_EDIT
TVDSS_COMP.M               :  Reference TVD sub-sea log.
TVD_COMP.M                 :  Reference TVD log.
~Parameter Information Block
#MNEM.UNIT            Value   Description
#---------- ----------------  -----------
SET  .                  LCS:  
MFST .DEGF               80:  Mud filtrate sample temperature
RMFS .OHMM              1.9:  Resistivity of Filtrate sample
SP_SH.MV                  0:  Shale baseline value for SP
~Other Information Block
COMMENT:
$$MUX      Data from LAS tape
$$MUX      fevsbd 09/10/97 ng95603  ASCII:      GABO15.fod
$$MUX
$$MUX
#        DEPTH        BS_COMP      CALI_COMP      DRHO_COMP        DT_COMP     ECART_COMP        GR_COMP      NPHI_COMP       PEF_COMP      RHOB_COMP        RT_COMP       RXO_COMP        SP_COMP     TVDSS_COMP       TVD_COMP 
~A
# ...
     2427.8842         9.8750         9.8590    -999.250000        95.8755        -3.2122        41.2525       0.215023         1.7271         2.1810        15.1212         6.7010       -71.2157      2238.6809      2258.6809
     2428.0366         9.8750         9.8590    -999.250000        94.8447        -2.7725        45.3785       0.224005         1.7731         2.1880        15.1789         6.8890       -71.2262      2238.8163      2258.8163
     2428.1890         9.8750         9.8731       0.003008        94.3134        -2.4261        49.8983       0.225997         1.8281         2.2020        15.5422         6.6352       -72.5727      2238.9518      2258.9518
     2428.3414         9.8750         9.9101       0.006000        94.2191        -2.2195        52.7458       0.225010         1.8600         2.2140        16.0978         6.4929       -72.2150      2239.0872      2259.0872
     2428.4938         9.8750         9.9430       0.005992        94.9055        -2.0262        54.2317       0.229020         1.8681         2.2170        16.5803         6.3912       -71.9131      2239.2227      2259.2227
     2428.6462         9.8750         9.9530    -999.250000        96.7178        -1.8600        56.0700       0.237010         1.8901         2.2120        16.8802         7.4834       -71.3923      2239.3582      2259.3582
     2428.7986         9.8750         9.9530    -999.250000        98.7796        -1.8469        58.8443       0.241002         1.9371         2.2060        17.0230         7.6623       -71.4479      2239.4936      2259.4936
     2428.9510         9.8750         9.9530    -999.250000       100.0621        -1.9338        62.1111       0.242003         1.9600         2.2000        16.8937         6.7725       -71.1599      2239.6291      2259.6291
     2429.1034         9.8750         9.9530    -999.250000       100.1879        -2.1005        65.6915       0.243005         1.9460         2.1900        16.8479         6.9664       -71.4446      2239.7646      2259.7646
     2429.2558         9.8750         9.9530    -999.250000        99.8133        -2.2935        70.2361       0.245020         1.9461         2.1770        16.7896         7.6649       -71.9447      2239.9000      2259.9000
     2429.4082         9.8750         9.9530    -999.250000        99.8130        -2.3459        76.9752       0.253038         2.0002         2.1610        16.4446         7.8401       -72.4964      2240.0355      2260.0355
     2429.5606         9.8750         9.9530    -999.250000        99.8750        -2.0452        85.6937       0.268046         2.0700         2.1510        15.9685         8.4634       -73.1981      2240.1709      2260.1709
     2429.7130         9.8750         9.9570    -999.250000        99.7191        -1.4654        94.2047       0.286031         2.0769         2.1500        15.4854         6.4530       -72.9441      2240.3064      2260.3064
     2429.8654         9.8750         9.9771    -999.250000        99.8129        -0.9664       100.7411       0.298000         2.0259         2.1550        15.0960         6.3512       -73.2535      2240.4419      2260.4419
     2430.0178         9.8750        10.0060    -999.250000       100.1877        -0.8472       103.5118       0.297975         1.9759         2.1610        14.8444         6.2758       -72.4822      2240.5773      2260.5773
     2430.1702         9.8750        10.0039    -999.250000       100.6247        -1.0407       101.8614       0.287967         1.9550         2.1680        14.8774         6.1941       -72.1497      2240.7128      2260.7128
     2430.3226         9.8750         9.9710    -999.250000       101.3745        -1.3135        96.5004       0.274995         1.9650         2.1760        15.1224         6.2292       -70.8020      2240.8483      2260.8483
     2430.4750         9.8750         9.9530    -999.250000       101.8747        -1.3595        90.3651       0.273033         1.9679         2.1770        15.2490         6.2263       -71.1251      2240.9837      2260.9837
     2430.6274         9.8750         9.9530    -999.250000       101.2504        -1.1458        86.4939       0.286048         1.9359         2.1660        15.2871         6.5488       -71.1599      2241.1192      2261.1192
     2430.7798         9.8750         9.9530    -999.250000        99.4393        -0.8123        84.1034       0.305041         1.9000         2.1510        15.0960         6.9700       -71.4961      2241.2546      2261.2546
     2430.9322         9.8750         9.9530    -999.250000        96.9397        -0.3992        81.8981       0.321008         1.8981         2.1450        14.6022         6.3789       -72.2071      2241.3901      2261.3901
     2431.0846         9.8750         9.9530    -999.250000        95.1263        -0.0802        78.7910       0.323954         1.9341         2.1561        14.3316         6.2205       -72.1108      2241.5256      2261.5256
     2431.2370         9.8750         9.9530    -999.250000        93.8759        -0.1610        76.4245       0.305929         1.9881         2.1821        14.7254         6.2436       -73.2912      2241.6610      2261.6610
     2431.3894         9.8750         9.9570    -999.250000        92.0952        -0.5343        77.4301       0.277942         2.0422         2.2100        14.8251         6.0616       -73.9113      2241.7965      2261.7965
     2431.5418         9.8750         9.9771    -999.250000        91.1257        -0.9209        80.6213       0.254957         2.1103         2.2290        15.3545         6.0954       -73.6549      2241.9319      2261.9319
     2431.6942         9.8750        10.0000       0.002010        91.6556        -1.2870        85.4533       0.237977         2.2225         2.2390        16.2559         6.9089       -73.0712      2242.0674      2262.0674
     2431.8466         9.8750        10.0141       0.006010        92.7183        -1.4054        91.4681       0.229025         2.4156         2.2480        16.2430         6.1299       -73.1596      2242.2029      2262.2029
     2431.9990         9.8750        10.0371       0.010003        94.7796        -0.8908        97.3986       0.239069         2.6644         2.2570        16.2934         6.7896       -73.3752      2242.3383      2262.3383
     2432.1514         9.8750        10.0700       0.010990        97.7479         0.0879       100.3694       0.266061         2.8269         2.2610        16.2923         8.1479       -73.4786      2242.4738      2262.4738
     2432.3038         9.8750        10.0779       0.006990       100.1543         0.5859        98.1663       0.290020         2.7705         2.2459        15.7860         6.4472       -74.1080      2242.6093      2262.6093
     2432.4562         9.8750        10.0550       0.002997       101.4681         0.2715        95.9419       0.297987         2.5827         2.2169        15.2910         6.0029       -74.1209      2242.7447      2262.7447
     2432.6086         9.8750        10.0390       0.002010       102.2804        -0.4346        97.4634       0.292982         2.4589         2.1900        14.8215         6.9101       -74.9100      2242.8802      2262.8802
     2432.7610         9.8750        10.0431       0.006005       102.9056        -0.9266       101.5780       0.286015         2.4379         2.1770        14.3732         6.8816       -75.3492      2243.0156      2263.0156
     2432.9134         9.8750        10.0882       0.007992       102.9999        -0.8859       107.4686       0.292043         2.4058         2.1690        13.8267         6.2290       -76.7497      2243.1511      2263.1511
     2433.0658         9.8750        10.1721       0.004990       102.6882        -0.5801       113.5915       0.309018         2.3098         2.1560        13.1219         5.9594       -76.6122      2243.2866      2263.2866
     2433.2182         9.8750        10.2210       0.001002       101.1261        -0.6074       118.8837       0.315975         2.2372         2.1430        12.6305         6.1427       -75.7838      2243.4220      2263.4220
