~Version Information Block
VERS .                 2.00:  CWLS LOG ASCII STANDARD - VERSION 2.00
WRAP .                   NO:  One line per depth step
~Well Information Block
#MNEM.UNIT        Data Type   Information
#---------- ----------------  -----------
STRT .M           1550.0604:  START DEPTH
STOP .M           3909.9744:  STOP DEPTH
STEP .M              0.1524:  STEP
NULL .              -999.25:  NULL VALUE
COMP .                     :  COMPANY
WELL .               GABO52:  WELL
FLD  .                     :  FIELD
LOC  .   6.643655, 5.227736:  LOCATION
CTRY .                     :  COUNTRY
STAT .                     :  STATE
CNTY .                     :  COUNTY
API  .                     :  API NUMBER
UWI  .                     :  UNIQUE WELL ID
SRVC .                     :  SERVICE COMPANY
DATE .                     :  LOG DATE
~Curve Information Block
#MNEM.UNIT         API CODE   Curve Description
#---------- ----------------  -----------------
DEPTH.M                    :  Depth
DRHO .G/C3                 :  Density Correction Log
DTS_COMP.US/F              :  Shear Sonic 
DT_COMP.US/F               :  Compressional Sonic
GR_COMP.GAPI               :  Gamma Ray
HCAL .INCHES               :  Caliper
NPHI_COMP.V/V              :  Neutron Porosity
PEF_COMP.B/E               :  Photo Electric Factor
RDEEP_COMP.OHMM            :  Deep Resistivity
RHOB_COMP.G/C3             :  Bulk Density
RSHAL_COMP.OHMM            :  Shallow Resistivity
TVD  .M                    :  Reference TVD
TVDSS.M                    :  Reference TVDss
~Parameter Information Block
#MNEM.UNIT            Value   Description
#---------- ----------------  -----------
SET  .                  LCS:  
~Other Information Block
#        DEPTH           DRHO       DTS_COMP        DT_COMP        GR_COMP           HCAL      NPHI_COMP       PEF_COMP     RDEEP_COMP      RHOB_COMP     RSHAL_COMP            TVD          TVDSS 
~A
# ...
     3807.2568       0.004143       133.6461        81.0310        24.9624         8.7033       0.033689         1.6753       164.2711         2.0969       108.0991      3294.4397      3274.3196
     3807.4092       0.004502       133.6716        81.1261        24.3810         8.6359       0.039389         1.6651       179.4205         2.1118        98.6435      3294.5576      3274.4375
     3807.5616       0.006482       134.3995        81.1489        25.4718         8.5911       0.055320         1.6101       190.8359         2.1402        83.3621      3294.6753      3274.5552
     3807.7140       0.007514       134.1450        81.2966        27.6418         8.5237       0.073567         1.5490       171.0661         2.1635       114.7790      3294.7932      3274.6731
     3807.8664       0.006058       133.5496        81.0270        27.4358         8.5125       0.089102         1.4834       141.5843         2.1841       138.9388      3294.9109      3274.7908
     3808.0188       0.001851       133.0277        80.8002        28.4904         8.5686       0.096063         1.4677       274.9308         2.1901       168.9643      3295.0288      3274.9087
     3808.1712       0.001373       132.5958        80.3992        27.9720         8.5911       0.093914         1.4595       233.0547         2.1978       137.9337      3295.1465      3275.0264
     3808.3236       0.000533       132.3005        80.0699        29.8032         8.5462       0.095089         1.4839       170.3875         2.1913       140.5139      3295.2644      3275.1443
     3808.4760       0.002791       132.4758        80.0887        29.2613         8.5574       0.096153         1.4524       135.6990         2.1940       111.7717      3295.3821      3275.2620
     3808.6284       0.005804       132.6810        80.0931        28.5956         8.5462       0.097021         1.4581        99.3786         2.1941       106.4101      3295.5000      3275.3799
     3808.7808       0.009667       133.2631        80.1962        25.3023         8.5462       0.099825         1.4577       121.2658         2.2002       123.6231      3295.6177      3275.4976
     3808.9332       0.011990       133.7164        80.6462        22.8333         8.5686       0.101645         1.4843       112.3948         2.2031       164.6905      3295.7356      3275.6155
     3809.0856       0.010578       133.8047        80.7199        22.7365         8.5462       0.102056         1.4959       109.6386         2.2000       131.2915      3295.8533      3275.7332
     3809.2380       0.012140       133.2204        80.5535        25.0863         8.5911       0.098199         1.4879        69.9128         2.2057       100.5712      3295.9709      3275.8508
     3809.3904       0.018793       132.5631        80.4176        26.9664         8.5911       0.100444         1.4768        46.0657         2.2126        79.1381      3296.0886      3275.9685
     3809.5428       0.026002       132.5464        80.3556        26.1822         8.6359       0.105091         1.4735        41.7000         2.2203        71.6059      3296.2065      3276.0864
     3809.6952       0.024928       133.2080        80.8251        25.7259         8.5911       0.106671         1.4972        36.5887         2.2146        64.3903      3296.3242      3276.2041
     3809.8476       0.022432       133.3783        80.6457        25.7469         8.5911       0.105769         1.5220        36.0653         2.2150        61.3294      3296.4421      3276.3220
     3810.0000       0.020857       133.0013        80.3951        28.0372         8.6696       0.107129         1.5353        33.8422         2.2206        53.5596      3296.5598      3276.4397
     3810.1524       0.026006       133.2714        80.5497        29.5571         8.6808       0.118738         1.5450        27.9104         2.2278        36.5253      3296.6775      3276.5574
     3810.3048       0.025543       133.6031        80.8607        29.7875         8.6808       0.129405         1.5546        25.6349         2.2242        28.4852      3296.7954      3276.6753
     3810.4572       0.026706       133.9468        80.9132        27.7784         8.7033       0.130439         1.5575        21.7865         2.2236        23.3163      3296.9131      3276.7930
     3810.6096       0.027958       134.3786        81.0420        25.9016         8.6135       0.124388         1.5533        21.7522         2.2262        19.6644      3297.0310      3276.9109
     3810.7620       0.031073       135.2194        81.0740        26.6427         8.6359       0.124447         1.5673        19.2026         2.2349        18.2988      3297.1487      3277.0286
     3810.9144       0.032134       135.6465        81.2324        26.0073         8.6584       0.132075         1.5950        14.7818         2.2509        12.2202      3297.2666      3277.1465
     3811.0668       0.028882       135.4052        81.1010        26.2940         8.5911       0.139324         1.6175        10.7808         2.2624         9.0011      3297.3843      3277.2642
     3811.2192       0.021960       135.6254        80.6624        23.0120         8.5686       0.139878         1.6082         7.7657         2.2635         6.6531      3297.5022      3277.3821
     3811.3716       0.022519       136.1767        80.5738        25.8750         8.5125       0.137013         1.5617         7.2365         2.2616         6.2421      3297.6199      3277.4998
     3811.5240       0.028999       136.3540        80.7827        26.2960         8.5686       0.134640         1.5092         6.8338         2.2715         6.0470      3297.7378      3277.6177
     3811.6764       0.032760       135.9856        81.0730        30.2276         8.6584       0.133219         1.4721         6.9109         2.2845         6.0705      3297.8555      3277.7354
     3811.8288       0.024198       135.6982        80.9478        31.2183         8.7482       0.129166         1.4695         6.8552         2.2836         6.2145      3297.9734      3277.8533
     3811.9812       0.010333       136.1774        80.5633        32.3407         8.7257       0.124547         1.5021         6.6751         2.2678         6.1730      3298.0911      3277.9709
     3812.1336       0.002900       136.3049        80.4518        32.1650         8.7145       0.120966         1.5374         6.1930         2.2535         6.0677      3298.2090      3278.0889
     3812.2860       0.001884       136.5955        80.4061        30.8004         8.7257       0.123575         1.5610         5.8835         2.2470         6.0249      3298.3267      3278.2065
     3812.4384       0.004698       136.9875        80.4257        31.3988         8.7257       0.133463         1.5643         5.6489         2.2532         5.9777      3298.4446      3278.3245
     3812.5908       0.007321       136.9361        79.9016        36.7014         8.6359       0.144157         1.5600         5.4326         2.2647         5.9880      3298.5623      3278.4421
     3812.7432       0.010407       136.9230        79.3336        47.0424         8.6921       0.163785         1.6204         5.4655         2.2864         6.1937      3298.6802      3278.5601
     3812.8956       0.013302       136.0339        79.0318        65.5205         8.7257       0.193155         1.7712         5.5853         2.3307         6.5933      3298.7979      3278.6777
     3813.0480       0.022715       134.9286        78.4225        83.2322         8.6584       0.229217         2.0256         5.6951         2.3863         7.0730      3298.9158      3278.7957
     3813.2004       0.038339       134.9684        77.8621        93.1671         8.5013       0.254960         2.3170         5.6081         2.4294         7.2468      3299.0334      3278.9133
     3813.3528       0.057757       135.7442        78.0213        91.1700         8.3442       0.249043         2.5353         5.1187         2.4284         6.7901      3299.1514      3279.0312
     3813.5052       0.061838       137.3481        79.1109        85.7546         8.2544       0.226067         2.4719         4.7253         2.3615         6.3276      3299.2690      3279.1489
