~Version Section
VERS.   2.0:  CWLS Log ASCII Standard - Version 2.0
WRAP.    NO:  One data record per depth sample.
~Well Information Section
#MNEM.UNIT      VALUE                    DESCRIPTION
#---------      ----------               -----------
STRT.M                   0               :START DEPTH
STOP.M          3180.43555               :STOP DEPTH
STEP.M               .1524               :STEP
NULL.          -999.250000               :NULL VALUE
COMP.                                    :Oil Company
WELL.         GABO-21                    :Non unique well name
FLD.              FNG00147               :Field name
LOC.  6.610748, 5.225944                 :Location
PROV.                                    :Province
SRVC.                                    :Service
DATE.           2013-08-16               :Date unloaded
UWI.          			               :Unique well id
~Curve Information Section
#MNEM.UNIT                   API CODE                 Curve Description
#---------                   ----------               -----------------
BOREHOLE-DEPTH.M                                   :DEPTH
GR.GAPI                                   :
RT.OHMM                                   :
RXO.OHMM                                   :
TVD.M                                   :
TVDSS.M                                   :
~A
# ...
2704.7952    121.6356     4.3242       3.2178       2453.4272    2434.1074    
2704.9478    123.3753     4.0336       3.1876       2453.4749    2434.1548    
2705.1001    123.5475     4.2061       3.1084       2453.5222    2434.2021    
2705.2524    121.9820     4.4652       3.0268       2453.5693    2434.2493    
2705.4048    118.6750     3.8898       2.9676       2453.6167    2434.2966    
2705.5571    116.7627     3.9254       3.0059       2453.6638    2434.3438    
2705.7097    116.5913     4.0127       3.0598       2453.7107    2434.3909    
2705.8621    119.7231     4.1607       3.0897       2453.7578    2434.4380    
2706.0144    121.2890     3.8230       3.1858       2453.8049    2434.4851    
2706.1667    118.1566     3.7558       3.1096       2453.8518    2434.5320    
2706.3193    116.2468     4.1138       3.1749       2453.8987    2434.5789    
2706.4717    117.9881     4.1209       3.1645       2453.9458    2434.6257    
2706.6240    123.0316     4.0669       3.2862       2453.9924    2434.6726    
2706.7764    121.6377     4.3746       3.2498       2454.0393    2434.7192    
2706.9290    121.8094     4.2689       3.1601       2454.0859    2434.7661    
2707.0813    118.6762     3.8552       3.1987       2454.1328    2434.8127    
2707.2336    120.2419     3.8553       3.1987       2454.1792    2434.8591    
2707.3860    115.1988     3.9399       3.0027       2454.2258    2434.9058    
2707.5383    117.9863     3.9998       3.1917       2454.2722    2434.9524    
2707.6909    116.5952     4.2931       3.1933       2454.3186    2434.9988    
2707.8433    119.7239     4.4222       3.3810       2454.3650    2435.0452    
2707.9956    118.1568     4.5363       3.4795       2454.4116    2435.0916    
2708.1479    116.2412     4.8376       3.4004       2454.4578    2435.1377    
2708.3005    112.9361     4.4914       3.3040       2454.5039    2435.1841    
2708.4529    109.8026     4.7003       3.3340       2454.5503    2435.2302    
2708.6052    111.5428     4.5107       3.3948       2454.5964    2435.2764    
2708.7576    113.2834     4.3245       3.2795       2454.6423    2435.3225    
2708.9099    116.7622     4.3752       3.1156       2454.6885    2435.3684    
2709.0625    116.9368     4.3579       3.2722       2454.7346    2435.4146    
2709.2148    115.0204     4.3564       3.2468       2454.7805    2435.4604    
2709.3672    109.2850     4.3881       3.3649       2454.8264    2435.5063    
2709.5195    110.8505     4.4005       3.1839       2454.8723    2435.5522    
2709.6721    114.1563     4.1594       3.2737       2454.9180    2435.5979    
2709.8245    119.7193     4.3468       3.3486       2454.9636    2435.6436    
2709.9768    117.8062     4.5488       3.3466       2455.0093    2435.6892    
2710.1292    114.5038     4.3852       3.2684       2455.0549    2435.7349    
2710.2817    111.1979     4.4929       3.3053       2455.1006    2435.7805    
2710.4341    113.1102     4.1939       3.2719       2455.1460    2435.8259    
2710.5864    113.4547     4.5898       3.4388       2455.1914    2435.8716    
2710.7388    113.1083     4.5353       3.2145       2455.2368    2435.9170    
2710.8911    109.4567     4.5352       3.2145       2455.2822    2435.9624    
2711.0437    110.8496     4.3264       3.3074       2455.3276    2436.0076    
2711.1960    112.7624     4.3096       3.2428       2455.3728    2436.0527    
2711.3484    114.8470     4.4017       3.1954       2455.4180    2436.0979    
2711.5007    115.0216     4.5682       3.3033       2455.4631    2436.1433    
2711.6533    113.4548     4.4119       3.2725       2455.5083    2436.1882    
2711.8057    113.2820     4.6055       3.3574       2455.5532    2436.2334    
2711.9580    111.5428     4.4674       3.2979       2455.5984    2436.2783    
2712.1104    113.1096     4.4675       3.2979       2455.6433    2436.3232    
2712.2629    113.1100     4.7265       3.3459       2455.6882    2436.3682    
2712.4153    114.8497     4.5336       3.3996       2455.7329    2436.4131    
2712.5676    115.0216     4.4797       3.3117       2455.7778    2436.4578    
2712.7200    113.4570     4.5428       3.3132       2455.8225    2436.5027    
2712.8723    113.2833     4.5490       3.4385       2455.8672    2436.5474    
2713.0249    109.4593     4.4249       3.2684       2455.9119    2436.5918    
2713.1772    109.1088     4.3443       3.3640       2455.9565    2436.6365    
2713.3296    107.7153     4.3443       3.3640       2456.0010    2436.6809    
2713.4819    111.3666     4.4712       3.3797       2456.0454    2436.7256    
2713.6345    110.1476     4.6033       3.3362       2456.0901    2436.7700    
2713.7869    109.9754     4.3393       3.4613       2456.1345    2436.8145    
2713.9392    111.3667     4.4858       3.2157       2456.1790    2436.8589    
2714.0916    117.8082     4.5865       3.3946       2456.2234    2436.9033    
2714.2441    121.4621     4.3841       3.1354       2456.2678    2436.9480    
2714.3965    119.8984     4.3841       3.1354       2456.3123    2436.9922    
2714.5488    114.8509     4.3796       3.2177       2456.3567    2437.0369    
2714.7012    111.1961     4.2637       3.3082       2456.4014    2437.0813    
2714.8535    109.6298     4.4908       3.1289       2456.4458    2437.1257    
2715.0061    111.3689     4.3663       3.1359       2456.4902    2437.1704    
2715.1584    109.6293     4.4804       3.2470       2456.5347    2437.2146    
2715.3108    109.6278     4.5039       3.2229       2456.5791    2437.2593    
2715.4631    104.2374     4.5665       3.3023       2456.6238    2437.3037    
2715.6157    107.5439     4.2004       3.2790       2456.6682    2437.3481    
2715.7681    107.5440     4.2004       3.2789       2456.7126    2437.3926    
2715.9204    107.8919     4.0923       3.0758       2456.7571    2437.4373    
2716.0728    109.8044     4.3333       3.1596       2456.8018    2437.4817    
2716.2253    109.8058     4.3379       3.1421       2456.8462    2437.5261    
2716.3777    114.6759     4.2596       3.2688       2456.8909    2437.5708    
2716.5300    111.3716     4.2904       3.2000       2456.9353    2437.6152    
2716.6824    111.3708     4.3670       3.3616       2456.9797    2437.6599    
2716.8347    108.2367     4.6222       3.2573       2457.0244    2437.7043    
2716.9873    106.4948     4.6220       3.2573       2457.0688    2437.7488    
2717.1396    106.6708     3.7816       3.3101       2457.1133    2437.7935    
2717.2920    109.8064     3.9463       3.1891       2457.1580    2437.8379    
2717.4443    115.0251     4.0495       3.1684       2457.2024    2437.8823    
2717.5969    114.8495     4.0494       3.1685       2457.2471    2437.9270    
2717.7493    113.2812     3.8372       3.2682       2457.2915    2437.9714    
2717.9016    109.8009     3.8311       3.3599       2457.3359    2438.0161    
2718.0540    106.3211     4.2645       3.4880       2457.3806    2438.0605    
2718.2065    104.5800     4.9351       3.6271       2457.4250    2438.1050    
2718.3589    99.3635      4.9698       3.4604       2457.4697    2438.1497    
2718.5112    99.1902      5.4606       3.4054       2457.5142    2438.1941    
2718.6636    97.6260      5.2899       3.6668       2457.5588    2438.2388    
2718.8159    99.1907      5.3339       3.5771       2457.6035    2438.2834    
2718.9685    99.3649      5.2353       3.4744       2457.6479    2438.3279    
2719.1208    104.4103     5.2202       3.7235       2457.6924    2438.3726    
2719.2732    109.6303     4.8285       3.4240       2457.7371    2438.4170    
2719.4255    113.1096     4.4867       3.2824       2457.7815    2438.4617    
2719.5781    113.1086     4.4867       3.2824       2457.8262    2438.5061    
2719.7305    109.6293     4.2261       3.4605       2457.8708    2438.5508    
2719.8828    109.6288     4.2812       3.5309       2457.9153    2438.5955    
2720.0352    107.8892     4.5587       3.6466       2457.9600    2438.6399    
2720.1877    107.8892     5.0081       3.5532       2458.0044    2438.6846    
