~Version Information Block
VERS .                 2.00:  CWLS LOG ASCII STANDARD - VERSION 2.00
WRAP .                   NO:  One line per depth step
~Well Information Block
#MNEM.UNIT        Data Type   Information
#---------- ----------------  -----------
STRT .M              0.0000:  START DEPTH
STOP .M           2748.9912:  STOP DEPTH
STEP .M              0.1524:  STEP
NULL .              -999.25:  NULL VALUE
COMP .                     :  COMPANY
WELL .               GABO13:  LOCATION
FLD  .                     :  FIELD
LOC  .   6.617986, 5.233868:  LOCATION
CTRY .                     :  COUNTRY
STAT .                     :  STATE
CNTY .                     :  COUNTY
API  .                     :  API NUMBER
UWI  .                     :  UNIQUE WELL ID
SRVC .                     :  SERVICE COMPANY
DATE .                     :  LOG DATE
~Curve Information Block
#MNEM.UNIT         API CODE   Curve Description
#---------- ----------------  -----------------
DEPTH.M                    :  Depth
BS_COMP.INCHES             :  Bit Size
CALI_COMP.INCHES          0:  Caliper
DRHO_COMP.G/C3             :  Density Correction Log
DT_COMP.US/F              0:  Compressional Sonic
ECART_COMP.                :  Neutron Density Seperation
GR_COMP.GAPI              0:  Gamma Ray
NPHI_COMP.V/V              :  Neutron Porosity
PEF_COMP.B/E              0:  Photo Electric Factor
RHOB_COMP.G/C3            0:  Bulk Density
RDeep_COMP.OHMM           0:  Deep Resistivity
RShal_COMP.OHMM           0:  Shallow Resistivity
SP_COMP.MV                0:  Spontaneous Potential
TVDSS_COMP.M               :  Reference TVD sub-sea log.
TVD_COMP.M                 :  Reference TVD log.
~Parameter Information Block
#MNEM.UNIT            Value   Description
#---------- ----------------  -----------
SET  .                  LCS:  
~Other Information Block
#        DEPTH        BS_COMP      CALI_COMP      DRHO_COMP        DT_COMP     ECART_COMP        GR_COMP      NPHI_COMP       PEF_COMP      RHOB_COMP      RDeep_COMP     RShal_COMP        SP_COMP     TVDSS_COMP       TVD_COMP 
~A
# ...
     2581.0464        12.2500        14.0293       0.198736       104.3337         9.5957        93.0371       0.537129         4.8381         2.2846         2.1368         1.5806         0.7057      2566.3090      2580.1090
     2581.1988        12.2500        13.9681       0.197900       104.2005        10.3006        97.8790       0.551646         4.8207         2.2955         2.1337         1.5622         0.7398      2566.4612      2580.2612
     2581.3512        12.2500        13.7673       0.188767       104.5083        11.4245       103.0150       0.586224         4.7877         2.2941         2.1351         1.5400         0.8449      2566.6133      2580.4133
     2581.5036        12.2500        13.7587       0.171654       104.6497        11.0701       108.0798       0.596067         4.8155         2.2600         2.1406         1.5350         0.8570      2566.7655      2580.5655
     2581.6560        12.2500        13.8883       0.149270       104.8099         9.4401       110.4713       0.565109         4.8618         2.2302         2.1488         1.5537         0.7239      2566.9176      2580.7176
     2581.8084        12.2500        14.0565       0.128751       104.7237         8.8401       109.2264       0.542797         4.8762         2.2373         2.1541         1.5870         0.4848      2567.0698      2580.8698
     2581.9608        12.2500        14.2152       0.117706       103.9992        10.9116       104.7639       0.585287         4.8449         2.2699         2.1543         1.6168         0.2136      2567.2219      2581.0219
     2582.1132        12.2500        13.9369       0.118074       103.6871        13.5859       100.0234       0.662491         4.7794         2.2749         2.1616         1.6217         0.0738      2567.3741      2581.1741
     2582.2656        12.2500        13.7423       0.124529       103.4183        13.8380       101.0409       0.694485         4.7320         2.2344         2.1742         1.6010         0.0679      2567.5262      2581.3262
     2582.4180        12.2500        13.8586       0.130493       103.1833        11.9987       105.6814       0.676246         4.7398         2.1729         2.1835         1.5678         0.0983      2567.6784      2581.4784
     2582.5704        12.2500        14.2248       0.129890       103.5007        10.2827       109.1261       0.649650         4.7922         2.1314         2.1828         1.5396         0.1058      2567.8305      2581.6305
     2582.7228        12.2500        14.5602       0.117445       103.8929        10.2994       105.7597       0.639278         4.8314         2.1495         2.1713         1.5338         0.1019      2567.9827      2581.7827
     2582.8752        12.2500        14.6912       0.099314       103.9007        11.8151       100.5868       0.648203         4.8236         2.2104         2.1603         1.5448         0.1257      2568.1349      2581.9349
     2583.0276        12.2500        14.6966       0.094964       103.7048        13.6094        97.9417       0.664030         4.7717         2.2737         2.1528         1.5570         0.2084      2568.2870      2582.0870
     2583.1800        12.2500        14.6643       0.117951       103.5024        14.7723        98.6399       0.675960         4.6824         2.3120         2.1427         1.5608         0.3326      2568.4392      2582.2392
     2583.3324        12.2500        14.6180       0.158487       103.2915        15.2494        99.5002       0.687751         4.5681         2.3162         2.1237         1.5533         0.4217      2568.5913      2582.3913
     2583.4848        12.2500        14.5974       0.186257       103.2588        15.4716        99.4525       0.700148         4.4779         2.3067         2.0999         1.5356         0.4547      2568.7435      2582.5435
     2583.6372        12.2500        14.5515       0.187884       103.2815        14.7207       100.3813       0.678063         4.4516         2.3060         2.0784         1.5165         0.4734      2568.8956      2582.6956
     2583.7896        12.2500        14.4857       0.167842       103.2156        12.8804       103.5306       0.615156         4.4980         2.3189         2.0606         1.5063         0.5025      2569.0478      2582.8478
     2583.9420        12.2500        14.5436       0.140951       103.1219        11.5888       109.3582       0.567021         4.5950         2.3345         2.0421         1.5107         0.5501      2569.2000      2583.0000
     2584.0944        12.2500        14.7108       0.130695       102.9296        11.8425       113.0193       0.571023         4.6786         2.3404         2.0207         1.5196         0.6445      2569.3521      2583.1521
     2584.2468        12.2500        14.8220       0.143723       102.7655        12.1292       109.8615       0.583104         4.6947         2.3346         1.9947         1.5180         0.7307      2569.5043      2583.3043
     2584.3992        12.2500        14.8394       0.171848       102.9672        11.5878       102.2819       0.574216         4.6316         2.3224         1.9646         1.4972         0.7013      2569.6564      2583.4564
     2584.5516        12.2500        14.8281       0.195157       103.6794        11.1257        98.1680       0.567688         4.5165         2.3102         1.9351         1.4568         0.5113      2569.8086      2583.6086
     2584.7040        12.2500        14.9383       0.187507       104.3378        11.5900       100.2437       0.588878         4.4091         2.2980         1.9104         1.4104         0.2864      2569.9607      2583.7607
     2584.8564        12.2500        14.7718       0.165132       104.5205        12.1139       106.0895       0.616358         4.3530         2.2784         1.8896         1.3676         0.0996      2570.1129      2583.9129
     2585.0088        12.2500        14.3895       0.153482       104.4097        11.8326       111.5561       0.626815         4.3923         2.2469         1.8697         1.3307         0.0032      2570.2651      2584.0651
     2585.1612        12.2500        14.1523       0.152617       104.7055        10.9207       112.2887       0.622772         4.5375         2.2081         1.8504         1.3007         0.0547      2570.4172      2584.2172
     2585.3136        12.2500        14.1368       0.136020       105.8395        10.3686       114.0398       0.625598         4.6459         2.1757         1.8378         1.2793         0.1927      2570.5694      2584.3694
     2585.4660        12.2500        14.1615       0.107347       106.3212        10.2191       115.1224       0.632870         4.5282         2.1562         1.8360         1.2716         0.2870      2570.7215      2584.5215
     2585.6184        12.2500        14.3194       0.084265       106.4268        10.0585       113.2006       0.632575         4.1872         2.1487         1.8470         1.2775         0.3349      2570.8737      2584.6737
     2585.7708        12.2500        14.7124       0.071976       107.2663         9.5858       108.2671       0.617113         3.7958         2.1508         1.8781         1.2973         0.4006      2571.0259      2584.8259
     2585.9232        12.2500        14.6978       0.061777       108.4822         8.6906       107.4743       0.585270         3.5868         2.1592         1.9441         1.3240         0.4684      2571.1780      2584.9780
     2586.0756        12.2500        14.2955       0.049879       110.2058         8.0130       108.0101       0.555125         3.5881         2.1755         2.0453         1.3235         0.4379      2571.3302      2585.1302
     2586.2280        12.2500        13.8891       0.039848       110.7879         8.1449       106.1966       0.541210         3.6954         2.2052         2.1714         1.3269         0.2779      2571.4824      2585.2824
     2586.3804        12.2500        13.6891       0.038186       108.6699         8.7904       102.5677       0.535404         3.8161         2.2472         2.3133         1.3886         0.0051      2571.6345      2585.4345
