~Version Information Block
VERS .                 2.00:  CWLS LOG ASCII STANDARD - VERSION 2.00
WRAP .                   NO:  One line per depth step
~Well Information Block
#MNEM.UNIT        Data Type   Information
#---------- ----------------  -----------
STRT .M              0.0000:  START DEPTH
STOP .M           2748.9912:  STOP DEPTH
STEP .M              0.1524:  STEP
NULL .              -999.25:  NULL VALUE
COMP .                     :  COMPANY
WELL .               GABO13:  LOCATION
FLD  .                     :  FIELD
LOC  .   6.617986, 5.233868:  LOCATION
CTRY .                     :  COUNTRY
STAT .                     :  STATE
CNTY .                     :  COUNTY
API  .                     :  API NUMBER
UWI  .                     :  UNIQUE WELL ID
SRVC .                     :  SERVICE COMPANY
DATE .                     :  LOG DATE
~Curve Information Block
#MNEM.UNIT         API CODE   Curve Description
#---------- ----------------  -----------------
DEPTH.M                    :  Depth
BS_COMP.INCHES             :  Bit Size
CALI_COMP.INCHES          0:  Caliper
DRHO_COMP.G/C3             :  Density Correction Log
DT_COMP.US/F              0:  Compressional Sonic
ECART_COMP.                :  Neutron Density Seperation
GR_COMP.GAPI              0:  Gamma Ray
NPHI_COMP.V/V              :  Neutron Porosity
PEF_COMP.B/E              0:  Photo Electric Factor
RHOB_COMP.G/C3            0:  Bulk Density
RDeep_COMP.OHMM           0:  Deep Resistivity
RShal_COMP.OHMM           0:  Shallow Resistivity
SP_COMP.MV                0:  Spontaneous Potential
TVDSS_COMP.M               :  Reference TVD sub-sea log.
TVD_COMP.M                 :  Reference TVD log.
~Parameter Information Block
#MNEM.UNIT            Value   Description
#---------- ----------------  -----------
SET  .                  LCS:  
~Other Information Block
#        DEPTH        BS_COMP      CALI_COMP      DRHO_COMP        DT_COMP     ECART_COMP        GR_COMP      NPHI_COMP       PEF_COMP      RHOB_COMP      RDeep_COMP     RShal_COMP        SP_COMP     TVDSS_COMP       TVD_COMP 
~A
# ...
     2339.6448        12.2500        12.7390       0.090487        94.0710         3.7401        34.7350       0.412134         2.3517         2.2001         2.6961         4.4497       -27.3644      2325.5108      2339.3108
     2339.7972        12.2500        12.7356       0.081713        91.3906         3.4340        36.9966       0.403757         2.5153         2.1988         2.5814         4.5850       -28.4293      2325.6630      2339.4630
     2339.9496        12.2500        12.6431       0.069467        90.3646         3.2748        39.7923       0.398960         2.5971         2.1988         2.5268         4.7268       -29.2166      2325.8153      2339.6153
     2340.1020        12.2500        12.5696       0.075049        89.4123         3.7008        41.2234       0.405714         2.5738         2.2088         2.5109         4.7224       -29.6819      2325.9676      2339.7676
     2340.2544        12.2500        12.5318       0.094119        88.9415         3.8590        43.2990       0.404772         2.4593         2.2183         2.5066         4.5665       -30.0569      2326.1198      2339.9198
     2340.4068        12.2500        12.5121       0.109061        89.1439         3.2261        47.4798       0.384565         2.2840         2.2204         2.4949         4.3489       -30.3596      2326.2721      2340.0721
     2340.5592        12.2500        12.5080       0.104330        89.4005         2.1666        54.0555       0.356176         2.1067         2.2147         2.4673         4.1624       -30.4542      2326.4243      2340.2243
     2340.7116        12.2500        12.5074       0.073757        89.8045         1.4344        59.1912       0.338692         2.0163         2.2072         2.4281         4.0704       -30.4877      2326.5766      2340.3766
     2340.8640        12.2500        12.4875       0.038168        90.0758         1.5059        58.3215       0.340952         2.0197         2.2070         2.3879         4.0670       -30.4994      2326.7289      2340.5289
     2341.0164        12.2500        12.4537       0.017553        90.0655         2.4014        51.4524       0.363484         2.0782         2.2142         2.3464         4.1200       -30.5028      2326.8811      2340.6811
     2341.1688        12.2500        12.4222       0.017189        90.0895         3.6145        40.6941       0.396734         2.1580         2.2195         2.3010         4.1921       -30.5395      2327.0334      2340.8334
     2341.3212        12.2500        12.4134       0.028472        90.4999         4.0117        34.9367       0.413780         2.2151         2.2109         2.2593         4.2339       -30.5755      2327.1857      2340.9857
     2341.4736        12.2500        12.3796       0.037580        91.1577         3.2934        34.1417       0.402994         2.1945         2.1930         2.2234         4.2279       -30.6396      2327.3379      2341.1379
     2341.6260        12.2500        12.3561       0.039493        91.7545         2.3452        34.8720       0.383516         2.0988         2.1781         2.1940         4.1869       -30.7408      2327.4902      2341.2902
     2341.7784        12.2500        12.3773       0.040046        92.1485         1.9637        35.4014       0.374042         1.9958         2.1748         2.1724         4.1357       -30.7890      2327.6424      2341.4424
     2341.9308        12.2500        12.3753       0.049796        92.3578         2.0954        36.3083       0.372821         1.9746         2.1834         2.1581         4.1098       -30.7308      2327.7947      2341.5947
     2342.0832        12.2500        12.3960       0.064428        92.3617         2.2634        39.6195       0.373382         2.0112         2.1909         2.1491         4.1232       -30.8234      2327.9470      2341.7470
     2342.2356        12.2500        12.4406       0.073315        92.1068         2.3717        42.8694       0.378134         2.0423         2.1884         2.1341         4.1580       -31.0937      2328.0992      2341.8992
     2342.3880        12.2500        12.4712       0.069942        91.6821         2.2297        44.7571       0.378701         2.0392         2.1803         2.1091         4.1942       -31.3556      2328.2515      2342.0515
     2342.5404        12.2500        12.4143       0.053643        91.2833         1.4646        47.5317       0.357223         2.0090         2.1779         2.0853         4.2317       -31.4970      2328.4037      2342.2037
     2342.6928        12.2500        12.3891       0.033778        90.9547         0.7602        48.2841       0.334226         1.9942         2.1810         2.0731         4.2962       -31.5921      2328.5560      2342.3560
     2342.8452        12.2500        12.3713       0.019544        90.8869         1.0904        47.7635       0.341239         2.0014         2.1858         2.0784         4.3808       -31.6079      2328.7083      2342.5083
     2342.9976        12.2500        12.3478       0.013068        91.0562         2.3466        47.0697       0.375802         2.0049         2.1909         2.1025         4.4407       -31.5418      2328.8605      2342.6605
     2343.1500        12.2500        12.3790       0.011812        91.1555         3.5813        46.1925       0.409536         1.9823         2.1965         2.1411         4.4353       -31.5382      2329.0128      2342.8128
     2343.3024        12.2500        12.4585       0.012370        91.0931         4.2380        43.4112       0.425200         1.9491         2.2032         2.1844         4.4038       -31.6863      2329.1650      2342.9650
     2343.4548        12.2500        12.5375       0.013652        90.8886         4.3038        40.3877       0.421854         1.9366         2.2121         2.2245         4.4302       -31.8552      2329.3173      2343.1173
     2343.6072        12.2500        12.5792       0.017708        90.6088         3.9401        38.2213       0.405301         1.9505         2.2215         2.2670         4.5522       -32.0281      2329.4696      2343.2696
     2343.7596        12.2500        12.5531       0.026551        90.3604         3.2651        37.0923       0.381729         1.9701         2.2271         2.3207         4.7378       -32.2679      2329.6218      2343.4218
     2343.9120        12.2500        12.4065       0.037165        90.2332         2.4298        38.2857       0.357803         1.9732         2.2252         2.3737         4.8864       -32.4856      2329.7741      2343.5741
     2344.0644        12.2500        12.3866       0.044868        90.3063         2.0376        40.2000       0.348177         1.9847         2.2216         2.3968         4.9566       -32.7430      2329.9263      2343.7263
     2344.2168        12.2500        12.4313       0.049252        90.5080         2.1542        40.8601       0.351120         2.0238         2.2225         2.3755         4.9944       -33.0316      2330.0786      2343.8786
     2344.3692        12.2500        12.3806       0.050860        90.7095         2.3071        39.2779       0.352447         2.0758         2.2280         2.3176         5.0519       -33.2541      2330.2309      2344.0309
     2344.5216        12.2500        12.4714       0.045945        90.9113         2.0775        39.1001       0.343481         2.0987         2.2314         2.2489         5.1167       -33.3572      2330.3831      2344.1831
     2344.6740        12.2500        12.5673       0.032142        91.1794         1.4976        42.0583       0.327469         2.0677         2.2291         2.1864         5.1218       -33.2553      2330.5354      2344.3354
     2344.8264        12.2500        12.6453       0.015962        91.4369         0.9209        46.9636       0.314401         1.9865         2.2220         2.1365         5.0364       -33.0806      2330.6876      2344.4876
     2344.9788        12.2500        12.7555       0.005554        91.5931         0.7074        52.4319       0.313793         1.8867         2.2124         2.1125         4.8892       -33.0770      2330.8399      2344.6399
