~Version Information Block
VERS .                 2.00:  CWLS LOG ASCII STANDARD - VERSION 2.00
WRAP .                   NO:  One line per depth step
~Well Information Block
#MNEM.UNIT        Data Type   Information
#---------- ----------------  -----------
STRT .M           1550.0604:  START DEPTH
STOP .M           3909.9744:  STOP DEPTH
STEP .M              0.1524:  STEP
NULL .              -999.25:  NULL VALUE
COMP .                     :  COMPANY
WELL .               GABO52:  WELL
FLD  .                     :  FIELD
LOC  .   6.643655, 5.227736:  LOCATION
CTRY .                     :  COUNTRY
STAT .                     :  STATE
CNTY .                     :  COUNTY
API  .                     :  API NUMBER
UWI  .                     :  UNIQUE WELL ID
SRVC .                     :  SERVICE COMPANY
DATE .                     :  LOG DATE
~Curve Information Block
#MNEM.UNIT         API CODE   Curve Description
#---------- ----------------  -----------------
DEPTH.M                    :  Depth
DRHO .G/C3                 :  Density Correction Log
DTS_COMP.US/F              :  Shear Sonic 
DT_COMP.US/F               :  Compressional Sonic
GR_COMP.GAPI               :  Gamma Ray
HCAL .INCHES               :  Caliper
NPHI_COMP.V/V              :  Neutron Porosity
PEF_COMP.B/E               :  Photo Electric Factor
RDEEP_COMP.OHMM            :  Deep Resistivity
RHOB_COMP.G/C3             :  Bulk Density
RSHAL_COMP.OHMM            :  Shallow Resistivity
TVD  .M                    :  Reference TVD
TVDSS.M                    :  Reference TVDss
~Parameter Information Block
#MNEM.UNIT            Value   Description
#---------- ----------------  -----------
SET  .                  LCS:  
~Other Information Block
#        DEPTH           DRHO       DTS_COMP        DT_COMP        GR_COMP           HCAL      NPHI_COMP       PEF_COMP     RDEEP_COMP      RHOB_COMP     RSHAL_COMP            TVD          TVDSS 
~A
# ...
     3359.2008       0.002575       160.0548        89.3434        50.1187         8.2319       0.217534         1.7792         1.8286         2.2022         2.5754      2954.5884      2934.4683
     3359.3532       0.001257       161.3868        90.4067        59.9700         8.2768       0.252514         1.9160         1.9722         2.2004         3.0365      2954.7083      2934.5881
     3359.5056      -0.000392       163.2254        91.2709        71.3654         8.2319       0.270527         2.0312         2.1047         2.1894         3.6926      2954.8281      2934.7080
     3359.6580      -0.001054       163.7853        92.2952        85.8181         8.2544       0.278190         2.1114         2.1167         2.1710         4.1991      2954.9480      2934.8279
     3359.8104      -0.001761       163.1046        93.5690        93.6591         8.2544       0.277067         2.1179         2.1261         2.1555         4.4080      2955.0679      2934.9478
     3359.9628      -0.001934       161.7484        90.9916        95.8189         8.2544       0.264260         2.1175         2.1772         2.1543         4.7406      2955.1877      2935.0676
     3360.1152      -0.000717       160.6232        90.1994        92.6946         8.2544       0.254636         2.1339         2.2492         2.1784         5.3771      2955.3076      2935.1875
     3360.2676       0.001861       157.4942        88.8179        88.1543         8.2544       0.234627         2.1797         2.3226         2.2186         5.7492      2955.4275      2935.3074
     3360.4200       0.004447       152.5530        86.1263        87.6851         8.2768       0.215244         2.2512         2.3382         2.2680         5.5275      2955.5471      2935.4270
     3360.5724       0.013325       149.7776        84.1789        88.9828         8.3217       0.212933         2.4080         2.3994         2.3323         5.3218      2955.6670      2935.5469
     3360.7248       0.027134       147.0000        82.1355        90.6068         8.3217       0.226937         2.6309         2.5925         2.3871         5.6099      2955.7869      2935.6667
     3360.8772       0.027751       146.0291        80.8977        95.7256         8.3217       0.242657         2.8617         2.8607         2.4033         6.3264      2955.9067      2935.7866
     3361.0296       0.026615       145.6199        80.5446       105.3638         8.3554       0.254786         2.9689         3.1307         2.4095         7.2548      2956.0266      2935.9065
     3361.1820       0.022618       146.2783        81.6372       122.5803         8.4227       0.261911         2.9723         3.3634         2.4158         7.1071      2956.1465      2936.0264
     3361.3344       0.019564       148.7070        82.6011       132.6935         8.3442       0.266109         2.9347         3.5258         2.4066         7.1061      2956.2664      2936.1462
     3361.4868       0.009495       150.3040        82.9930       135.6236         8.4339       0.274011         2.9542         3.6937         2.3795         7.0253      2956.3860      2936.2659
     3361.6392       0.012428       150.8177        83.1796       129.6060         8.4115       0.285021         3.0603         3.8669         2.3938         6.7701      2956.5061      2936.3860
     3361.7916       0.030191       151.0016        83.3412       127.0060         8.3890       0.318129         3.2024         3.9901         2.4567         6.6411      2956.6260      2936.5059
     3361.9440       0.050468       151.6971        83.8103       130.5048         8.4339       0.345308         3.2758         4.1637         2.5132         6.7125      2956.7458      2936.6257
     3362.0964       0.051307       152.3778        84.3946       141.4312         8.4788       0.343028         3.2328         4.3098         2.4954         6.6219      2956.8657      2936.7456
     3362.2488       0.037931       153.2792        84.8977       152.4375         8.4339       0.310922         3.1208         4.2324         2.4283         6.1903      2956.9856      2936.8655
     3362.4012       0.028523       154.5848        85.4439       159.0447         8.4788       0.271350         3.0091         4.1176         2.3767         5.7889      2957.1055      2936.9854
     3362.5536       0.027418       154.2931        85.2653       154.6820         8.3890       0.252263         2.9636         4.0026         2.3781         5.5324      2957.2253      2937.1052
     3362.7060       0.037623       153.0141        84.7419       150.3998         8.3217       0.255409         3.0115         4.0477         2.4254         5.6707      2957.3450      2937.2249
     3362.8584       0.044040       151.7837        84.6113       146.4668         8.3329       0.268304         3.1231         4.1653         2.4592         5.8647      2957.4648      2937.3447
     3363.0108       0.050398       151.3652        84.5631       149.3968         8.4339       0.286960         3.2133         4.2707         2.4679         6.1510      2957.5847      2937.4646
     3363.1632       0.048808       152.1732        84.4954       149.9917         8.5911       0.289737         3.2257         4.3380         2.4425         6.2019      2957.7046      2937.5845
     3363.3156       0.056497       153.2714        84.5916       147.7447         8.5911       0.281824         3.2130         4.3222         2.4341         6.0887      2957.8245      2937.7043
     3363.4680       0.062585       154.3735        84.6814       140.6207         8.5686       0.274207         3.2191         4.2413         2.4503         5.8606      2957.9443      2937.8242
     3363.6204       0.070414       154.7276        84.4211       134.7513         8.5237       0.286360         3.2813         4.2420         2.4842         5.5979      2958.0642      2937.9441
     3363.7728       0.062929       154.6669        84.5251       130.4331         8.4115       0.313299         3.3537         4.2375         2.5060         5.4752      2958.1838      2938.0637
     3363.9252       0.062662       155.3719        84.5641       129.3481         8.5462       0.336797         3.4455         4.2641         2.5131         5.4071      2958.3037      2938.1836
     3364.0776       0.070568       155.3467        84.7274       131.9624         8.6808       0.349613         3.5344         4.2350         2.5175         5.2036      2958.4236      2938.3035
     3364.2300       0.083642       155.6857        84.9581       139.3866         8.5911       0.344518         3.5807         4.1753         2.5249         4.9081      2958.5435      2938.4233
     3364.3824       0.087990       154.4596        84.8159       142.0170         8.6135       0.351518         3.5643         4.1257         2.5325         4.6668      2958.6633      2938.5432
     3364.5348       0.084902       154.3059        85.2416       144.5753         8.5911       0.342224         3.5129         4.1902         2.5438         4.6494      2958.7832      2938.6631
     3364.6872       0.075335       155.9741        85.4798       144.8992         8.5237       0.346653         3.4749         4.1856         2.5436         4.6179      2958.9031      2938.7830
     3364.8396       0.064957       156.2318        84.8993       146.2005         8.5911       0.343466         3.4636         4.2044         2.5306         4.5327      2959.0229      2938.9028
     3364.9920       0.063011       156.5071        84.5941       141.8352         8.5237       0.355621         3.4544         4.2114         2.5276         4.4827      2959.1428      2939.0227
     3365.1444       0.069170       156.8205        84.3751       139.4999         8.6135       0.344866         3.4373         4.1917         2.5390         4.4284      2959.2627      2939.1426
     3365.2968       0.064679       156.3514        84.6181       139.3335         8.6359       0.326133         3.4018         4.1113         2.5487         4.3079      2959.3826      2939.2625
     3365.4492       0.049792       159.0694        84.4030       141.4216         8.6135       0.321978         3.3652         3.9411         2.5381         4.1393      2959.5022      2939.3821
