~Version Information Block
VERS .                 2.00:  CWLS LOG ASCII STANDARD - VERSION 2.00
WRAP .                   NO:  One line per depth step
~Well Information Block
#MNEM.UNIT        Data Type   Information
#---------- ----------------  -----------
STRT .M              0.0000:  START DEPTH
STOP .M           2748.9912:  STOP DEPTH
STEP .M              0.1524:  STEP
NULL .              -999.25:  NULL VALUE
COMP .                     :  COMPANY
WELL .               GABO13:  LOCATION
FLD  .                     :  FIELD
LOC  .   6.617986, 5.233868:  LOCATION
CTRY .                     :  COUNTRY
STAT .                     :  STATE
CNTY .                     :  COUNTY
API  .                     :  API NUMBER
UWI  .                     :  UNIQUE WELL ID
SRVC .                     :  SERVICE COMPANY
DATE .                     :  LOG DATE
~Curve Information Block
#MNEM.UNIT         API CODE   Curve Description
#---------- ----------------  -----------------
DEPTH.M                    :  Depth
BS_COMP.INCHES             :  Bit Size
CALI_COMP.INCHES          0:  Caliper
DRHO_COMP.G/C3             :  Density Correction Log
DT_COMP.US/F              0:  Compressional Sonic
ECART_COMP.                :  Neutron Density Seperation
GR_COMP.GAPI              0:  Gamma Ray
NPHI_COMP.V/V              :  Neutron Porosity
PEF_COMP.B/E              0:  Photo Electric Factor
RHOB_COMP.G/C3            0:  Bulk Density
RDeep_COMP.OHMM           0:  Deep Resistivity
RShal_COMP.OHMM           0:  Shallow Resistivity
SP_COMP.MV                0:  Spontaneous Potential
TVDSS_COMP.M               :  Reference TVD sub-sea log.
TVD_COMP.M                 :  Reference TVD log.
~Parameter Information Block
#MNEM.UNIT            Value   Description
#---------- ----------------  -----------
SET  .                  LCS:  
~Other Information Block
#        DEPTH        BS_COMP      CALI_COMP      DRHO_COMP        DT_COMP     ECART_COMP        GR_COMP      NPHI_COMP       PEF_COMP      RHOB_COMP      RDeep_COMP     RShal_COMP        SP_COMP     TVDSS_COMP       TVD_COMP 
~A
# ...
     2240.8896        12.2500        12.4856       0.066316        88.4751        -1.0968        45.7062       0.172715         2.8444         2.3573         5.3810         8.1743       -11.0399      2226.7962      2240.5962
     2241.0420        12.2500        12.6202       0.049990        87.2993        -0.0471        45.1798       0.210806         2.7194         2.3463         5.2033         7.9643       -11.4759      2226.9486      2240.7486
     2241.1944        12.2500        12.7769       0.047816        89.6346         0.5665        48.8645       0.252905         2.6073         2.3068         4.8581         6.4321       -11.8039      2227.1009      2240.9009
     2241.3468        12.2500        12.8742       0.063192        94.0722         0.2981        58.1502       0.281238         2.4953         2.2462         4.4443         5.0700       -12.1392      2227.2533      2241.0533
     2241.4992        12.2500        12.7277       0.090643        97.8610         0.2871        66.9279       0.307157         2.4446         2.2024         4.2188         4.5527       -12.4575      2227.4057      2241.2057
     2241.6516        12.2500        12.5717       0.118131        99.6398         0.9919        68.5948       0.336120         2.4527         2.1894         4.1973         4.6017       -12.7226      2227.5581      2241.3581
     2241.8040        12.2500        12.4818       0.128313        99.8984         1.5080        61.8290       0.348557         2.4705         2.1945         4.2564         4.8145       -12.9922      2227.7105      2241.5105
     2241.9564        12.2500        12.3599       0.106583        99.6496         0.8381        47.6958       0.324913         2.4544         2.2004         4.3012         4.9059       -13.2973      2227.8628      2241.6628
     2242.1088        12.2500        12.3204       0.063700        99.4760        -0.5256        41.5411       0.285921         2.3733         2.1972         4.2799         4.7572       -13.5085      2228.0152      2241.8152
     2242.2612        12.2500        12.3200       0.028290        99.5187        -1.5515        41.4291       0.260808         2.2258         2.1878         4.1915         4.4817       -13.6746      2228.1676      2241.9676
     2242.4136        12.2500        12.3200       0.009879        99.8871        -1.8028        41.9385       0.259524         2.0616         2.1773         4.0647         4.2275       -13.9088      2228.3200      2242.1200
     2242.5660        12.2500        12.3200       0.001736       100.5281        -1.4984        40.1920       0.273917         1.9498         2.1685         3.9360         4.0878       -14.1769      2228.4723      2242.2723
     2242.7184        12.2500        12.3200      -0.002477       100.9380        -1.3640        38.8684       0.281237         1.9185         2.1631         3.8381         4.0886       -14.2912      2228.6247      2242.4247
     2242.8708        12.2500        12.3200      -0.004566       100.9102        -1.5124        36.9126       0.276926         1.9154         2.1628         3.7741         4.1409       -14.2879      2228.7771      2242.5771
     2243.0232        12.2500        12.3247      -0.004785       100.6613        -1.5848        35.1257       0.272086         1.9090         2.1673         3.7262         4.1255       -14.2757      2228.9295      2242.7295
     2243.1756        12.2500        12.3420      -0.003389       100.4445        -1.4340        34.8734       0.273206         1.9047         2.1730         3.6800         3.9904       -14.2740      2229.0819      2242.8819
     2243.3280        12.2500        12.3976      -0.000842       100.3723        -1.2949        35.1305       0.276168         1.9072         2.1750         3.6309         3.8126       -14.2837      2229.2342      2243.0342
     2243.4804        12.2500        12.4272       0.001758       100.4112        -1.2142        35.1472       0.279614         1.9092         2.1733         3.5776         3.7493       -14.4044      2229.3866      2243.1866
     2243.6328        12.2500        12.4307       0.002985       100.5855        -0.9609        35.6724       0.287617         1.9126         2.1726         3.5225         3.8405       -14.6017      2229.5390      2243.3390
     2243.7852        12.2500        12.4383       0.001709       101.0259        -0.5378        36.8094       0.298864         1.9200         2.1750         3.4679         3.9971       -14.7136      2229.6914      2243.4914
     2243.9376        12.2500        12.4954      -0.002469       101.7530        -0.3945        36.6895       0.303012         1.9194         2.1753         3.4128         4.0825       -14.6534      2229.8437      2243.6437
     2244.0900        12.2500        12.5390      -0.008319       102.3586        -0.8264        35.1052       0.295238         1.8913         2.1666         3.3548         4.0855       -14.6336      2229.9961      2243.7961
     2244.2424        12.2500        12.5675      -0.014249       102.6963        -1.4540        33.6726       0.282861         1.8343         2.1559         3.2937         4.0902       -14.7173      2230.1485      2243.9485
     2244.3948        12.2500        12.5871      -0.019345       102.7651        -1.8359        32.9407       0.273690         1.7663         2.1521         3.2379         4.1398       -14.8605      2230.3009      2244.1009
     2244.5472        12.2500        12.5757      -0.023313       102.6072        -1.9622        32.3517       0.267733         1.7206         2.1557         3.2012         4.2114       -15.0236      2230.4532      2244.2532
     2244.6996        12.2500        12.5859      -0.026368       102.5602        -2.2486        32.6899       0.257578         1.7294         2.1583         3.1833         4.2494       -15.0870      2230.6056      2244.4056
     2244.8520        12.2500        12.5986      -0.028090       102.4960        -2.5146        32.1541       0.249208         1.7781         2.1589         3.1717         4.2192       -15.0983      2230.7580      2244.5580
     2245.0044        12.2500        12.5892      -0.027734       102.3377        -2.4725        30.6123       0.249143         1.8249         2.1611         3.1562         4.1556       -15.0706      2230.9104      2244.7104
     2245.1568        12.2500        12.5483      -0.025117       102.1976        -2.2697        29.4965       0.253179         1.8379         2.1645         3.1352         4.1294       -15.0066      2231.0628      2244.8628
     2245.3092        12.2500        12.5204      -0.021478       101.9630        -2.3476        29.0819       0.251265         1.8251         2.1638         3.1185         4.1693       -15.0829      2231.2151      2245.0151
     2245.4616        12.2500        12.5437      -0.018345       101.8922        -2.5620        28.3576       0.246206         1.8065         2.1616         3.1090         4.2458       -15.1131      2231.3675      2245.1675
     2245.6140        12.2500        12.5910      -0.016314       102.2457        -2.7354        27.9456       0.240362         1.7941         2.1626         3.1039         4.2922       -14.9315      2231.5199      2245.3199
     2245.7664        12.2500        12.6214      -0.014332       102.9600        -2.8628        29.0136       0.233510         1.7920         2.1677         3.1024         4.2630       -14.6319      2231.6723      2245.4723
     2245.9188        12.2500        12.6624      -0.009877       103.6069        -2.8814        31.2275       0.229868         1.7972         2.1728         3.1060         4.2000       -14.4239      2231.8246      2245.6246
     2246.0712        12.2500        12.7182      -0.003976       103.7070        -2.8697        33.2746       0.227019         1.8164         2.1782         3.1038         4.1634       -14.3197      2231.9770      2245.7770
     2246.2236        12.2500        12.7628       0.001280       103.1850        -2.7537        33.9040       0.224928         1.8666         2.1874         3.0834         4.1542       -14.2201      2232.1294      2245.9294
