~Version Information Block
VERS .                 2.00:  CWLS LOG ASCII STANDARD - VERSION 2.00
WRAP .                   NO:  One line per depth step
~Well Information Block
#MNEM.UNIT        Data Type   Information
#---------- ----------------  -----------
STRT .M           1550.0604:  START DEPTH
STOP .M           3909.9744:  STOP DEPTH
STEP .M              0.1524:  STEP
NULL .              -999.25:  NULL VALUE
COMP .                     :  COMPANY
WELL .               GABO52:  WELL
FLD  .                     :  FIELD
LOC  .   6.643655, 5.227736:  LOCATION
CTRY .                     :  COUNTRY
STAT .                     :  STATE
CNTY .                     :  COUNTY
API  .                     :  API NUMBER
UWI  .                     :  UNIQUE WELL ID
SRVC .                     :  SERVICE COMPANY
DATE .                     :  LOG DATE
~Curve Information Block
#MNEM.UNIT         API CODE   Curve Description
#---------- ----------------  -----------------
DEPTH.M                    :  Depth
DRHO .G/C3                 :  Density Correction Log
DTS_COMP.US/F              :  Shear Sonic 
DT_COMP.US/F               :  Compressional Sonic
GR_COMP.GAPI               :  Gamma Ray
HCAL .INCHES               :  Caliper
NPHI_COMP.V/V              :  Neutron Porosity
PEF_COMP.B/E               :  Photo Electric Factor
RDEEP_COMP.OHMM            :  Deep Resistivity
RHOB_COMP.G/C3             :  Bulk Density
RSHAL_COMP.OHMM            :  Shallow Resistivity
TVD  .M                    :  Reference TVD
TVDSS.M                    :  Reference TVDss
~Parameter Information Block
#MNEM.UNIT            Value   Description
#---------- ----------------  -----------
SET  .                  LCS:  
~Other Information Block
#        DEPTH           DRHO       DTS_COMP        DT_COMP        GR_COMP           HCAL      NPHI_COMP       PEF_COMP     RDEEP_COMP      RHOB_COMP     RSHAL_COMP            TVD          TVDSS 
~A
# ...
     3736.8480       0.031162       144.7325        80.3061        27.7802         8.7033       0.153316         1.5144         2.3639         2.2712         2.7872      3240.1167      3219.9966
     3737.0004       0.016630       147.1307        82.1940        27.8342         8.8379       0.158192         1.4825         2.2025         2.2539         2.6313      3240.2344      3220.1143
     3737.1528       0.009230       148.3151        83.2637        27.4690         8.9277       0.170147         1.4846         2.1952         2.2404         2.6772      3240.3528      3220.2327
     3737.3052       0.014750       147.8880        82.8664        27.1817         9.0400       0.185624         1.5171         2.2038         2.2383         2.6140      3240.4707      3220.3506
     3737.4576       0.020774       150.5163        84.2151        28.3634         9.1297       0.189898         1.5553         2.1824         2.2312         2.5664      3240.5889      3220.4688
     3737.6100       0.021176       150.5500        84.6698        30.2250         9.2195       0.194792         1.5582         2.1149         2.2277         2.4799      3240.7068      3220.5867
     3737.7624       0.020107       149.7729        84.4875        30.6245         9.0624       0.193895         1.5505         2.0598         2.2237         2.4119      3240.8247      3220.7046
     3737.9148       0.020318       148.0515        85.0033        30.0900         9.0848       0.195766         1.5784         2.0141         2.2184         2.3240      3240.9426      3220.8225
     3738.0672       0.031551       147.2441        84.2010        28.3305         8.9389       0.186216         1.6236         2.0154         2.2229         2.3318      3241.0601      3220.9399
     3738.2196       0.041056       148.2113        84.3671        27.0182         8.8604       0.176416         1.6675         2.0182         2.2286         2.3351      3241.1770      3221.0569
     3738.3720       0.034720       148.6030        84.9433        25.3019         8.9053       0.173952         1.6593         2.0011         2.2267         2.2981      3241.2942      3221.1741
     3738.5244       0.021008       148.3382        84.9980        25.1183         8.7482       0.168716         1.6126         2.0145         2.2201         2.2919      3241.4111      3221.2910
     3738.6768       0.004585       149.4904        84.6726        26.2602         8.8828       0.170456         1.5546         2.0479         2.2088         2.3300      3241.5281      3221.4080
     3738.8292       0.001635       149.2881        85.0144        27.5884         8.9726       0.170375         1.5036         2.0747         2.2066         2.3461      3241.6448      3221.5247
     3738.9816       0.001805       149.6751        84.8046        26.9022         9.0400       0.171928         1.4791         2.0690         2.2019         2.3297      3241.7617      3221.6416
     3739.1340       0.007342       149.0273        85.0855        27.7632         9.1746       0.169816         1.4697         2.0633         2.2055         2.3173      3241.8787      3221.7585
     3739.2864       0.011843       149.3516        84.8060        28.3844         9.2644       0.183189         1.4761         2.0366         2.2095         2.3285      3241.9956      3221.8755
     3739.4388       0.015766       149.4504        85.7310        29.1759         9.2532       0.189011         1.4876         2.0193         2.2157         2.3221      3242.1125      3221.9924
     3739.5912       0.016238       149.3057        85.1466        28.6273         9.2644       0.194476         1.4899         2.0563         2.2166         2.3865      3242.2295      3222.1094
     3739.7436       0.014498       146.9227        83.6363        29.4416         8.9951       0.181123         1.5411         2.1273         2.2252         2.5457      3242.3464      3222.2263
     3739.8960       0.017285       141.9965        80.3219        38.6965         8.9277       0.182515         1.7353         2.2807         2.2781         2.8310      3242.4634      3222.3433
     3740.0484       0.031211       136.2496        77.9893        59.1331         8.8379       0.189406         2.1068         2.5332         2.3847         3.4198      3242.5803      3222.4602
     3740.2008       0.046837       133.2069        77.1364        91.0501         8.8267       0.218186         2.4984         2.8891         2.4848         4.2441      3242.6973      3222.5771
     3740.3532       0.058259       134.6637        76.8422       104.8236         8.6135       0.223066         2.6533         3.2309         2.5039         5.2565      3242.8142      3222.6941
     3740.5056       0.050812       138.0726        78.0009        94.9441         8.5237       0.213419         2.4778         3.3229         2.4269         5.1355      3242.9312      3222.8110
     3740.6580       0.033595       143.3053        81.6455        68.3525         8.5237       0.188565         2.1243         3.1980         2.3198         4.8448      3243.0481      3222.9280
     3740.8104       0.017189       146.8690        84.4893        48.8770         8.5237       0.181281         1.8360         2.9405         2.2501         4.3855      3243.1650      3223.0449
     3740.9628       0.007630       148.5522        85.1366        38.6109         8.5013       0.174898         1.6789         2.7479         2.2184         3.8251      3243.2820      3223.1619
     3741.1152       0.008906       148.9186        84.7777        35.0036         8.6023       0.171382         1.6063         2.5359         2.2186         3.3925      3243.3989      3223.2788
     3741.2676       0.012401       151.3312        85.2856        32.2109         8.6584       0.163373         1.5539         2.4575         2.2305         3.1158      3243.5159      3223.3958
     3741.4200       0.017025       150.8526        84.6268        32.4189         8.7482       0.161807         1.5279         2.4236         2.2528         2.8986      3243.6328      3223.5127
     3741.5724       0.020372       150.7992        84.5539        32.7801         8.9053       0.159438         1.5639         2.4193         2.2684         2.7941      3243.7498      3223.6296
     3741.7248       0.023287       150.2300        84.4273        33.5075         9.0287       0.165041         1.6128         2.4852         2.2774         2.8495      3243.8667      3223.7466
     3741.8772       0.019163       147.9879        84.4583        33.1874         8.9951       0.171162         1.6625         2.6027         2.2674         2.9804      3243.9836      3223.8635
     3742.0296       0.019141       147.1320        84.2095        34.6372         9.0848       0.176562         1.6851         2.6959         2.2721         3.1237      3244.1006      3223.9805
     3742.1820       0.018261       147.4688        83.8264        40.0309         8.9726       0.179894         1.7295         2.7773         2.2827         3.2431      3244.2175      3224.0974
     3742.3344       0.029951       148.1086        83.7122        45.2003         8.9389       0.180271         1.7693         2.8971         2.3142         3.5238      3244.3345      3224.2144
     3742.4868       0.045299       147.2227        84.2861        47.4292         8.9502       0.174726         1.8045         3.1152         2.3294         3.8362      3244.4514      3224.3313
     3742.6392       0.048517       145.1258        84.1782        46.3907         8.8155       0.173050         1.8288         3.1351         2.3258         3.8349      3244.5684      3224.4482
     3742.7916       0.044556       143.1059        82.5499        48.6992         8.7706       0.179282         1.8690         3.0391         2.3475         3.7081      3244.6853      3224.5652
     3742.9440       0.038941       140.7666        81.2857        56.0151         8.9502       0.180690         1.9315         3.1369         2.3963         3.8242      3244.8022      3224.6821
     3743.0964       0.041029       139.9289        80.4533        60.2726         9.0848       0.175510         1.9950         3.4658         2.4335         4.1950      3244.9192      3224.7991
