~Version Information Block
VERS .                 2.00:  CWLS LOG ASCII STANDARD - VERSION 2.00
WRAP .                   NO:  One line per depth step
~Well Information Block
#MNEM.UNIT        Data Type   Information
#---------- ----------------  -----------
STRT .M              0.0000:  START DEPTH
STOP .M           2757.2208:  STOP DEPTH
STEP .M              0.1524:  STEP
NULL .              -999.25:  NULL VALUE
COMP .                     :  COMPANY
WELL .               GABO14:  WELL
FLD  .                     :  FIELD
LOC  .   6.639036, 5.241653:  LOCATION
CTRY .                     :  COUNTRY
STAT .                     :  STATE
CNTY .                     :  COUNTY
API  .                     :  API NUMBER
UWI  .                     :  UNIQUE WELL ID
SRVC .                     :  SERVICE COMPANY
DATE .                     :  LOG DATE
~Curve Information Block
#MNEM.UNIT         API CODE   Curve Description
#---------- ----------------  -----------------
DEPTH.M                    :  Reference Depth
BS_COMP.INCHES             :  Bit Size
CALI_COMP.INCHES          0:  Caliper
DRHO_COMP.G/C3            0:  Density Correction 
DT_COMP.US/F              0:  Compressional Sonic
ECART_COMP.                :  Neutron Density Seperation
GR_COMP.GAPI              0:  Gamma Ray
NPHI_COMP.V/V             0:  Neutron Porosity
PEF_COMP.B/E              0:  Photo Electric Factor
RHOB_COMP.G/C3            0:  Bulk Density
RT_COMP.OHMM              0:  True or Deep Resistivity
RXO_COMP.OHMM             0:  Invaded Zone Resistivity
SP_COMP.MV                0:  Spontaneous Potential
TVDSS_COMP.M               :  Reference TVD sub-sea log.
TVD_COMP.M                 :  Reference TVD log.
~Parameter Information Block
#MNEM.UNIT            Value   Description
#---------- ----------------  -----------
SET  .                  LCS:  
~Other Information Block
#        DEPTH        BS_COMP      CALI_COMP      DRHO_COMP        DT_COMP     ECART_COMP        GR_COMP      NPHI_COMP       PEF_COMP      RHOB_COMP        RT_COMP       RXO_COMP        SP_COMP     TVDSS_COMP       TVD_COMP 
~A
# ...
     2463.6984        12.2500        14.2639       0.033012       103.9387         7.2118        94.8408       0.411328         3.1596         2.3750         2.4589         2.2591        92.4806      2376.5287      2392.5287
     2463.8508        12.2500        14.2033       0.045945       104.1084         7.4730        90.5757       0.417325         3.0377         2.3781         2.4299         2.2790        92.3777      2376.6798      2392.6798
     2464.0032        12.2500        14.2345       0.043948       103.9716         7.7935        90.0675       0.423322         2.9635         2.3841         2.3989         2.2749        92.5370      2376.8310      2392.8310
     2464.1556        12.2500        14.3690       0.029986       104.5825         7.9603        94.8866       0.428151         2.9781         2.3844         2.3689         2.2448        92.7689      2376.9822      2392.9822
     2464.3080        12.2500        14.4796       0.015028       105.6271         7.9129       101.3636       0.429590         3.0374         2.3797         2.3389         2.2077        92.9880      2377.1333      2393.1333
     2464.4604        12.2500        14.4839       0.009043       106.1095         7.6561       105.9366       0.425485         3.1070         2.3737         2.3099         2.1367        93.2145      2377.2845      2393.2845
     2464.6128        12.2500        14.4509       0.014046       106.2344         7.2427       105.5872       0.416905         3.1821         2.3673         2.2819         2.0659        93.3373      2377.4357      2393.4357
     2464.7652        12.2500        14.4063       0.029001       106.3298         7.0523       100.4594       0.412811         3.2491         2.3646         2.2509         2.0443        93.4043      2377.5868      2393.5868
     2464.9176        12.2500        14.4382       0.041958       106.7503         7.3300        94.6959       0.417127         3.2622         2.3713         2.2189         2.1073        93.4826      2377.7380      2393.7380
     2465.0700        12.2500        14.5001       0.043013       106.8264         7.7062        93.0422       0.423937         3.2119         2.3787         2.1889         2.1889        93.3919      2377.8892      2393.8892
     2465.2224        12.2500        14.5762       0.047053       106.4550         7.8072        95.6633       0.427383         3.1586         2.3781         2.1649         2.1726        92.8941      2378.0403      2394.0403
     2465.3748        12.2500        14.7023       0.062985       106.9251         7.8562        97.3604       0.428787         3.1364         2.3782         2.1439         2.0857        92.4425      2378.1915      2394.1915
     2465.5272        12.2500        14.6597       0.072913       107.6551         8.1627        93.9109       0.431561         3.1352         2.3889         2.1249         2.0199        92.5647      2378.3426      2394.3426
     2465.6796        12.2500        14.5394       0.060950       107.4371         8.4592        87.5432       0.433588         3.1494         2.4003         2.1089         2.0049        92.9554      2378.4938      2394.4938
     2465.8320        12.2500        14.5453       0.039028       107.2348         8.3739        82.9081       0.430243         3.1780         2.4016         2.0929         1.9869        93.2725      2378.6450      2394.6450
     2465.9844        12.2500        14.6131       0.027039       107.4207         8.0085        83.4249       0.422862         3.1927         2.3957         2.0790         1.9681        93.3784      2378.7961      2394.7961
     2466.1368        12.2500        14.6797       0.026012       107.1070         7.6771        87.8577       0.414866         3.1431         2.3924         2.0700         1.9881        93.2388      2378.9473      2394.9473
     2466.2892        12.2500        14.6638       0.028023       106.6411         7.4933        91.0577       0.408047         3.0605         2.3946         2.0690         2.0119        92.9532      2379.0985      2395.0985
     2466.4416        12.2500        14.6002       0.035005       106.6564         7.4641        89.8154       0.403832         3.0501         2.4002         2.0750         1.9909        92.7550      2379.2496      2395.2496
     2466.5940        12.2500        14.6072       0.041975       106.7487         7.5681        86.8578       0.402405         3.1328         2.4077         2.0820         1.9600        92.7574      2379.4008      2395.4008
     2466.7464        12.2500        14.6457       0.041958       106.4373         7.6807        86.5904       0.404193         3.2206         2.4104         2.0900         1.9631        92.8478      2379.5520      2395.5520
     2466.8988        12.2500        14.6088       0.031989       106.2821         7.6959        89.5025       0.409162         3.2389         2.4029         2.0980         1.9790        93.0401      2379.7031      2395.7031
     2467.0512        12.2500        14.5433       0.021010       106.5467         7.6948        93.8398       0.417147         3.2253         2.3895         2.1050         1.9811        93.3073      2379.8543      2395.8543
     2467.2036        12.2500        14.5570       0.014012       106.4677         7.6921        96.6120       0.423565         3.2593         2.3787         2.1120         1.9931        93.3696      2380.0055      2396.0055
     2467.3560        12.2500        14.5798       0.010998       106.1552         7.7448        97.3095       0.426383         3.3176         2.3766         2.1170         2.0160        93.2748      2380.1566      2396.1566
     2467.5084        12.2500        14.5570       0.008002       105.9687         7.8022        96.4809       0.426201         3.3206         2.3798         2.1210         2.0150        93.4542      2380.3078      2396.3078
     2467.6608        12.2500        14.5352       0.006003       105.8906         7.7071        95.7682       0.423809         3.2697         2.3790         2.1240         2.0111        93.7395      2380.4590      2396.4590
     2467.8132        12.2500        14.5491       0.005012       105.7965         7.4946        96.2849       0.420421         3.2274         2.3740         2.1270         2.0339        93.8655      2380.6101      2396.6101
     2467.9656        12.2500        14.5978       0.007006       105.6724         7.3302        97.1920       0.418015         3.2130         2.3698         2.1260         2.0125        93.9940      2380.7613      2396.7613
     2468.1180        12.2500        14.6048       0.010010       105.7677         7.3304        98.1256       0.419590         3.1907         2.3672         2.1189         1.8897        93.9906      2380.9124      2396.9124
     2468.2704        12.2500        14.5529       0.015029       106.1573         7.3441        98.2657       0.422387         3.1466         2.3632         2.1039         1.8192        93.8896      2381.0636      2397.0636
     2468.4228        12.2500        14.4710       0.026045       106.4679         7.2598        98.1893       0.422605         3.1056         2.3586         2.0809         1.8651        94.0392      2381.2148      2397.2148
     2468.5752        12.2500        14.3954       0.046004       106.2184         7.4031        98.5001       0.423206         3.0865         2.3648         2.0559         1.8838        94.5524      2381.3659      2397.3659
     2468.7276        12.2500        14.4163       0.063948       106.0789         7.9529        98.5157       0.427376         3.1001         2.3853         2.0299         1.8480        95.1199      2381.5171      2397.5171
     2468.8800        12.2500        14.5079       0.066926       106.2822         8.4746        98.4413       0.429369         3.1575         2.4081         1.9989         1.8391        95.3218      2381.6683      2397.6683
     2469.0324        12.2500        14.5469       0.051965       106.5663         8.4175        99.2085       0.421405         3.2365         2.4185         1.9638         1.8559        95.2807      2381.8194      2397.8194
