~Version Information Block
VERS .                 2.00:  CWLS LOG ASCII STANDARD - VERSION 2.00
WRAP .                   NO:  One line per depth step
~Well Information Block
#MNEM.UNIT        Data Type   Information
#---------- ----------------  -----------
STRT .M              0.0000:  START DEPTH
STOP .M           2731.4652:  STOP DEPTH
STEP .M              0.1524:  STEP
NULL .              -999.25:  NULL VALUE
COMP .                     :  COMPANY
WELL .              GABO-19:  WELL
FLD  .                     :  FIELD
LOC  .   6.687920, 5.237424:  LOCATION
CTRY .                     :  COUNTRY
STAT .                     :  STATE
CNTY .                     :  COUNTY
API  .                     :  API NUMBER
UWI  .                     :  UNIQUE WELL ID
SRVC .                     :  SERVICE COMPANY
DATE .                     :  LOG DATE
~Curve Information Block
#MNEM.UNIT         API CODE   Curve Description
#---------- ----------------  -----------------
DEPTH.M                    :  Reference TVD log.
BS_COMP.INCHES             :  BIT SIZE
DRHO_COMP.G/C3            0:  Density Correction
GR_COMP.GAPI              0:  Gamma Ray
LLS_COMP.OHMM             0:  Deep Laterolog resistivity
NPHI_COMP.V/V              :  Neutron Porosity
PEF_COMP.B/E              0:  Photo Electric Facotr
RHOB_COMP.G/C3            0:  Bulk Density
RT_COMP.OHMM              0:  True Resistivity
RXO_COMP.OHMM             0:  Invaded Zone Resistivity
SP_COMP.MV                0:  Spontaneous Potential
TVDSS_COMP.M               :  Reference TVD sub-sea log.
TVD_COMP.M                 :  Reference TVD log.
~Parameter Information Block
#MNEM.UNIT            Value   Description
#---------- ----------------  -----------
SET  .                  LCS:  
~Other Information Block
#        DEPTH        BS_COMP      DRHO_COMP        GR_COMP       LLS_COMP      NPHI_COMP       PEF_COMP      RHOB_COMP        RT_COMP       RXO_COMP        SP_COMP     TVDSS_COMP       TVD_COMP 
~A
# ...
     1389.8880         9.8750    -999.250000        21.4371        65.6194    -999.250000      -999.2500      -999.2500       107.2098        23.0665        72.7425      1324.9241      1342.9241
     1390.0404         9.8750    -999.250000        21.4591        65.6460    -999.250000      -999.2500      -999.2500       107.4211        21.9868        72.7134      1325.0611      1343.0611
     1390.1928         9.8750    -999.250000        20.8800        64.6115    -999.250000      -999.2500      -999.2500       105.6469        20.4662        72.6652      1325.1982      1343.1982
     1390.3452         9.8750    -999.250000        20.2157        63.1784    -999.250000      -999.2500      -999.2500       103.2418        19.8502        72.6648      1325.3352      1343.3352
     1390.4976         9.8750    -999.250000        19.9528        62.0503    -999.250000      -999.2500      -999.2500       101.5125        20.0068        72.7339      1325.4723      1343.4723
     1390.6500         9.8750    -999.250000        20.0788        61.6548    -999.250000      -999.2500      -999.2500       101.2203        20.4635        72.8262      1325.6093      1343.6093
     1390.8024         9.8750    -999.250000        20.1258        61.8805    -999.250000      -999.2500      -999.2500       102.0694        20.8325        72.8705      1325.7463      1343.7463
     1390.9548         9.8750    -999.250000        19.9805        62.7253    -999.250000      -999.2500      -999.2500       103.9502        21.4665        72.8305      1325.8834      1343.8834
     1391.1072         9.8750    -999.250000        19.7744        63.8501    -999.250000      -999.2500      -999.2500       106.2230        22.9216        72.7800      1326.0204      1344.0204
     1391.2596         9.8750    -999.250000        19.5766        64.9239    -999.250000      -999.2500      -999.2500       108.3063        25.3276        72.8100      1326.1574      1344.1574
     1391.4120         9.8750    -999.250000        19.4444        65.5780    -999.250000      -999.2500      -999.2500       109.5898        27.3925        72.9455      1326.2945      1344.2945
     1391.5644         9.8750    -999.250000        19.4435        65.4484    -999.250000      -999.2500      -999.2500       109.4480        27.5511        73.1533      1326.4315      1344.4315
     1391.7168         9.8750    -999.250000        19.4835        64.6674    -999.250000      -999.2500      -999.2500       108.1421        25.8870        73.3337      1326.5685      1344.5685
     1391.8692         9.8750    -999.250000        19.4980        63.6750    -999.250000      -999.2500      -999.2500       106.4406        23.4638        73.4138      1326.7055      1344.7055
     1392.0216         9.8750    -999.250000        19.3375        63.0443    -999.250000      -999.2500      -999.2500       105.3266        21.6554        73.4088      1326.8425      1344.8425
     1392.1740         9.8750    -999.250000        18.9692        63.0335    -999.250000      -999.2500      -999.2500       105.2154        21.2823        73.3543      1326.9795      1344.9795
     1392.3264         9.8750    -999.250000        18.4526        63.4177    -999.250000      -999.2500      -999.2500       105.6565        22.3462        73.2670      1327.1165      1345.1165
     1392.4788         9.8750    -999.250000        17.9413        63.6783    -999.250000      -999.2500      -999.2500       105.7277        23.9668        73.1501      1327.2535      1345.2535
     1392.6312         9.8750    -999.250000        17.6951        63.3562    -999.250000      -999.2500      -999.2500       104.7090        24.6760        73.0269      1327.3905      1345.3905
     1392.7836         9.8750    -999.250000        17.7946        62.5215    -999.250000      -999.2500      -999.2500       102.8661        24.4086        72.9300      1327.5275      1345.5275
     1392.9360         9.8750    -999.250000        18.5300        61.7741    -999.250000      -999.2500      -999.2500       101.3483        23.9421        72.8739      1327.6645      1345.6645
     1393.0884         9.8750    -999.250000        20.1681        61.7802    -999.250000      -999.2500      -999.2500       101.2679        22.5178        72.8393      1327.8015      1345.8015
     1393.2408         9.8750    -999.250000        22.4585        62.9604    -999.250000      -999.2500      -999.2500       103.2576        19.5692        72.8043      1327.9385      1345.9385
     1393.3932         9.8750    -999.250000        24.2804        64.8616    -999.250000      -999.2500      -999.2500       106.4173        16.7425        72.7581      1328.0755      1346.0755
     1393.5456         9.8750    -999.250000        24.5271        66.5864    -999.250000      -999.2500      -999.2500       109.0826        15.4320        72.6909      1328.2125      1346.2125
     1393.6980         9.8750    -999.250000        23.6081        67.3294    -999.250000      -999.2500      -999.2500       109.9782        15.5619        72.6168      1328.3494      1346.3494
     1393.8504         9.8750    -999.250000        22.5751        66.6850    -999.250000      -999.2500      -999.2500       108.6919        17.1107        72.5361      1328.4864      1346.4864
     1394.0028         9.8750    -999.250000        22.1998        65.4385    -999.250000      -999.2500      -999.2500       106.6531        19.3164        72.4330      1328.6234      1346.6234
     1394.1552         9.8750    -999.250000        22.6176        64.2632    -999.250000      -999.2500      -999.2500       104.9056        21.1376        72.2781      1328.7604      1346.7604
     1394.3076         9.8750    -999.250000        23.1516        63.5236    -999.250000      -999.2500      -999.2500       103.8348        21.4427        72.0942      1328.8973      1346.8973
     1394.4600         9.8750    -999.250000        23.3791        63.3280    -999.250000      -999.2500      -999.2500       103.5560        20.5238        71.9453      1329.0343      1347.0343
     1394.6124         9.8750    -999.250000        23.3466        63.5310    -999.250000      -999.2500      -999.2500       103.9474        20.3549        71.8830      1329.1712      1347.1712
     1394.7648         9.8750    -999.250000        22.8364        64.1315    -999.250000      -999.2500      -999.2500       105.1339        21.9976        71.9400      1329.3082      1347.3082
     1394.9172         9.8750    -999.250000        21.8923        65.0133    -999.250000      -999.2500      -999.2500       106.9650        24.9430        72.1064      1329.4451      1347.4451
     1395.0696         9.8750    -999.250000        20.9034        65.9675    -999.250000      -999.2500      -999.2500       109.0859        27.8262        72.3561      1329.5821      1347.5821
     1395.2220         9.8750    -999.250000        20.3122        66.6230    -999.250000      -999.2500      -999.2500       110.7971        29.6365        72.6091      1329.7190      1347.7190
     1395.3744         9.8750    -999.250000        20.2187        66.6850    -999.250000      -999.2500      -999.2500       111.5093        30.6189        72.8137      1329.8560      1347.8560
     1395.5268         9.8750    -999.250000        20.0625        66.1559    -999.250000      -999.2500      -999.2500       111.1063        30.4502        72.9723      1329.9929      1347.9929
     1395.6792         9.8750    -999.250000        19.2859        65.3403    -999.250000      -999.2500      -999.2500       110.0450        28.5143        73.1570      1330.1298      1348.1298
     1395.8316         9.8750    -999.250000        18.1338        64.6570    -999.250000      -999.2500      -999.2500       109.0244        25.5812        73.4462      1330.2668      1348.2668
     1395.9840         9.8750    -999.250000        17.2282        64.3021    -999.250000      -999.2500      -999.2500       108.3904        23.1152        73.8003      1330.4037      1348.4037
     1396.1364         9.8750    -999.250000        17.1684        64.2748    -999.250000      -999.2500      -999.2500       108.1093        22.1506        74.0811      1330.5406      1348.5406
