~Version Information Block
VERS .                 2.00:  CWLS LOG ASCII STANDARD - VERSION 2.00
WRAP .                   NO:  One line per depth step
~Well Information Block
#MNEM.UNIT        Data Type   Information
#---------- ----------------  -----------
STRT .M              0.0000:  START DEPTH
STOP .M           2799.8928:  STOP DEPTH
STEP .M              0.1524:  STEP
NULL .              -999.25:  NULL VALUE
COMP .                     :  COMPANY
WELL .              GABO-18:  WELL
FLD  .                     :  FIELD
LOC  .   6.635779, 5.238893:  LOCATION
CTRY .                     :  COUNTRY
STAT .                     :  STATE
CNTY .                     :  COUNTY
API  .                     :  API NUMBER
UWI  .                     :  UNIQUE WELL ID
SRVC .                     :  SERVICE COMPANY
DATE .                     :  LOG DATE
~Curve Information Block
#MNEM.UNIT         API CODE   Curve Description
#---------- ----------------  -----------------
DEPTH.M                    :  Reference Depth
BS_COMP.INCHES             :  Bit Size
CALI_COMP.INCHES          0:  Caliper
DRHO_COMP.G/C3            0:  Density Correction Log
ECART_COMP.                :  Neutron Density Seperation
GR   .GAPI                0:  Gamma Ray
GR_COMP.GAPI              0:  Gamma Ray Composite
NPHI .V/V                  :  Neutron Porosity
NPHI_COMP.V/V              :  Neutron Porosity Composite
PEF_COMP.B/E              0:  Photo Electric Factor
RHOB_COMP.G/C3            0:  Bulk Density
RT   .OHMM                0:  True or Deep Resistivity
RT_COMP.OHMM              0:  True or Deep Resistivity Composite
RXO  .OHMM                0:  Invaded Zone Resistivity
RXO_COMP.OHMM             0:  Invaded Zone Resistivity composite
SP_COMP.MV                0:  Spontaneous Potential
TVDSS_COMP.M               :  Reference tvdss log.
TVD_COMP.M                 :  Reference tvd log.
~Parameter Information Block
#MNEM.UNIT            Value   Description
#---------- ----------------  -----------
SET  .                  LCS:  
~Other Information Block
#        DEPTH        BS_COMP      CALI_COMP      DRHO_COMP     ECART_COMP             GR        GR_COMP           NPHI      NPHI_COMP       PEF_COMP      RHOB_COMP             RT        RT_COMP            RXO       RXO_COMP        SP_COMP     TVDSS_COMP       TVD_COMP 
~A
# ...
     2780.3856      -999.2500        13.9766       0.083213      -999.2500       101.4214       101.4214         0.4451       0.445105         4.3092         2.5043         2.0083         2.0083         1.7130         1.7130        26.3750      2546.6710      2564.7710
     2780.5380      -999.2500        14.2225       0.098893      -999.2500        88.2163        88.2163         0.5131       0.513092         4.0261         2.4651         1.8264         1.8264         1.6137         1.6137        26.3750      2546.8143      2564.9143
     2780.6904      -999.2500        14.3525       0.112336      -999.2500        62.2137        62.2137         0.5709       0.570888         3.8278         2.4413         1.7165         1.7165         1.5442         1.5442        26.3750      2546.9577      2565.0577
     2780.8428      -999.2500        14.3173       0.121069      -999.2500        29.7839        29.7839         0.5884       0.588383         3.6688         2.4339         1.6753         1.6753         1.4960         1.4960        26.3750      2547.1011      2565.2011
     2780.9952      -999.2500        14.0738       0.124884      -999.2500         1.3137      -999.2500         0.5295       0.529506         3.4662         2.4408         1.6866         1.6866         1.4533         1.4533        26.3750      2547.2445      2565.3445
     2781.1476      -999.2500        13.7272       0.120566      -999.2500         0.1228      -999.2500         0.5126       0.512620         3.2310         2.4159         1.7077         1.7077         1.4129         1.4129        26.3787      2547.3879      2565.4879
     2781.3000      -999.2500        13.6937       0.118000      -999.2500         0.0002      -999.2500         0.4943       0.494260         3.0108         2.3564         1.7455         1.7455         1.4121         1.4121        26.3855      2547.5313      2565.6313
     2781.4524      -999.2500        13.8824       0.122266      -999.2500         0.0000      -999.2500         0.4794       0.479429         2.8274         2.2789         1.7891         1.7891         1.4484         1.4484        26.3910      2547.6747      2565.7747
     2781.6048      -999.2500        14.1366       0.137546      -999.2500         0.0130      -999.2500         0.4754       0.475367         2.7043         2.2029         1.8258         1.8258         1.5167         1.5167        26.3910      2547.8181      2565.9181
     2781.7572      -999.2500        14.3487       0.154309      -999.2500         0.4035      -999.2500         0.5113       0.511308         2.7705         2.1991         1.8221         1.8221         1.5997         1.5997        26.3910      2547.9615      2566.0615
     2781.9096      -999.2500        14.4705       0.167230      -999.2500         0.5144      -999.2500         0.5155       0.515483         2.8285         2.2606         1.7683         1.7683         1.6334         1.6334        26.3954      2548.1049      2566.2049
     2782.0620      -999.2500        14.5591       0.169637      -999.2500         0.3785      -999.2500         0.5174       0.517363         2.8899         2.3372         1.7133         1.7133         1.6233         1.6233        26.4012      2548.2484      2566.3484
     2782.2144      -999.2500        14.6710       0.156707      -999.2500         0.0691      -999.2500         0.5339       0.533883         2.9658         2.3923         1.6914         1.6914         1.5764         1.5764        26.4037      2548.3918      2566.4918
     2782.3668      -999.2500        14.9369       0.122431      -999.2500         0.0123      -999.2500         0.5520       0.552024         3.0884         2.3855         1.7362         1.7362         1.5178         1.5178        26.3801      2548.5353      2566.6353
     2782.5192      -999.2500        15.1295       0.103070      -999.2500         0.0000      -999.2500         0.5420       0.542019         3.0809         2.3750         1.7484         1.7484         1.4985         1.4985        26.3750      2548.6787      2566.7787
     2782.6716      -999.2500        15.2352       0.090338      -999.2500         0.0000      -999.2500         0.5408       0.540787         3.0167         2.3658         1.7443         1.7443         1.5023         1.5023        26.3750      2548.8222      2566.9222
     2782.8240      -999.2500        15.2868       0.083220      -999.2500         0.0000      -999.2500         0.5584       0.558353         2.9511         2.3612         1.7294         1.7294         1.5135         1.5135        26.3750      2548.9657      2567.0657
     2782.9764      -999.2500        15.5099       0.090829      -999.2500         0.0000      -999.2500         0.5774       0.577432         3.0013         2.3688         1.7005         1.7005         1.4914         1.4914        26.3750      2549.1091      2567.2091
     2783.1288      -999.2500        15.6803       0.097158      -999.2500         0.0000      -999.2500         0.5648       0.564840         3.1522         2.3726         1.6219         1.6219         1.4235         1.4235        26.3750      2549.2526      2567.3526
     2783.2812      -999.2500        15.7608       0.109362      -999.2500         0.0000      -999.2500         0.5843       0.584296         3.2362         2.3756         1.5888         1.5888         1.3856         1.3856        26.3795      2549.3961      2567.4961
     2783.4336      -999.2500        15.7377       0.125189      -999.2500         0.0000      -999.2500         0.6392       0.639201         3.2606         2.3758         1.6216         1.6216         1.3905         1.3905        26.3868      2549.5396      2567.6396
     2783.5860      -999.2500        15.6014       0.135100      -999.2500         0.0000      -999.2500         0.7031       0.703127         3.3352         2.3659         1.7191         1.7191         1.4285         1.4285        26.3907      2549.6831      2567.7831
     2783.7384      -999.2500        15.1532       0.117980      -999.2500         0.0000      -999.2500         0.5970       0.596984         3.4023         2.3588         1.8921         1.8921         1.3364         1.3364        26.3910      2549.8266      2567.9266
     2783.8908      -999.2500        14.6512       0.107278      -999.2500         0.0000      -999.2500         0.5072       0.507226         3.5009         2.3847         1.9726         1.9726         1.3150         1.3150        26.3814      2549.9701      2568.0701
     2784.0432      -999.2500        14.4276       0.094226      -999.2500         0.0000      -999.2500         0.4635       0.463472         3.5600         2.4207         1.9694         1.9694         1.3497         1.3497        26.3676      2550.1137      2568.2137
     2784.1956      -999.2500        15.0338       0.059954      -999.2500         0.0000      -999.2500         0.4790       0.478958         3.4656         2.4268         1.9253         1.9253         1.3840         1.3840        26.3592      2550.2572      2568.3572
     2784.3480      -999.2500        15.0404       0.056043      -999.2500         0.0000      -999.2500         0.4847       0.484659         3.4223         2.4248         1.9944         1.9944         1.3842         1.3842        26.3590      2550.4007      2568.5007
     2784.5004      -999.2500        15.1105       0.062548      -999.2500         0.0000      -999.2500         0.4818       0.481830         3.4724         2.4255         2.0652         2.0652         1.3438         1.3438        26.3590      2550.5439      2568.6439
     2784.6528      -999.2500        15.1817       0.072646      -999.2500         0.0000      -999.2500         0.4738       0.473756         3.5739         2.4291         2.1120         2.1120         1.2887         1.2887        26.3553      2550.6878      2568.7878
     2784.8052      -999.2500        15.1334    -999.250000      -999.2500         0.0000      -999.2500         0.4515    -999.250000      -999.2500      -999.2500         2.0571      -999.2500         1.2119      -999.2500        25.6236      2550.8314      2568.9314
