~Version Information Block
VERS .                 2.00:  CWLS LOG ASCII STANDARD - VERSION 2.00
WRAP .                   NO:  One line per depth step
~Well Information Block
#MNEM.UNIT        Data Type   Information
#---------- ----------------  -----------
STRT .M              0.0000:  START DEPTH
STOP .M           2954.7312:  STOP DEPTH
STEP .M              0.1524:  STEP
NULL .              -999.25:  NULL VALUE
COMP .                     :  COMPANY
WELL .               GABO16:  WELL
FLD  .                     :  FIELD
LOC  .   6.656374, 5.257763:  LOCATION
CTRY .                     :  COUNTRY
STAT .                     :  STATE
CNTY .                     :  COUNTY
API  .                     :  API NUMBER
UWI  .                     :  UNIQUE WELL ID
SRVC .                     :  SERVICE COMPANY
DATE .                     :  LOG DATE
~Curve Information Block
#MNEM.UNIT         API CODE   Curve Description
#---------- ----------------  -----------------
DEPTH.M                    :  Reference Depth
BS_COMP.INCHES             :  Bit Size
CALI_COMP.INCHES           :  Caliper
DRHO_COMP.G/C3             :  Density Neutron Seperation
DT_COMP.US/F              0:  Compressional Sonic
GR_COMP.GAPI              0:  Gamma Ray
NPHI_COMP.V/V              :  Neutron Porosity
PEF_COMP.B/E              0:  Photo Electric Factor
RHOB_COMP.G/C3            0:  Bulk Density
RT_COMP.OHMM              0:  True or Deep Resistivity
RXO_COMP.OHMM             0:  Invaded Zone Resistivity
SP_COMP.MV                0:  Spontanuous Potential
TVDSS_COMP.M               :  Reference TVD sub-sea log.
TVD_COMP.M                 :  Reference TVD log.
~Parameter Information Block
#MNEM.UNIT            Value   Description
#---------- ----------------  -----------
SET  .                  LCS:  
~Other Information Block
COMMENT:
COMMENT:
$$MUX      Data from LAS tape
$$MUX      fevsbd 09/10/97 ng95603  ASCII:      GABO-16
$$MUX
$$MUX

#        DEPTH        BS_COMP      CALI_COMP      DRHO_COMP        DT_COMP        GR_COMP      NPHI_COMP       PEF_COMP      RHOB_COMP        RT_COMP       RXO_COMP        SP_COMP     TVDSS_COMP       TVD_COMP 
~A
# ...
     1969.9224        12.2500        12.8604      -0.030186       101.5096        39.7262       0.198988         1.6232         2.2566        29.8881        11.0900        63.8020      1843.1772      1863.6772
     1970.0748        12.2500        12.9280      -0.023919       103.1942        38.7318       0.217032         1.6103         2.2209        29.2608        10.4699        63.4280      1843.3090      1863.8090
     1970.2272        12.2500        13.0511      -0.021236       105.9179        35.9658       0.230203         1.5953         2.1901        28.6275         9.6672        63.0127      1843.4404      1863.9404
     1970.3796        12.2500        12.8790      -0.025417       108.8520        32.6933       0.236273         1.5806         2.1722        28.0961         9.8816        62.2072      1843.5720      1864.0720
     1970.5320        12.2500        12.7218      -0.032774       111.0856        31.0255       0.242478         1.5640         2.1638        27.8488        10.4032        61.7261      1843.7036      1864.2036
     1970.6844        12.2500        12.7618      -0.035261       113.0114        32.5464       0.255023         1.5401         2.1568        27.9900        10.2037        62.2705      1843.8352      1864.3352
     1970.8368        12.2500        12.8297      -0.030398       114.5589        35.7173       0.266609         1.5134         2.1514        28.3368         9.9460        63.0154      1843.9667      1864.4667
     1970.9892        12.2500        12.8317      -0.025119       116.0296        37.8013       0.264536         1.4936         2.1516        28.7118         9.8667        63.4045      1844.0983      1864.5983
     1971.1416        12.2500        12.7692      -0.023408       117.4433        37.9188       0.254498         1.4908         2.1550        29.3638         9.5747        63.6469      1844.2299      1864.7299
     1971.2940        12.2500        12.6523      -0.023197       118.2953        37.4002       0.250589         1.5083         2.1525        30.1342         9.2616        63.7239      1844.3615      1864.8615
     1971.4464        12.2500        12.5357      -0.022496       119.2955        37.6735       0.257780         1.5300         2.1451        30.2905         8.9599        63.4905      1844.4930      1864.9930
     1971.5988        12.2500        12.5160      -0.020993       119.5692        38.2188       0.268830         1.5481         2.1426        29.6064         8.7894        63.1784      1844.6246      1865.1246
     1971.7512        12.2500        12.5683      -0.018161       117.4195        38.1736       0.276248         1.5682         2.1498        28.5671         9.1100        62.9439      1844.7561      1865.2561
     1971.9036        12.2500        12.6014      -0.008012       114.9843        36.9080       0.277722         1.6083         2.1570        27.4253         9.6919        62.6522      1844.8877      1865.3877
     1972.0560        12.2500        12.5942       0.018744       114.8566        34.9726       0.270586         1.6776         2.1465        26.1499         9.9312        62.2746      1845.0193      1865.5193
     1972.2084        12.2500        12.6676       0.053657       116.0463        34.5999       0.256913         1.7532         2.1205        25.2079         9.5383        61.9686      1845.1508      1865.6508
     1972.3608        12.2500        13.0424       0.061696       117.8890        37.5182       0.246454         1.8074         2.1069        24.9531         8.6714        61.7597      1845.2823      1865.7823
     1972.5132        12.2500        13.6830       0.031461       120.2130        42.5966       0.247440         1.8299         2.1199        24.9499         7.6924        61.4342      1845.4139      1865.9139
     1972.6656        12.2500        14.2098      -0.006126       121.7164        47.3729       0.266158         1.8192         2.1359        24.6978         6.9607        61.0674      1845.5455      1866.0455
     1972.8180        12.2500        14.1535      -0.029831       122.3840        51.2752       0.297335         1.7748         2.1329        24.2031         6.6056        60.8007      1845.6770      1866.1770
     1972.9704        12.2500        13.5805      -0.040553       122.9866        54.2306       0.329537         1.7082         2.1160        23.6490         6.6496        60.5367      1845.8086      1866.3086
     1973.1228        12.2500        13.0738      -0.042367       123.0782        54.6806       0.347239         1.6571         2.1002        22.9195         6.8778        60.2434      1845.9401      1866.4401
     1973.2752        12.2500        12.8429      -0.037985       121.8579        51.8392       0.346831         1.6567         2.0953        22.1110         7.0588        60.0481      1846.0717      1866.5717
     1973.4276        12.2500        12.8153      -0.030809       120.1133        48.7166       0.334011         1.7055         2.1005        21.6683         7.4451        59.6957      1846.2032      1866.7032
     1973.5800        12.2500        12.9439      -0.025323       118.8402        49.6176       0.315661         1.7719         2.1079        21.6324         7.9677        58.8415      1846.3348      1866.8348
     1973.7324        12.2500        13.1669      -0.024218       118.7279        55.1818       0.303079         1.8286         2.1114        21.6902         7.8678        58.2211      1846.4663      1866.9663
     1973.8848        12.2500        13.5553      -0.026508       120.0218        62.2673       0.304791         1.8681         2.1071        21.7481         7.0006        58.5012      1846.5979      1867.0979
     1974.0372        12.2500        13.7017      -0.030297       121.0209        67.4934       0.318030         1.8986         2.0969        21.8129         6.2199        59.0937      1846.7294      1867.2294
     1974.1896        12.2500        13.2092      -0.033598       120.9123        69.3676       0.330878         1.9300         2.0864        21.4109         5.8939        59.4417      1846.8608      1867.3608
     1974.3420        12.2500        12.7580      -0.036594       120.7287        68.8069       0.334057         1.9776         2.0852        20.1280         5.9015        59.5773      1846.9926      1867.4926
     1974.4944        12.2500        12.7036      -0.038476       120.7494        67.5852       0.331686         2.0351         2.0944        18.2832         6.1539        59.5447      1847.1240      1867.6240
     1974.6468        12.2500        12.7526      -0.035747       120.6294        66.5916       0.330998         2.0734         2.1062        16.3744         6.3786        59.4273      1847.2556      1867.7556
     1974.7992        12.2500        12.9183      -0.023034       119.8112        66.3935       0.330685         2.0937         2.1098        14.5922         6.5023        59.4107      1847.3871      1867.8871
     1974.9516        12.2500        13.1394       0.001867       117.5790        66.9195       0.329704         2.1514         2.1109        13.0065         6.5739        59.3559      1847.5186      1868.0186
     1975.1040        12.2500        13.1413       0.002119       114.1738        69.0833       0.332451         2.3030         2.1360        11.7141         6.5089        59.2371      1847.6501      1868.1501
     1975.2564        12.2500        13.2674       0.024380       110.1466        72.1680       0.340041         2.4493         2.1731        10.7370         6.2274        59.5391      1847.7817      1868.2817
     1975.4088        12.2500        13.3489       0.024212       105.5582        74.4455       0.347878         2.5157         2.1992        10.0771         5.9821        60.3722      1847.9132      1868.4132
     1975.5612        12.2500        13.3001       0.007429       100.7089        81.7287       0.371600         2.7055         2.2768         9.7597         6.0101        61.2775      1848.0447      1868.5447
     1975.7136        12.2500        13.1154      -0.003954        95.8617        88.0565       0.388200         2.8393         2.3327         9.7577         5.9725        62.1519      1848.1763      1868.6763
