~Version Information Block
VERS .                 2.00:  CWLS LOG ASCII STANDARD - VERSION 2.00
WRAP .                   NO:  One line per depth step
~Well Information Block
#MNEM.UNIT        Data Type   Information
#---------- ----------------  -----------
STRT .M           1084.4784:  START DEPTH
STOP .M           2540.6604:  STOP DEPTH
STEP .M              0.1524:  STEP
NULL .              -999.25:  NULL VALUE
COMP .                     :  COMPANY
WELL .               GABA17:  WELL
FLD  .                     :  FIELD
LOC  .   6.675366, 5.270403:  LOCATION
CTRY .                     :  COUNTRY
STAT .                     :  STATE
CNTY .                     :  COUNTY
API  .                     :  API NUMBER
UWI  .                     :  UNIQUE WELL ID
SRVC .                     :  SERVICE COMPANY
DATE .                     :  LOG DATE
~Curve Information Block
#MNEM.UNIT         API CODE   Curve Description
#---------- ----------------  -----------------
DEPTH.M                    :  Reference Depth
BS_COMP.INCHES             :  Bit Size
DRHO_COMP.G/C3             :  Density Correction
GR_COMP.GAPI               :  Gamma Ray
LLS_COMP.OHMM             0:  Resistivity
NPHI_COMP.V/V              :  Neutron Porosity
PEF_COMP.B/E               :  Photo Electric Factor
RHOB_COMP.G/C3             :  Bulk Density
RT_COMP.OHMM               :  True Resistivity
RXO_COMP.OHMM              :  Invaded Zone Resistivity
TVDSS_COMP.M               :  Reference TVD sub-sea log.
TVD_COMP.M                 :  Reference TVD log.
~Parameter Information Block
#MNEM.UNIT            Value   Description
#---------- ----------------  -----------
SET  .                  LCS:  
DEPTH_BOTTOM.M         2530:  Downhole depth
DEPTH_TOP.M            1787:  Downhole depth
UNDER_SAMPLING_RATE.      1:  Full sampling rate if equal to 1
~Other Information Block
#        DEPTH        BS_COMP      DRHO_COMP        GR_COMP       LLS_COMP      NPHI_COMP       PEF_COMP      RHOB_COMP        RT_COMP       RXO_COMP     TVDSS_COMP       TVD_COMP 
~A
# ...
     2380.6404         9.8750       0.082769       110.7324        13.7824       0.206304         2.9138         2.1065        15.6197        15.5169      2358.6229      2376.6229
     2380.7928         9.8750       0.084694       109.3562        13.9026       0.202449         2.8856         2.1151        16.4425        16.4814      2358.7752      2376.7752
     2380.9452         9.8750       0.082541       112.6804        15.8653       0.198827         2.8730         2.1358        17.2653        17.4459      2358.9275      2376.9275
     2381.0976         9.8750       0.079019       117.7527        21.2255       0.196586         2.8565         2.1559        35.7086        38.3627      2359.0798      2377.0798
     2381.2500         9.8750       0.077700       121.1904        34.4254       0.195526         2.8320         2.1695        64.0453        70.4823      2359.2321      2377.2321
     2381.4024         9.8750       0.080092       122.0194        69.0411       0.194715         2.8166         2.1797        92.3821       102.6018      2359.3843      2377.3843
     2381.5548         9.8750       0.081935       119.9694       153.5648       0.194247         2.8129         2.1859       138.2879       155.4848      2359.5366      2377.5366
     2381.7072         9.8750       0.076150       115.2013       309.8473       0.194869         2.7913         2.1810       215.4848       245.3483      2359.6889      2377.6889
     2381.8596         9.8750       0.060870       105.9163       424.9097       0.188972         2.7045         2.1552       292.6816       335.2117      2359.8412      2377.8412
     2382.0120         9.8750       0.049654        92.6988       417.4086       0.165544         2.5704         2.1192       362.8990       416.7649      2359.9935      2377.9935
     2382.1644         9.8750       0.051090        77.8564       383.2485       0.133940         2.4458         2.0875       351.4556       401.0891      2360.1458      2378.1458
     2382.3168         9.8750       0.056555        65.4913       363.1940       0.110135         2.3787         2.0670       340.0123       385.4133      2360.2981      2378.2981
     2382.4692         9.8750       0.052275        58.5087       361.5808       0.095795         2.3601         2.0513       328.5690       369.7375      2360.4503      2378.4503
     2382.6216         9.8750       0.035307        56.3984       386.2647       0.086404         2.3478         2.0284       366.4113       421.3137      2360.6026      2378.6026
     2382.7740         9.8750       0.014440        56.7593       441.0055       0.080971         2.3277         1.9974       416.7371       489.9241      2360.7549      2378.7549
     2382.9264         9.8750       0.001517        56.9747       534.2194       0.078312         2.2992         1.9731       467.0629       558.5345      2360.9072      2378.9072
     2383.0788         9.8750      -0.002507        56.5340       653.1779       0.076669         2.2717         1.9645       513.9207       614.1313      2361.0595      2379.0595
     2383.2312         9.8750      -0.000901        56.1416       755.8964       0.075309         2.2501         1.9685       557.5394       657.5734      2361.2118      2379.2118
     2383.3836         9.8750       0.004019        56.2279       779.1979       0.074310         2.2276         1.9819       601.1580       701.0155      2361.3640      2379.3640
     2383.5360         9.8750       0.009788        55.9589       720.2775       0.073439         2.1851         2.0002       625.5479       721.1721      2361.5163      2379.5163
     2383.6884         9.8750       0.015383        54.1391       636.8356       0.072568         2.1183         2.0155       587.7648       666.0386      2361.6686      2379.6686
     2383.8408         9.8750       0.023003        50.3128       576.0336       0.072075         2.0477         2.0235       549.9818       610.9052      2361.8209      2379.8209
     2383.9932         9.8750       0.030972        46.1003       553.3472       0.071856         1.9976         2.0271       512.1987       555.7717      2361.9732      2379.9732
     2384.1456         9.8750       0.035574        43.0728       552.5514       0.072148         1.9659         2.0322       507.8260       549.5117      2362.1255      2380.1255
     2384.2980         9.8750       0.036981        41.5894       553.6524       0.076258         1.9365         2.0449       505.0137       545.5342      2362.2778      2380.2778
     2384.4504         9.8750       0.038708        41.4545       544.5294       0.082851         1.9079         2.0666       502.2014       541.5567      2362.4300      2380.4300
     2384.6028         9.8750       0.042385        42.2593       531.4181       0.086904         1.8835         2.0903       511.8886       561.2471      2362.5823      2380.5823
     2384.7552         9.8750       0.047213        43.7586       533.7323       0.088874         1.8702         2.1088       527.6067       592.3569      2362.7346      2380.7346
     2384.9076         9.8750       0.054580        45.1762       576.2539       0.093125         1.8721         2.1193       543.3248       623.4667      2362.8869      2380.8869
     2385.0600         9.8750       0.068123        45.6397       685.2341       0.090190         1.8824         2.1226       629.2420       750.3818      2363.0392      2381.0392
     2385.2124         9.8750       0.087847        44.7823       896.4554       0.078915         1.8868         2.1196       823.2656      1024.8369      2363.1915      2381.1915
     2385.3648         9.8750       0.106773        43.1353      1224.8098       0.068220         1.8801         2.1116      1017.2892      1299.2921      2363.3437      2381.3437
     2385.5172         9.8750       0.114954        41.4934      1583.2229       0.064388         1.8680         2.1023      1193.6757      1550.5681      2363.4960      2381.4960
     2385.6696         9.8750       0.109847        40.0422      1793.5707       0.065299         1.8577         2.0968      1231.4258      1619.6450      2363.6483      2381.6483
     2385.8220         9.8750       0.095314        38.5259      1841.1323       0.066557         1.8515         2.0999      1269.1759      1688.7219      2363.8006      2381.8006
     2385.9744         9.8750       0.081279        36.8550      1789.9474       0.068728         1.8484         2.1096      1306.9261      1757.7987      2363.9529      2381.9529
     2386.1268         9.8750       0.076229        35.2642      1667.6393       0.074324         1.8476         2.1195      1201.9348      1627.5195      2364.1052      2382.1052
     2386.2792         9.8750       0.078336        34.0245      1472.5681       0.083101         1.8485         2.1237      1068.1251      1456.9918      2364.2574      2382.2574
     2386.4316         9.8750       0.082335        33.1928      1269.7618       0.093133         1.8528         2.1193       934.3153      1286.4641      2364.4097      2382.4097
     2386.5840         9.8750       0.085157        32.4200      1136.4481       0.100494         1.8576         2.1095       885.1767      1228.2161      2364.5620      2382.5620
     2386.7364         9.8750       0.086838        31.4713      1104.6381       0.102157         1.8489         2.0977       904.9846      1261.3956      2364.7143      2382.7143
     2386.8888         9.8750       0.087656        30.3480      1193.0306       0.098829         1.8272         2.0861       924.7925      1294.5752      2364.8666      2382.8666
     2387.0412         9.8750       0.087385        29.2027      1365.3773       0.093056         1.8098         2.0756       927.8223      1301.9410      2365.0189      2383.0189
     2387.1936         9.8750       0.085952        28.3424      1478.3160       0.087556         1.8046         2.0657       885.5672      1239.6349      2365.1711      2383.1711
     2387.3460         9.8750       0.083997        28.2056      1383.3561       0.083820         1.8091         2.0551       843.3121      1177.3287      2365.3234      2383.3234
