~Version Information Block
VERS .                 2.00:  CWLS LOG ASCII STANDARD - VERSION 2.00
WRAP .                   NO:  One line per depth step
~Well Information Block
#MNEM.UNIT        Data Type   Information
#---------- ----------------  -----------
STRT .M            800.1000:  START DEPTH
STOP .M           4245.4068:  STOP DEPTH
STEP .M              0.1524:  STEP
NULL .              -999.25:  NULL VALUE
COMP .                     :  COMPANY
WELL .               GABO51:  WELL
FLD  .                     :  FIELD
LOC  .   6.643728, 5.227344:  LOCATION
CTRY .                     :  COUNTRY
STAT .                     :  STATE
CNTY .                     :  COUNTY
API  .                     :  API NUMBER
UWI  .                     :  UNIQUE WELL ID
SRVC .                     :  SERVICE COMPANY
DATE .                     :  LOG DATE
~Curve Information Block
#MNEM.UNIT         API CODE   Curve Description
#---------- ----------------  -----------------
DEPTH.M                    :  Depth
DRHO_COMP.G/C3             :  Density Correction
DTSM_COMP.US/F             :  Shear Sonic
DT_COMP.US/F               :  Compressional Sonic
GR_COMP.GAPI               :  Gamma Ray
HCAL_COMP.INCHES           :  Caliper
NPHI_COMP.V/V              :  Neutron Porosity
PEF_COMP.B/E               :  Pho Electric Factor
RDEEP_COMP.OHMM            :  Deep Resistivity
RHOB_COMP.G/C3             :  Bulk Density
RSHAL_COMP.OHMM            :  Shallow Resistivity
TVDSS_COMP.M               :  Reference TVD sub-sea log.
TVD_COMP.M                 :  Reference TVD log.
~Parameter Information Block
#MNEM.UNIT            Value   Description
#---------- ----------------  -----------
SET  .                  LCS:  
~Other Information Block
#        DEPTH      DRHO_COMP      DTSM_COMP        DT_COMP        GR_COMP      HCAL_COMP      NPHI_COMP       PEF_COMP     RDEEP_COMP      RHOB_COMP     RSHAL_COMP     TVDSS_COMP       TVD_COMP 
~A
# ...
     3489.0456       0.008200       173.6393       161.2129        85.6421        12.4044       0.291100         4.0722         1.7737         2.5599         1.8500      2717.7623      2737.5423
     3489.1980       0.011000       170.0409       159.3940        82.7051        12.4602       0.263800         4.2533         2.1533         2.5896         2.0992      2717.8867      2737.6667
     3489.3504       0.010200       167.9940       153.0092        84.7623        12.5383       0.231900         4.3198         2.3682         2.6239         2.3111      2718.0110      2737.7910
     3489.5028       0.002700       167.7533       153.8669        83.5786        12.5532       0.209200         4.3316         2.4412         2.6377         2.5877      2718.1354      2737.9154
     3489.6552      -0.002300       167.9691       155.6522        86.4080        12.7616       0.210300         4.2678         2.5919         2.6239         2.7114      2718.2598      2738.0398
     3489.8076      -0.003100       167.3251       157.8471        89.2501        12.6872       0.227200         4.1165         2.7420         2.5799         2.7310      2718.3843      2738.1643
     3489.9600      -0.000100       166.2843       159.4305        93.5544        12.4490       0.242600         3.8740         2.7409         2.5377         2.7159      2718.5087      2738.2887
     3490.1124       0.008600       165.2270       161.3472        93.5544        12.4713       0.249600         3.6659         2.6809         2.5285         2.6259      2718.6332      2738.4132
     3490.2648       0.012800       165.1508       163.0957        96.0610        12.5272       0.244700         3.5238         2.6535         2.5389         2.6208      2718.7577      2738.5377
     3490.4172       0.014200       167.0932       165.8873        96.7066        12.5234       0.242200         3.4654         2.6188         2.5515         2.6370      2718.8822      2738.6622
     3490.5696       0.009100       170.6532       166.7373        99.1816        12.5160       0.243300         3.4580         2.5406         2.5507         2.6146      2719.0068      2738.7868
     3490.7220       0.007900       173.9457       166.9032        97.2447        12.7095       0.249300         3.4946         2.4738         2.5554         2.4949      2719.1313      2738.9113
     3490.8744       0.006100       175.9588       167.0278        98.7322        12.6425       0.255000         3.4845         2.3380         2.5525         2.3683      2719.2559      2739.0359
     3491.0268       0.004200       176.7390       166.6880        97.0105        12.5607       0.268800         3.4337         2.3310         2.5382         2.3230      2719.3805      2739.1605
     3491.1792       0.004900       176.5465       166.9138       101.5679        12.4602       0.270800         3.4236         2.2757         2.5270         2.2631      2719.5052      2739.2852
     3491.3316       0.011100       176.0142       167.3884       106.7521        12.4713       0.268300         3.4850         2.2142         2.5369         2.2213      2719.6298      2739.4098
     3491.4840       0.015600       176.3553       167.2220       109.3346        12.5011       0.257600         3.5763         2.1998         2.5494         2.2052      2719.7545      2739.5345
     3491.6364       0.014300       177.6655       170.8172       108.4231        12.6276       0.262500         3.5703         2.1862         2.5497         2.1676      2719.8792      2739.6592
     3491.7888       0.007300       178.8693       170.5021       103.4732        12.8174       0.268600         3.5057         2.1837         2.5301         2.1595      2720.0039      2739.7839
     3491.9412       0.004500       179.4794       170.8260       102.7769        12.5830       0.267100         3.4361         2.1936         2.5318         2.1437      2720.1287      2739.9087
     3492.0936       0.004000       179.3812       171.7821       101.0995        12.5495       0.255200         3.4208         2.2177         2.5339         2.1602      2720.2534      2740.0334
     3492.2460       0.006100       179.5815       172.9263       104.0049        12.5830       0.261200         3.4468         2.2495         2.5426         2.1861      2720.3782      2740.1582
     3492.3984       0.006500       179.8914       172.3457       104.7012        12.5718       0.258900         3.4892         2.2328         2.5310         2.1994      2720.5030      2740.2830
     3492.5508       0.007600       180.3819       176.6677       101.3654        12.5681       0.263200         3.5058         2.2014         2.5222         2.1997      2720.6278      2740.4078
     3492.7032       0.006700       181.9760       177.7480        95.9850        12.5681       0.264500         3.4968         2.1105         2.5086         2.1169      2720.7527      2740.5327
     3492.8556       0.005600       183.5674       177.4703        99.1626        12.5941       0.277900         3.4565         2.0178         2.5022         2.0629      2720.8776      2740.6576
     3493.0080       0.004200       184.6568       178.5051       107.1142        12.6351       0.280700         3.4571         2.0600         2.4981         2.0941      2721.0025      2740.7825
     3493.1604       0.005200       186.2073       180.5433       113.0009        12.5011       0.284400         3.5083         1.9470         2.5027         1.9798      2721.1274      2740.9074
     3493.3128       0.005900       188.5898       183.2778       112.2983        12.4788       0.291700         3.5996         1.8806         2.5050         1.9432      2721.2523      2741.0323
     3493.4652       0.010300       190.8906       182.1161       116.3101        12.5011       0.290900         3.6788         1.8279         2.5129         1.8503      2721.3773      2741.1573
     3493.6176       0.017400       192.1664       182.2150       122.7981        12.4937       0.283500         3.6868         1.8397         2.5231         1.8658      2721.5023      2741.2823
     3493.7700       0.017200       192.2054       181.4239       124.8427        12.5160       0.264600         3.6181         1.8211         2.5177         1.8216      2721.6273      2741.4073
     3493.9224       0.011800       191.4350       180.6998       116.9810        12.5160       0.270700         3.4932         1.7842         2.4976         1.8402      2721.7523      2741.5323
     3494.0748       0.001500       190.7350       177.5603       109.1258        12.5532       0.282400         3.3892         1.6905         2.4637         1.7711      2721.8773      2741.6573
     3494.2272      -0.000300       190.4175       176.4403       104.0682        12.5309       0.303000         3.3229         1.6095         2.4545         1.6833      2722.0024      2741.7824
     3494.3796       0.000400       190.1793       173.9260       100.9920        12.4044       0.296400         3.3506         1.6811         2.4642         1.6956      2722.1275      2741.9075
     3494.5320       0.009900       189.0506       173.5647        98.8398        12.4192       0.290200         3.4472         1.7066         2.4990         1.7242      2722.2526      2742.0326
     3494.6844       0.014300       186.8902       172.8977        97.7701        12.4416       0.264700         3.5582         1.8044         2.5186         1.8668      2722.3778      2742.1578
     3494.8368       0.015100       184.9909       172.9466       102.8972        12.4490       0.264200         3.6154         1.9060         2.5227         1.9646      2722.5029      2742.2829
     3494.9892       0.008100       183.5062       172.8932       106.4482        12.4713       0.258700         3.5977         2.0391         2.5087         2.0469      2722.6281      2742.4081
     3495.1416       0.006700       182.1228       181.2072       111.2336        12.5086       0.273400         3.5636         2.1317         2.5113         2.1242      2722.7533      2742.5333
     3495.2940       0.008800       181.1848       181.5624       107.7712        12.4713       0.279200         3.5278         2.2355         2.5206         2.1779      2722.8785      2742.6585
