~Version Information Block
VERS .                 2.00:  CWLS LOG ASCII STANDARD - VERSION 2.00
WRAP .                   NO:  One line per depth step
~Well Information Block
#MNEM.UNIT        Data Type   Information
#---------- ----------------  -----------
STRT .M              0.0000:  START DEPTH
STOP .M           2757.2208:  STOP DEPTH
STEP .M              0.1524:  STEP
NULL .              -999.25:  NULL VALUE
COMP .                     :  COMPANY
WELL .               GABO14:  WELL
FLD  .                     :  FIELD
LOC  .   6.639036, 5.241653:  LOCATION
CTRY .                     :  COUNTRY
STAT .                     :  STATE
CNTY .                     :  COUNTY
API  .                     :  API NUMBER
UWI  .                     :  UNIQUE WELL ID
SRVC .                     :  SERVICE COMPANY
DATE .                     :  LOG DATE
~Curve Information Block
#MNEM.UNIT         API CODE   Curve Description
#---------- ----------------  -----------------
DEPTH.M                    :  Reference Depth
BS_COMP.INCHES             :  Bit Size
CALI_COMP.INCHES          0:  Caliper
DRHO_COMP.G/C3            0:  Density Correction 
DT_COMP.US/F              0:  Compressional Sonic
ECART_COMP.                :  Neutron Density Seperation
GR_COMP.GAPI              0:  Gamma Ray
NPHI_COMP.V/V             0:  Neutron Porosity
PEF_COMP.B/E              0:  Photo Electric Factor
RHOB_COMP.G/C3            0:  Bulk Density
RT_COMP.OHMM              0:  True or Deep Resistivity
RXO_COMP.OHMM             0:  Invaded Zone Resistivity
SP_COMP.MV                0:  Spontaneous Potential
TVDSS_COMP.M               :  Reference TVD sub-sea log.
TVD_COMP.M                 :  Reference TVD log.
~Parameter Information Block
#MNEM.UNIT            Value   Description
#---------- ----------------  -----------
SET  .                  LCS:  
~Other Information Block
#        DEPTH        BS_COMP      CALI_COMP      DRHO_COMP        DT_COMP     ECART_COMP        GR_COMP      NPHI_COMP       PEF_COMP      RHOB_COMP        RT_COMP       RXO_COMP        SP_COMP     TVDSS_COMP       TVD_COMP 
~A
# ...
     2408.8344        12.2500        12.4301    -999.250000        94.8747        -1.9411        24.6164       0.239833         1.5209         2.2032         5.4577         5.0298        61.3253      2322.1094      2338.1094
     2408.9868        12.2500        12.4409    -999.250000        94.8129        -1.9017        25.4066       0.239983         1.5258         2.2049         5.3902         4.9869        60.7085      2322.2605      2338.2605
     2409.1392        12.2500        12.4281    -999.250000        94.7994        -2.0863        27.3938       0.236143         1.5385         2.2021         5.2103         4.7246        60.1340      2322.4117      2338.4117
     2409.2916        12.2500        12.4413    -999.250000        95.3476        -2.1053        28.9666       0.235053         1.5612         2.2030         5.0431         4.6363        60.3798      2322.5629      2338.5629
     2409.4440        12.2500        12.5020    -999.250000        96.1755        -1.8895        29.3461       0.240928         1.5844         2.2040         5.0568         4.9420        61.4944      2322.7140      2338.7140
     2409.5964        12.2500        12.5407    -999.250000        96.9874        -1.6285        29.8212       0.249960         1.5948         2.2020         5.0166         5.1691        62.0540      2322.8652      2338.8652
     2409.7488        12.2500        12.4998    -999.250000        97.7824        -1.5143        30.1039       0.260029         1.5880         2.1909         4.9144         5.1810        61.8290      2323.0164      2339.0164
     2409.9012        12.2500        12.4321    -999.250000        98.1087        -1.5904        29.8539       0.268006         1.5761         2.1738         4.9955         5.1852        62.0721      2323.1675      2339.1675
     2410.0536        12.2500        12.4061    -999.250000        98.0474        -1.8256        30.2973       0.269834         1.5814         2.1590         5.1029         5.2281        62.5553      2323.3187      2339.3187
     2410.2060        12.2500        12.4080       0.006985        98.1440        -2.0620        32.2258       0.263699         1.6046         2.1574         5.0750         5.4851        62.6325      2323.4699      2339.4699
     2410.3584        12.2500        12.4060    -999.250000        98.8499        -2.1359        34.7273       0.254852         1.6282         2.1685         5.0752         5.9592        62.5153      2323.6210      2339.6210
     2410.5108        12.2500        12.4000    -999.250000       100.2081        -2.0541        36.6497       0.251231         1.6340         2.1786         5.1158         6.2415        62.3438      2323.7722      2339.7722
     2410.6632        12.2500        12.4020    -999.250000       101.3767        -2.0715        38.6567       0.255369         1.6108         2.1708         5.0628         6.1163        62.2894      2323.9233      2339.9233
     2410.8156        12.2500        12.4060    -999.250000       101.7645        -2.2412        40.6741       0.261490         1.5705         2.1521         5.0174         5.7277        62.3748      2324.0745      2340.0745
     2410.9680        12.2500        12.4060    -999.250000       101.4161        -2.2495        41.1585       0.268138         1.5472         2.1406         5.1186         5.4271        62.3349      2324.2257      2340.2257
     2411.1204        12.2500        12.4061    -999.250000       100.0549        -2.0363        39.8720       0.269348         1.5642         2.1493         5.2493         5.4518        62.0851      2324.3768      2340.3768
     2411.2728        12.2500        12.4303    -999.250000        98.1815        -1.8051        37.3199       0.261004         1.6013         2.1747         5.3261         5.6397        61.8828      2324.5280      2340.5280
     2411.4252        12.2500        12.5335    -999.250000        96.6672        -1.9495        33.5959       0.240315         1.6144         2.2020         5.3548         5.7955        61.8441      2324.6792      2340.6792
     2411.5776        12.2500        12.7362    -999.250000        95.5612        -2.3932        30.5765       0.216055         1.6002         2.2202         5.3176         6.1389        61.8671      2324.8303      2340.8303
     2411.7300        12.2500        12.9528    -999.250000        95.1559        -2.6938        30.2285       0.200669         1.5945         2.2309         5.2315         6.5815        61.8979      2324.9815      2340.9815
     2411.8824        12.2500        13.0878    -999.250000        95.1253        -2.6455        30.5662       0.198283         1.6068         2.2373         5.1237         6.7018        61.8667      2325.1327      2341.1327
     2412.0348        12.2500        13.1639    -999.250000        95.1896        -2.5843        28.7586       0.199696         1.6183         2.2380         5.0581         6.8914        61.7892      2325.2838      2341.2838
     2412.1872        12.2500        13.2187    -999.250000        95.5476        -2.8210        26.1347       0.196912         1.6099         2.2308         5.0822         7.6825        61.8369      2325.4350      2341.4350
     2412.3396        12.2500        13.2047    -999.250000        95.6883        -3.2007        26.5531       0.190360         1.5827         2.2227         5.1269         8.4849        62.0402      2325.5862      2341.5862
     2412.4920        12.2500        13.1310    -999.250000        95.7493        -3.4830        30.7518       0.186840         1.5654         2.2144         5.1016         8.6940        62.3218      2325.7373      2341.7373
     2412.6444        12.2500        13.0720    -999.250000        95.5741        -3.6678        35.7828       0.186742         1.5800         2.2054         5.0075         8.4565        62.7442      2325.8885      2341.8885
     2412.7968        12.2500        13.0310    -999.250000        94.6681        -3.6702        38.0317       0.190954         1.6307         2.1982         4.8867         8.3344        63.2506      2326.0397      2342.0397
     2412.9492        12.2500        13.0001    -999.250000        93.7691        -3.4382        36.3450       0.195384         1.6934         2.2025         4.8193         8.8891        63.3920      2326.1908      2342.1908
     2413.1016        12.2500        12.9921    -999.250000        94.4903        -3.0855        33.1048       0.195713         1.7080         2.2195         4.8806         9.1408        63.6315      2326.3420      2342.3420
     2413.2540        12.2500        13.0212    -999.250000        95.9557        -3.1247        31.2253       0.187696         1.6607         2.2309         5.0145         7.9413        65.1356      2326.4931      2342.4931
     2413.4064        12.2500        13.0881    -999.250000        96.5754        -3.8761        33.6358       0.173291         1.6145         2.2174         5.1273         6.1718        67.5860      2326.6443      2342.6443
     2413.5588        12.2500        13.1580       0.052098        95.9548        -4.4920        42.4174       0.165982         1.6378         2.1988         5.2022         4.9754        70.3756      2326.7955      2342.7955
     2413.7112        12.2500        13.2071       0.113872        92.6555        -3.2987        56.8763       0.180977         1.7707         2.2334         5.2573         4.3696        73.2854      2326.9466      2342.9466
     2413.8636        12.2500        13.2704       0.134780        88.8319         0.1249        73.3874       0.222117         2.0418         2.3360         5.3175         4.5147        75.2364      2327.0978      2343.0978
     2414.0160        12.2500        13.4036       0.100887        86.0396         4.1848        87.1225       0.274080         2.3766         2.4524         5.4257         5.1316        75.7885      2327.2490      2343.2490
     2414.1684        12.2500        13.4252       0.047048        84.3419         6.7702        97.4195       0.309308         2.5911         2.5230         5.5969         5.5057        75.6708      2327.4001      2343.4001
