~Version Information Block
VERS .                 2.00:  CWLS LOG ASCII STANDARD - VERSION 2.00
WRAP .                   NO:  One line per depth step
~Well Information Block
#MNEM.UNIT        Data Type   Information
#---------- ----------------  -----------
STRT .M           1084.4784:  START DEPTH
STOP .M           2540.6604:  STOP DEPTH
STEP .M              0.1524:  STEP
NULL .              -999.25:  NULL VALUE
COMP .                     :  COMPANY
WELL .               GABA17:  WELL
FLD  .                     :  FIELD
LOC  .   6.675366, 5.270403:  LOCATION
CTRY .                     :  COUNTRY
STAT .                     :  STATE
CNTY .                     :  COUNTY
API  .                     :  API NUMBER
UWI  .                     :  UNIQUE WELL ID
SRVC .                     :  SERVICE COMPANY
DATE .                     :  LOG DATE
~Curve Information Block
#MNEM.UNIT         API CODE   Curve Description
#---------- ----------------  -----------------
DEPTH.M                    :  Reference Depth
BS_COMP.INCHES             :  Bit Size
DRHO_COMP.G/C3             :  Density Correction
GR_COMP.GAPI               :  Gamma Ray
LLS_COMP.OHMM             0:  Resistivity
NPHI_COMP.V/V              :  Neutron Porosity
PEF_COMP.B/E               :  Photo Electric Factor
RHOB_COMP.G/C3             :  Bulk Density
RT_COMP.OHMM               :  True Resistivity
RXO_COMP.OHMM              :  Invaded Zone Resistivity
TVDSS_COMP.M               :  Reference TVD sub-sea log.
TVD_COMP.M                 :  Reference TVD log.
~Parameter Information Block
#MNEM.UNIT            Value   Description
#---------- ----------------  -----------
SET  .                  LCS:  
DEPTH_BOTTOM.M         2530:  Downhole depth
DEPTH_TOP.M            1787:  Downhole depth
UNDER_SAMPLING_RATE.      1:  Full sampling rate if equal to 1
~Other Information Block
#        DEPTH        BS_COMP      DRHO_COMP        GR_COMP       LLS_COMP      NPHI_COMP       PEF_COMP      RHOB_COMP        RT_COMP       RXO_COMP     TVDSS_COMP       TVD_COMP 
~A
# ...
     2428.6464         9.8750       0.068085       109.0820         2.8719       0.423360         3.5790         2.4082         2.7036         2.9303      2406.5845      2424.5845
     2428.7988         9.8750       0.055436       114.4540         2.9316       0.396827         3.5951         2.4147         2.7446         3.0101      2406.7367      2424.7367
     2428.9512         9.8750       0.045699       120.3493         3.0597       0.374649         3.6138         2.4166         2.7855         3.0898      2406.8890      2424.8890
     2429.1036         9.8750       0.035297       125.0393         3.2336       0.361145         3.6283         2.4117         2.8340         3.1621      2407.0412      2425.0412
     2429.2560         9.8750       0.025800       127.6964         3.3777       0.354622         3.6363         2.3999         2.8860         3.2307      2407.1934      2425.1934
     2429.4084         9.8750       0.020698       128.3027         3.4087       0.349305         3.6497         2.3839         2.9380         3.2994      2407.3456      2425.3456
     2429.5608         9.8750       0.021452       127.1669         3.2955       0.340547         3.6751         2.3697         2.9004         3.2633      2407.4978      2425.4978
     2429.7132         9.8750       0.026974       124.2639         3.0874       0.327243         3.6924         2.3634         2.7280         3.0694      2407.6500      2425.6500
     2429.8656         9.8750       0.034881       119.3236         2.8659       0.310360         3.6638         2.3701         2.5555         2.8755      2407.8022      2425.8022
     2430.0180         9.8750       0.041786       112.8889         2.6829       0.291977         3.5948         2.3904         2.3951         2.6954      2407.9544      2425.9544
     2430.1704         9.8750       0.043614       106.3508         2.5596       0.276567         3.5391         2.4190         2.3244         2.6176      2408.1066      2426.1066
     2430.3228         9.8750       0.040211       100.7635         2.4880       0.268911         3.5133         2.4450         2.2537         2.5398      2408.2588      2426.2588
     2430.4752         9.8750       0.038539        96.3693         2.4515       0.272454         3.4956         2.4552         2.1831         2.4621      2408.4110      2426.4110
     2430.6276         9.8750       0.045657        93.0207         2.4384       0.285418         3.4389         2.4464         2.1887         2.4660      2408.5632      2426.5632
     2430.7800         9.8750       0.061062        91.2639         2.4456       0.300637         3.3133         2.4275         2.2092         2.4857      2408.7154      2426.7154
     2430.9324         9.8750       0.076092        91.7533         2.4818       0.311870         3.1936         2.4105         2.2297         2.5055      2408.8676      2426.8676
     2431.0848         9.8750       0.081964        94.0865         2.5550       0.316845         3.1544         2.4032         2.2539         2.5386      2409.0198      2427.0198
     2431.2372         9.8750       0.079515        96.9191         2.6473       0.318105         3.1685         2.4039         2.2810         2.5823      2409.1720      2427.1720
     2431.3896         9.8750       0.075689        98.8335         2.7012       0.320728         3.1925         2.4056         2.3082         2.6259      2409.3243      2427.3243
     2431.5420         9.8750       0.074197        99.3527         2.6410       0.327642         3.2159         2.4031         2.2764         2.5973      2409.4765      2427.4765
     2431.6944         9.8750       0.074331        98.5022         2.4460       0.337416         3.2427         2.3959         2.0898         2.3784      2409.6287      2427.6287
     2431.8468         9.8750       0.074074        96.3894         2.1846       0.346121         3.2732         2.3887         1.9032         2.1596      2409.7809      2427.7809
     2431.9992         9.8750       0.072395        93.7006         1.9406       0.352716         3.3135         2.3886         1.7166         1.9408      2409.9331      2427.9331
     2432.1516         9.8750       0.069976        91.8564         1.7584       0.361980         3.4096         2.4000         1.6014         1.8125      2410.0853      2428.0853
     2432.3040         9.8750       0.068444        92.1315         1.6346       0.379487         3.5890         2.4212         1.4865         1.6848      2410.2375      2428.2375
     2432.4564         9.8750       0.070191        94.8440         1.5421       0.405645         3.8004         2.4437         1.3716         1.5570      2410.3897      2428.3897
     2432.6088         9.8750       0.076366        98.8799         1.4663       0.434946         3.9722         2.4588         1.3272         1.4941      2410.5419      2428.5419
     2432.7612         9.8750       0.084194       101.8531         1.4077       0.458518         4.0470         2.4608         1.3109         1.4573      2410.6941      2428.6941
     2432.9136         9.8750       0.088714       102.4903         1.3832       0.471915         4.0262         2.4499         1.2947         1.4204      2410.8463      2428.8463
     2433.0660         9.8750       0.086936       101.4274         1.4121       0.477948         3.9689         2.4322         1.3642         1.4759      2410.9985      2428.9985
     2433.2184         9.8750       0.080194        99.6247         1.5145       0.481514         3.9040         2.4140         1.5460         1.6521      2411.1507      2429.1507
     2433.3708         9.8750       0.073560        97.5351         1.7103       0.486629         3.8432         2.4003         1.7278         1.8284      2411.3029      2429.3029
     2433.5232         9.8750       0.071218        95.0905         2.0258       0.492911         3.7860         2.3927         1.9567         2.0551      2411.4551      2429.4551
     2433.6756         9.8750       0.073464        92.8853         2.4791       0.496905         3.7316         2.3916         2.4481         2.5629      2411.6074      2429.6074
     2433.8280         9.8750       0.075699        91.8202         3.0380       0.493944         3.6839         2.3986         2.9395         3.0708      2411.7596      2429.7596
     2433.9804         9.8750       0.072761        92.1126         3.5979       0.479995         3.6516         2.4150         3.4309         3.5786      2411.9118      2429.9118
     2434.1328         9.8750       0.064512        93.3172         3.9558       0.453957         3.6810         2.4403         3.4996         3.6576      2412.0640      2430.0640
     2434.2852         9.8750       0.054420        94.7265         3.9731       0.418625         3.8346         2.4708         3.5059         3.6733      2412.2162      2430.2162
     2434.4376         9.8750       0.045190        95.5113         3.7763       0.379999         4.0982         2.5018         3.5121         3.6890      2412.3684      2430.3684
     2434.5900         9.8750       0.036547        95.4108         3.5788       0.343919         4.3900         2.5291         3.5369         3.7603      2412.5206      2430.5206
     2434.7424         9.8750       0.027777        95.3496         3.5598       0.315391         4.6054         2.5497         3.5746         3.8700      2412.6728      2430.6728
     2434.8948         9.8750       0.021783        96.3772         3.7803       0.298002         4.6868         2.5608         3.6123         3.9797      2412.8250      2430.8250
     2435.0472         9.8750       0.020748        98.3894         4.1790       0.291378         4.6733         2.5622         3.6611         4.0667      2412.9772      2430.9772
     2435.1996         9.8750       0.024614       100.1410         4.5479       0.294592         4.5927         2.5535         3.7348         4.1031      2413.1294      2431.1294
     2435.3520         9.8750       0.031657       100.3029         4.5736       0.301393         4.4582         2.5402         3.8085         4.1394      2413.2817      2431.2817
