~Version Section
VERS.   2.0:  CWLS Log ASCII Standard - Version 2.0
WRAP.    NO:  One data record per depth sample.
~Well Information Section
#MNEM.UNIT      VALUE                    DESCRIPTION
#---------      ----------               -----------
STRT.M                   0               :START DEPTH
STOP.M          3180.43555               :STOP DEPTH
STEP.M               .1524               :STEP
NULL.          -999.250000               :NULL VALUE
COMP.                                    :Oil Company
WELL.         GABO-21                    :Non unique well name
FLD.              FNG00147               :Field name
LOC.  6.610748, 5.225944                 :Location
PROV.                                    :Province
SRVC.                                    :Service
DATE.           2013-08-16               :Date unloaded
UWI.          			               :Unique well id
~Curve Information Section
#MNEM.UNIT                   API CODE                 Curve Description
#---------                   ----------               -----------------
BOREHOLE-DEPTH.M                                   :DEPTH
GR.GAPI                                   :
RT.OHMM                                   :
RXO.OHMM                                   :
TVD.M                                   :
TVDSS.M                                   :
~A
# ...
2020.8240    90.8338      12.5099      12.0140      2001.2369    1981.9169    
2020.9764    97.9673      11.9814      10.8771      2001.3702    1982.0503    
2021.1288    107.8020     9.8874       8.6898       2001.5035    1982.1836    
2021.2812    100.1492     9.8874       8.6898       2001.6370    1982.3170    
2021.4336    77.6140      10.0875      8.9829       2001.7703    1982.4503    
2021.5861    58.7321      10.4810      9.2257       2001.9036    1982.5836    
2021.7384    46.8108      10.9383      10.7738      2002.0370    1982.7170    
2021.8909    41.7632      11.0816      11.1161      2002.1703    1982.8503    
2022.0432    38.3700      11.7191      11.3032      2002.3036    1982.9836    
2022.1957    41.8503      12.1733      11.1118      2002.4369    1983.1169    
2022.3480    45.2440      11.9830      11.5198      2002.5702    1983.2502    
2022.5004    46.9840      11.9831      11.5198      2002.7032    1983.3832    
2022.6528    46.9840      12.3463      11.7404      2002.8368    1983.5168    
2022.8052    46.8977      12.3463      11.7403      2002.9701    1983.6501    
2022.9576    46.8114      12.3652      11.6982      2003.1034    1983.7834    
2023.1100    47.0703      12.4772      11.8541      2003.2366    1983.9166    
2023.2625    47.4162      12.4771      11.8541      2003.3699    1984.0499    
2023.4148    52.8094      11.7583      11.5764      2003.5031    1984.1831    
2023.5673    59.4245      11.8728      11.9133      2003.6364    1984.3164    
2023.7196    64.3854      11.7177      10.6276      2003.7697    1984.4496    
2023.8721    64.2125      12.2233      11.5834      2003.9028    1984.5828    
2024.0244    60.9052      12.2232      11.5834      2004.0361    1984.7161    
2024.1769    60.8186      11.8592      12.0875      2004.1693    1984.8492    
2024.3292    58.9061      11.9940      10.9965      2004.3025    1984.9825    
2024.4816    58.5599      12.3583      11.1965      2004.4357    1985.1157    
2024.6340    50.0322      12.3385      12.1477      2004.5688    1985.2489    
2024.7864    44.9841      12.6420      11.6824      2004.7021    1985.3821    
2024.9388    38.2832      11.8520      11.5183      2004.8352    1985.5153    
2025.0912    38.1971      12.0908      10.8510      2004.9684    1985.6484    
2025.2437    40.0238      10.9583      10.2675      2005.1016    1985.7816    
2025.3960    43.5906      11.4736      10.5267      2005.2347    1985.9147    
2025.5485    48.8107      11.9809      11.5375      2005.3679    1986.0479    
2025.7008    50.5510      11.8573      11.2687      2005.5010    1986.1810    
2025.8533    54.0311      11.7068      11.3670      2005.6342    1986.3142    
2026.0056    55.8578      12.2511      11.8826      2005.7673    1986.4473    
2026.1581    59.4239      12.0306      10.8157      2005.9004    1986.5804    
2026.3104    59.3376      12.4862      10.3603      2006.0334    1986.7135    
2026.4628    59.1648      11.8341      12.0040      2006.1667    1986.8467    
2026.6152    57.2523      11.8340      12.0038      2006.2998    1986.9799    
2026.7676    57.2523      11.5272      10.3813      2006.4327    1987.1128    
2026.9200    57.3384      11.2989      10.1805      2006.5659    1987.2458    
2027.0724    55.6845      10.9661      10.5269      2006.6990    1987.3790    
2027.2249    53.9444      10.3794      9.8558       2006.8322    1987.5121    
2027.3772    52.1177      10.2327      9.3763       2006.9652    1987.6451    
2027.5297    48.6374      10.1112      9.6275       2007.0981    1987.7782    
2027.6820    45.1571      10.5712      9.9109       2007.2313    1987.9113    
2027.8345    41.8501      10.6871      9.1237       2007.3643    1988.0443    
2027.9868    43.5902      10.6487      10.0505      2007.4974    1988.1774    
2028.1393    45.4169      9.7212       9.0564       2007.6304    1988.3104    
2028.2916    48.8106      9.8233       9.1844       2007.7634    1988.4434    
2028.4440    50.4645      9.7129       9.4423       2007.8964    1988.5764    
2028.5964    52.0316      9.6036       9.0906       2008.0295    1988.7095    
2028.7488    50.2050      9.5976       9.0793       2008.1625    1988.8425    
2028.9012    46.8110      10.3950      9.4462       2008.2955    1988.9755    
2029.0536    43.4172      10.6232      10.9913      2008.4285    1989.1085    
2029.2061    41.6770      11.1636      10.5626      2008.5615    1989.2415    
2029.3584    39.9369      11.1636      10.5626      2008.6946    1989.3746    
2029.5109    38.1106      11.2341      11.2842      2008.8276    1989.5076    
2029.6632    38.1975      11.0043      11.8625      2008.9606    1989.6406    
2029.8157    43.3315      11.7776      11.5169      2009.0936    1989.7736    
2029.9680    46.8116      11.4954      11.6488      2009.2266    1989.9066    
2030.1205    48.6376      11.6500      11.6531      2009.3596    1990.0396    
2030.2728    46.9840      11.5337      10.8314      2009.4926    1990.1726    
2030.4252    46.8107      11.0906      10.0648      2009.6256    1990.3055    
2030.5776    41.4177      11.0907      10.0647      2009.7585    1990.4386    
2030.7300    36.2840      11.7428      10.1353      2009.8916    1990.5717    
2030.8824    34.8035      11.8695      10.9282      2010.0247    1990.7046    
2031.0348    39.9373      10.9732      10.4599      2010.1576    1990.8376    
2031.1873    41.5042      10.8359      9.8282       2010.2906    1990.9706    
2031.3396    38.0233      10.2740      9.1664       2010.4235    1991.1035    
2031.4921    29.4956      11.3799      11.4106      2010.5565    1991.2365    
2031.6444    24.3621      11.6013      12.0328      2010.6895    1991.3695    
2031.7969    24.4488      11.5177      10.1734      2010.8225    1991.5024    
2031.9492    28.0156      11.7275      11.6214      2010.9554    1991.6355    
2032.1017    33.2356      11.2236      10.7141      2011.0884    1991.7684    
2032.2540    34.8897      10.4664      9.6163       2011.2214    1991.9014    
2032.4064    38.3700      9.9122       10.1880      2011.3544    1992.0344    
2032.5588    41.9367      8.3307       8.2885       2011.4873    1992.1674    
2032.7112    46.9838      8.1427       7.7535       2011.6202    1992.3003    
2032.8636    45.2436      8.2266       7.6089       2011.7533    1992.4333    
2033.0160    43.5902      7.7463       7.0874       2011.8862    1992.5662    
2033.1685    45.5032      7.2855       7.0931       2012.0192    1992.6992    
2033.3208    48.8969      6.0738       6.0151       2012.1521    1992.8322    
2033.4733    50.2912      6.3047       5.8833       2012.2852    1992.9651    
2033.6256    46.6383      7.2491       6.3725       2012.4180    1993.0980    
2033.7781    42.9850      8.3286       7.5416       2012.5510    1993.2310    
2033.9304    36.1971      10.0490      8.9951       2012.6840    1993.3639    
2034.0829    29.4960      10.0490      8.9955       2012.8169    1993.4969    
2034.2352    27.9289      10.0559      12.1343      2012.9498    1993.6298    
2034.3876    29.6690      10.5164      11.4832      2013.0828    1993.7628    
2034.5400    31.2363      10.8440      10.5804      2013.2157    1993.8958    
2034.6924    31.3228      11.0779      10.9925      2013.3486    1994.0286    
2034.8448    32.9765      12.3214      11.5621      2013.4816    1994.1616    
2034.9972    33.0628      12.1753      12.3764      2013.6145    1994.2946    
2035.1497    32.9763      12.6947      12.6313      2013.7474    1994.4274    
2035.3020    31.3227      12.8047      12.4048      2013.8802    1994.5603    
2035.4545    31.3227      13.9618      13.4998      2014.0133    1994.6934    
2035.6068    31.4092      13.8493      13.5679      2014.1462    1994.8262    
2035.7593    33.1495      13.6758      12.8181      2014.2791    1994.9591    
2035.9116    36.7163      14.7052      12.8994      2014.4120    1995.0920    
2036.0640    42.1098      15.2958      13.7730      2014.5449    1995.2249    
2036.2164    50.9834      15.9875      15.5430      2014.6779    1995.3578    
