~Version Information Block
VERS .                 2.00:  CWLS LOG ASCII STANDARD - VERSION 2.00
WRAP .                   NO:  One line per depth step
~Well Information Block
#MNEM.UNIT        Data Type   Information
#---------- ----------------  -----------
STRT .M           1550.0604:  START DEPTH
STOP .M           3909.9744:  STOP DEPTH
STEP .M              0.1524:  STEP
NULL .              -999.25:  NULL VALUE
COMP .                     :  COMPANY
WELL .               GABO52:  WELL
FLD  .                     :  FIELD
LOC  .   6.643655, 5.227736:  LOCATION
CTRY .                     :  COUNTRY
STAT .                     :  STATE
CNTY .                     :  COUNTY
API  .                     :  API NUMBER
UWI  .                     :  UNIQUE WELL ID
SRVC .                     :  SERVICE COMPANY
DATE .                     :  LOG DATE
~Curve Information Block
#MNEM.UNIT         API CODE   Curve Description
#---------- ----------------  -----------------
DEPTH.M                    :  Depth
DRHO .G/C3                 :  Density Correction Log
DTS_COMP.US/F              :  Shear Sonic 
DT_COMP.US/F               :  Compressional Sonic
GR_COMP.GAPI               :  Gamma Ray
HCAL .INCHES               :  Caliper
NPHI_COMP.V/V              :  Neutron Porosity
PEF_COMP.B/E               :  Photo Electric Factor
RDEEP_COMP.OHMM            :  Deep Resistivity
RHOB_COMP.G/C3             :  Bulk Density
RSHAL_COMP.OHMM            :  Shallow Resistivity
TVD  .M                    :  Reference TVD
TVDSS.M                    :  Reference TVDss
~Parameter Information Block
#MNEM.UNIT            Value   Description
#---------- ----------------  -----------
SET  .                  LCS:  
~Other Information Block
#        DEPTH           DRHO       DTS_COMP        DT_COMP        GR_COMP           HCAL      NPHI_COMP       PEF_COMP     RDEEP_COMP      RHOB_COMP     RSHAL_COMP            TVD          TVDSS 
~A
# ...
     2981.5536       0.031655       182.5361        93.8133       140.4160         8.7931       0.372011         3.5001         3.0237         2.4461         3.0913      2673.8181      2653.6980
     2981.7060       0.046983       186.9521        93.9391       143.1254         8.8379       0.375643         3.5573         2.9807         2.4439         3.0432      2673.9319      2653.8118
     2981.8584       0.059150       188.4386        93.5718       143.3677         8.9053       0.397839         3.6050         2.9193         2.4430         2.9787      2674.0454      2653.9253
     2982.0108       0.080570       184.9016        94.1807       139.0169         8.8828       0.398233         3.6377         2.8785         2.4596         2.9251      2674.1592      2654.0391
     2982.1632       0.090456       183.8507        94.0489       132.1270         8.8604       0.389489         3.6364         2.8334         2.4567         2.9129      2674.2729      2654.1528
     2982.3156       0.098661       182.4552        93.5797       129.4032         8.8941       0.406437         3.6176         2.8129         2.4576         2.9179      2674.3867      2654.2666
     2982.4680       0.098084       181.8683        93.2741       130.6724         8.9838       0.435895         3.5792         2.7538         2.4652         2.8601      2674.5005      2654.3804
     2982.6204       0.090081       182.9367        93.6149       130.3784         9.1410       0.473636         3.5345         2.6770         2.4561         2.7826      2674.6143      2654.4941
     2982.7728       0.088405       186.6540        94.9073       130.2370         9.1746       0.481828         3.4949         2.6326         2.4424         2.7555      2674.7280      2654.6079
     2982.9252       0.092687       190.6915        95.9277       131.8168         9.2420       0.487355         3.4592         2.6344         2.4345         2.7414      2674.8418      2654.7217
     2983.0776       0.088394       191.4579        96.2029       130.5765         9.2420       0.483127         3.4249         2.6281         2.4375         2.7380      2674.9556      2654.8354
     2983.2300       0.075947       189.6559        96.0791       131.6087         9.1297       0.462554         3.4182         2.6045         2.4583         2.7115      2675.0693      2654.9492
     2983.3824       0.061082       189.5938        95.3534       129.8539         9.1185       0.436076         3.4495         2.5891         2.4640         2.6720      2675.1831      2655.0630
     2983.5348       0.064158       189.3787        94.9059       129.5964         9.1185       0.425433         3.4991         2.5997         2.4797         2.6887      2675.2966      2655.1765
     2983.6872       0.068714       186.9420        94.2044       130.3138         9.1410       0.404522         3.5282         2.6252         2.4646         2.7235      2675.4104      2655.2903
     2983.8396       0.084425       186.5900        93.4042       129.8908         9.1746       0.411410         3.5635         2.5919         2.4670         2.7208      2675.5242      2655.4041
     2983.9920       0.096611       188.7795        94.1484       130.7475         9.2644       0.401097         3.6299         2.5572         2.4527         2.7051      2675.6382      2655.5181
     2984.1444       0.110975       187.2256        94.5110       128.6208         9.1746       0.433154         3.7213         2.5490         2.4572         2.6965      2675.7517      2655.6316
     2984.2968       0.109461       182.7735        94.0099       131.3990         9.2644       0.409429         3.7672         2.5132         2.4621         2.7216      2675.8655      2655.7454
     2984.4492       0.101706       184.1937        93.8008       134.2682         9.2307       0.400602         3.7424         2.4757         2.4728         2.7273      2675.9792      2655.8591
     2984.6016       0.090132       188.7799        94.8986       136.4700         9.2644       0.396119         3.6607         2.4597         2.4689         2.7420      2676.0930      2655.9729
     2984.7540       0.084207       193.3267        95.2662       140.1000         9.3093       0.405246         3.5659         2.5057         2.4482         2.8087      2676.2068      2656.0867
     2984.9064       0.078447       191.1631        95.2155       139.1281         9.3991       0.423049         3.4762         2.5701         2.4422         2.8901      2676.3206      2656.2004
     2985.0588       0.069342       188.8134        93.5796       135.7847         9.1971       0.432611         3.3828         2.5949         2.4596         2.9281      2676.4343      2656.3142
     2985.2112       0.043561       186.1072        91.1941       133.1586         9.5337       0.456029         3.2826         2.6869         2.4651         3.0197      2676.5481      2656.4280
     2985.3636       0.037516       185.7434        89.4275       135.7091         8.9389       0.398614         3.2201         2.7627         2.4724         3.1807      2676.6619      2656.5417
     2985.5160       0.045311       178.0725        88.1408       136.2877         9.2195       0.328652         3.2231         2.9309         2.4364         3.4174      2676.7756      2656.6555
     2985.6684       0.079857       174.9461        90.5694       131.7019         9.0512       0.259920         3.3181         2.9090         2.4033         3.5114      2676.8894      2656.7693
     2985.8208       0.090662       178.8147        92.1765       127.8017         9.3654       0.327590         3.4312         2.8064         2.3684         3.1732      2677.0029      2656.8828
     2985.9732       0.085351       189.8678        93.3715       126.0331         9.3542       0.371137         3.5614         2.6839         2.3819         2.8920      2677.1167      2656.9966
     2986.1256       0.073508       194.9111        94.8172       129.5272         9.3991       0.422373         3.6744         2.5612         2.4110         2.7293      2677.2305      2657.1104
     2986.2780       0.082328       195.9723        94.4014       128.7492         9.3317       0.403655         3.7822         2.4808         2.4445         2.6463      2677.3442      2657.2241
     2986.4304       0.099838       194.5532        94.2124       127.7470         9.4215       0.441186         3.8318         2.4241         2.4565         2.5929      2677.4580      2657.3379
     2986.5828       0.114645       197.8661        94.7256       127.7629         9.2307       0.472269         3.8354         2.3280         2.4580         2.5476      2677.5718      2657.4517
     2986.7352       0.115944       198.9590        94.1040       129.2827         9.3205       0.492610         3.8106         2.3453         2.4214         2.5724      2677.6855      2657.5654
     2986.8876       0.127774       196.7197        94.0820       129.3173         9.2420       0.470978         3.7844         2.3664         2.4310         2.6189      2677.7993      2657.6792
     2987.0400       0.124346       196.7944        94.6269       125.7145         9.2868       0.408415         3.7543         2.3805         2.4348         2.6226      2677.9128      2657.7927
     2987.1924       0.115977       198.5340        95.5316       123.9100         9.1522       0.416686         3.7438         2.3450         2.4395         2.5952      2678.0266      2657.9065
     2987.3448       0.100563       198.9742        94.9693       124.6890         9.4664       0.417809         3.7601         2.3877         2.4261         2.6049      2678.1404      2658.0203
     2987.4972       0.092690       197.7825        95.3772       128.9773         9.3317       0.425255         3.7849         2.4267         2.4243         2.6149      2678.2542      2658.1340
     2987.6496       0.089083       197.1781        96.1848       132.9277         9.5337       0.362524         3.8032         2.3278         2.4369         2.5261      2678.3679      2658.2478
     2987.8020       0.087153       197.7999        96.6134       130.8026         9.4103       0.368715         3.8172         2.2678         2.4347         2.5024      2678.4819      2658.3618
