~Version Section
VERS.   2.0:  CWLS Log ASCII Standard - Version 2.0
WRAP.    NO:  One data record per depth sample.
~Well Information Section
#MNEM.UNIT      VALUE                    DESCRIPTION
#---------      ----------               -----------
STRT.M                   0               :START DEPTH
STOP.M          3180.43555               :STOP DEPTH
STEP.M               .1524               :STEP
NULL.          -999.250000               :NULL VALUE
COMP.                                    :Oil Company
WELL.         GABO-21                    :Non unique well name
FLD.              FNG00147               :Field name
LOC.  6.610748, 5.225944                 :Location
PROV.                                    :Province
SRVC.                                    :Service
DATE.           2013-08-16               :Date unloaded
UWI.          			               :Unique well id
~Curve Information Section
#MNEM.UNIT                   API CODE                 Curve Description
#---------                   ----------               -----------------
BOREHOLE-DEPTH.M                                   :DEPTH
GR.GAPI                                   :
RT.OHMM                                   :
RXO.OHMM                                   :
TVD.M                                   :
TVDSS.M                                   :
~A
# ...
1896.4656    27.6682      30.7463      27.9631      1888.7615    1869.4415    
1896.6180    24.3608      30.9839      27.4941      1888.9042    1869.5842    
1896.7704    24.2743      30.2192      31.3032      1889.0468    1869.7268    
1896.9229    22.7084      29.6728      30.7050      1889.1895    1869.8694    
1897.0752    24.3621      30.4160      29.6215      1889.3320    1870.0120    
1897.2277    24.3608      29.6526      29.5104      1889.4745    1870.1545    
1897.3800    24.3608      29.6309      26.1085      1889.6171    1870.2971    
1897.5325    24.3608      29.1777      25.2993      1889.7596    1870.4396    
1897.6848    24.4485      29.1779      25.2998      1889.9021    1870.5822    
1897.8373    26.1022      31.2041      30.4812      1890.0446    1870.7246    
1897.9896    26.1022      30.9026      28.4785      1890.1873    1870.8672    
1898.1420    26.1022      30.7775      28.1518      1890.3296    1871.0096    
1898.2944    26.0158      30.5525      24.6747      1890.4720    1871.1521    
1898.4468    24.3622      28.4502      24.4378      1890.6146    1871.2946    
1898.5992    24.4485      27.8452      27.8500      1890.7570    1871.4370    
1898.7516    24.5349      27.9938      24.6318      1890.8994    1871.5793    
1898.9041    26.2751      25.5977      23.0286      1891.0417    1871.7218    
1899.0564    27.9289      24.8814      25.7876      1891.1842    1871.8643    
1899.2089    29.7555      23.1399      19.6083      1891.3267    1872.0066    
1899.3612    33.1493      20.7355      22.6812      1891.4689    1872.1489    
1899.5137    35.0650      20.4141      20.1582      1891.6113    1872.2913    
1899.6660    40.3722      18.5165      16.3283      1891.7535    1872.4336    
1899.8185    50.8129      12.5433      10.7276      1891.8959    1872.5759    
1899.9708    59.2502      12.1565      10.5951      1892.0383    1872.7183    
1900.1232    60.7306      14.5134      11.1847      1892.1805    1872.8605    
1900.2756    53.6837      15.7123      11.9748      1892.3228    1873.0028    
1900.4280    46.7232      16.8560      14.3039      1892.4651    1873.1451    
1900.5804    41.5027      18.3011      17.9004      1892.6073    1873.2874    
1900.7328    34.6286      22.4036      21.2731      1892.7495    1873.4294    
1900.8853    29.4961      24.1753      26.2940      1892.8918    1873.5718    
1901.0376    27.8424      24.1631      26.9305      1893.0341    1873.7140    
1901.1901    27.8424      25.2030      25.7123      1893.1761    1873.8561    
1901.3424    27.8424      27.3250      26.0819      1893.3184    1873.9983    
1901.4949    27.9288      26.8058      25.2152      1893.4604    1874.1405    
1901.6472    29.6690      28.6291      25.2686      1893.6025    1874.2826    
1901.7997    31.4090      29.2675      23.0310      1893.7448    1874.4247    
1901.9520    31.3227      30.2343      26.4988      1893.8868    1874.5669    
1902.1044    31.3227      30.2198      31.8216      1894.0289    1874.7089    
1902.2568    31.4091      28.5291      25.1016      1894.1710    1874.8510    
1902.4092    33.1491      29.5538      29.4352      1894.3131    1874.9930    
1902.5616    33.1491      29.5463      26.0514      1894.4551    1875.1351    
1902.7140    33.0628      29.4328      25.4268      1894.5972    1875.2772    
1902.8665    33.0630      31.2831      26.4772      1894.7393    1875.4192    
1903.0188    34.7167      30.6867      26.5924      1894.8812    1875.5612    
1903.1713    34.7167      32.8517      26.8295      1895.0232    1875.7032    
1903.3236    34.6304      32.9165      23.2183      1895.1652    1875.8452    
1903.4761    34.7168      32.0437      27.5575      1895.3071    1875.9871    
1903.6284    36.3704      32.0682      26.8207      1895.4491    1876.1292    
1903.7809    34.7165      30.4781      26.8311      1895.5909    1876.2710    
1903.9332    32.9764      30.7598      24.0458      1895.7329    1876.4128    
1904.0856    31.3227      30.5298      22.7144      1895.8748    1876.5548    
1904.2380    31.3227      30.8102      25.9958      1896.0167    1876.6967    
1904.3904    31.4091      31.3316      23.6324      1896.1586    1876.8386    
1904.5428    31.4955      28.8529      29.5166      1896.3004    1876.9803    
1904.6952    33.2355      26.9315      26.0514      1896.4423    1877.1223    
1904.8477    33.1491      27.1777      23.7592      1896.5841    1877.2642    
1905.0000    33.0627      27.8087      22.0975      1896.7260    1877.4059    
1905.1525    31.3228      25.1762      19.8399      1896.8677    1877.5477    
1905.3048    33.0628      25.6655      24.9774      1897.0095    1877.6895    
1905.4573    32.9764      25.5563      31.0614      1897.1512    1877.8312    
1905.6096    31.3225      28.2360      21.7573      1897.2930    1877.9730    
1905.7620    29.4960      27.9079      22.5954      1897.4347    1878.1147    
1905.9144    27.8423      27.6382      22.4327      1897.5764    1878.2563    
1906.0668    27.7559      26.7072      24.3842      1897.7181    1878.3981    
1906.2192    26.1024      28.8365      25.8950      1897.8597    1878.5398    
1906.3716    27.8425      28.7317      25.7604      1898.0015    1878.6815    
1906.5240    29.5827      30.0647      21.9881      1898.1431    1878.8231    
1906.6764    31.4091      28.7734      27.4901      1898.2848    1878.9648    
1906.8289    31.4091      28.3584      24.9758      1898.4264    1879.1064    
1906.9812    31.4091      27.6404      24.1688      1898.5680    1879.2480    
1907.1337    31.4103      26.7993      22.2975      1898.7096    1879.3896    
1907.2860    31.4105      27.6236      25.7525      1898.8512    1879.5312    
1907.4385    33.1506      27.7702      21.5432      1898.9928    1879.6729    
1907.5908    34.7167      26.5096      24.0857      1899.1343    1879.8143    
1907.7432    34.7165      27.1653      23.6917      1899.2758    1879.9558    
1907.8956    33.0640      26.1084      23.8345      1899.4174    1880.0973    
1908.0480    31.4103      26.6825      23.0336      1899.5590    1880.2389    
1908.2004    31.4102      26.8087      24.2251      1899.7003    1880.3802    
1908.3528    29.6688      26.3108      27.3505      1899.8418    1880.5219    
1908.5052    29.6688      26.4212      28.0462      1899.9833    1880.6633    
1908.6576    29.6688      28.1280      22.3191      1900.1248    1880.8047    
1908.8101    29.5824      27.9695      22.7814      1900.2661    1880.9460    
1908.9624    27.9286      27.2785      23.2634      1900.4075    1881.0875    
1909.1149    26.1888      25.5968      23.1578      1900.5490    1881.2289    
1909.2672    27.9288      27.4225      26.0348      1900.6903    1881.3702    
1909.4197    27.8424      28.4857      26.4951      1900.8317    1881.5117    
1909.5720    27.8422      29.5236      24.2715      1900.9730    1881.6530    
1909.7244    26.1025      30.6406      25.9208      1901.1143    1881.7943    
1909.8768    29.5828      31.3898      32.3293      1901.2557    1881.9357    
1910.0292    33.0631      34.1162      31.5914      1901.3970    1882.0770    
1910.1816    36.4567      32.6592      28.3212      1901.5382    1882.2181    
1910.3340    34.7165      35.2442      34.1743      1901.6794    1882.3595    
1910.4865    32.9764      39.4723      35.7976      1901.8208    1882.5009    
1910.6388    31.3227      39.4111      34.5253      1901.9620    1882.6420    
1910.7913    31.3227      36.7101      39.7757      1902.1031    1882.7832    
1910.9436    31.2350      39.4757      31.5099      1902.2445    1882.9246    
1911.0961    31.2350      40.6003      40.3040      1902.3856    1883.0656    
1911.2484    31.2351      40.2108      41.9041      1902.5269    1883.2068    
1911.4009    31.3227      39.8809      32.5487      1902.6680    1883.3480    
1911.5532    31.3227      37.3758      35.0965      1902.8091    1883.4891    
1911.7056    31.3227      38.3353      30.9737      1902.9502    1883.6302    
1911.8580    31.2362      34.9581      30.6363      1903.0914    1883.7714    
