~Version Information Block
VERS .                 2.00:  CWLS LOG ASCII STANDARD - VERSION 2.00
WRAP .                   NO:  One line per depth step
~Well Information Block
#MNEM.UNIT        Data Type   Information
#---------- ----------------  -----------
STRT .M              0.0000:  START DEPTH
STOP .M           2950.4637:  STOP DEPTH
STEP .M              0.1524:  STEP
NULL .              -999.25:  NULL VALUE
COMP .                     :  COMPANY
WELL .               GABO15:  WELL
FLD  .                     :  FIELD
LOC  .   6.656416, 5.257802:  LOCATION
CTRY .                     :  COUNTRY
STAT .                     :  STATE
CNTY .                     :  COUNTY
API  .                     :  API NUMBER
UWI  .                     :  UNIQUE WELL ID
SRVC .                     :  SERVICE COMPANY
DATE .                     :  LOG DATE
~Curve Information Block
#MNEM.UNIT         API CODE   Curve Description
#---------- ----------------  -----------------
DEPTH.M                    :  Reference Depth.
BS_COMP.INCHES             :  Bit Size
CALI_COMP.INCHES          0:  Caliper
DRHO_COMP.G/C3            0:  Density Correction
DT_COMP.US/F              0:  Compressional Sonic
ECART_COMP.                :  Neutron Density Seperation
GR_COMP.GAPI               :  Gamma Ray
NPHI_COMP.V/V             0:  Neutron Porosity
PEF_COMP.B/E              0:  Photo Electric Factor
RHOB_COMP.G/C3            0:  Bulk Density
RT_COMP.OHMM              0:  True or Deep Resistivity
RXO_COMP.OHMM             0:  Invaded Zone Resistivity
SP_COMP.MV                 :  Values changed using TEXT_EDIT
TVDSS_COMP.M               :  Reference TVD sub-sea log.
TVD_COMP.M                 :  Reference TVD log.
~Parameter Information Block
#MNEM.UNIT            Value   Description
#---------- ----------------  -----------
SET  .                  LCS:  
MFST .DEGF               80:  Mud filtrate sample temperature
RMFS .OHMM              1.9:  Resistivity of Filtrate sample
SP_SH.MV                  0:  Shale baseline value for SP
~Other Information Block
COMMENT:
$$MUX      Data from LAS tape
$$MUX      fevsbd 09/10/97 ng95603  ASCII:      GABO15.fod
$$MUX
$$MUX
#        DEPTH        BS_COMP      CALI_COMP      DRHO_COMP        DT_COMP     ECART_COMP        GR_COMP      NPHI_COMP       PEF_COMP      RHOB_COMP        RT_COMP       RXO_COMP        SP_COMP     TVDSS_COMP       TVD_COMP 
~A
# ...
     2554.0714         9.8750        10.6497       0.112856        99.3736         6.2397        90.8165       0.297079         3.0388         2.5169         7.4116         5.0003       -79.9490      2350.8433      2370.8433
     2554.2238         9.8750        10.5368       0.054911       100.1552         6.1251        98.6989       0.329054         2.9598         2.4578         7.2847         6.2975       -82.3445      2350.9787      2370.9787
     2554.3762         9.8750        10.4630       0.018985       100.9682         5.4998       103.1005       0.351057         2.8859         2.3899         6.8917         5.5697       -83.8833      2351.1142      2371.1142
     2554.5286         9.8750        10.4820       0.013005       101.4995         5.4067       105.7307       0.374022         2.8629         2.3470         6.3053         6.4378       -85.6151      2351.2496      2371.2496
     2554.6810         9.8750        10.4706       0.014993       101.8127         5.4249       104.3848       0.382958         2.8174         2.3330         5.9477         4.5362       -86.2517      2351.3851      2371.3851
     2554.8334         9.8750        10.3196       0.011983       101.7191         4.6965        95.8202       0.365928         2.5942         2.3249         5.6729         4.1847       -87.9792      2351.5206      2371.5206
     2554.9858         9.8750        10.1617    -999.250000       100.8449         3.2692        80.1116       0.336933         2.2533         2.3019         5.9070         3.7491       -88.8554      2351.6560      2371.6560
     2555.1382         9.8750        10.0608    -999.250000       100.0638         1.6093        62.1674       0.309928         1.9557         2.2639         6.5377         5.0403       -88.6615      2351.7915      2371.7915
     2555.2906         9.8750         9.9960    -999.250000        99.7813        -0.0166        47.7927       0.280923         1.8170         2.2310         7.0889         3.7275       -88.4440      2351.9270      2371.9270
     2555.4430         9.8750        10.0021    -999.250000        99.4064        -1.3486        39.6001       0.249943         1.8131         2.2160         7.6716         6.0507       -88.4999      2352.0624      2372.0624
     2555.5954         9.8750        10.0311    -999.250000        98.2821        -2.1136        35.9978       0.226973         1.8511         2.2160         8.1391         6.1961       -88.4741      2352.1979      2372.1979
     2555.7478         9.8750        10.0571    -999.250000        96.8454        -2.2192        35.1064       0.215993         1.9102         2.2291         8.1822         6.5281       -88.3020      2352.3333      2372.3333
     2555.9002         9.8750        10.1052       0.007992        96.2506        -1.8986        36.8960       0.213010         1.9993         2.2501         8.0868         6.0634       -88.7371      2352.4688      2372.4688
     2556.0526         9.8750        10.1865    -999.250000        96.2500        -1.3446        42.1785       0.217035         2.1313         2.2710         7.8675         5.9020       -88.6509      2352.6043      2372.6043
     2556.2050         9.8750        10.3895    -999.250000        96.7495        -0.4973        51.2805       0.231047         2.2722         2.2901         7.7110         5.8275       -88.8361      2352.7397      2372.7397
     2556.3574         9.8750        10.5738    -999.250000        98.0617         0.6157        63.6007       0.250037         2.3590         2.3141         7.5692         4.1131       -88.5387      2352.8752      2372.8752
     2556.5098         9.8750        10.4896    -999.250000        98.9681         1.5738        76.0060       0.265025         2.3688         2.3370         7.4203         4.3649       -88.7711      2353.0107      2373.0107
     2556.6622         9.8750        10.3086    -999.250000        98.9061         1.7657        81.6411       0.275035         2.2927         2.3299         7.3109         5.5420       -87.7971      2353.1461      2373.1461
     2556.8146         9.8750        10.1658    -999.250000        99.0309         1.3726        75.6139       0.289042         2.1656         2.2869         7.2380         5.7879       -87.0989      2353.2816      2373.2816
     2556.9670         9.8750        10.0900    -999.250000        99.3437         1.0597        61.8272       0.306017         2.0237         2.2430         7.2515         5.9008       -86.7974      2353.4170      2373.4170
     2557.1194         9.8750        10.0859    -999.250000        99.1252         0.9522        48.9813       0.312963         1.8968         2.2260         7.3991         5.2210       -86.1765      2353.5525      2373.5525
     2557.2718         9.8750        10.0288    -999.250000        98.8133         0.4907        41.4206       0.297918         1.8079         2.2280         7.6427         4.7912       -86.4955      2353.6880      2373.6880
     2557.4242         9.8750         9.9650    -999.250000        99.3435        -0.5697        37.6381       0.264913         1.7510         2.2300         7.8972         5.5681       -85.3492      2353.8234      2373.8234
     2557.5766         9.8750         9.9509    -999.250000       100.5298        -1.8152        36.4709       0.229941         1.7452         2.2260         8.1638         5.3358       -85.1384      2353.9589      2373.9589
     2557.7290         9.8750         9.9159    -999.250000       100.9056        -2.5729        40.4995       0.205985         1.8283         2.2280         7.8812         5.9474       -85.4572      2354.0943      2374.0943
     2557.8814         9.8750         9.8893       0.006025       100.0948        -2.3894        52.8352       0.200084         1.9390         2.2471         6.6332         6.6229       -87.3922      2354.2298      2374.2298
     2558.0338         9.8750        10.0185       0.016020        98.6574        -0.7939        68.2727       0.234180         1.9568         2.2700         5.9701         6.1929       -88.6378      2354.3653      2374.3653
     2558.1862         9.8750        10.2049       0.024000        97.2824         1.6570        74.1659       0.307138         1.8728         2.2710         5.7889         3.6880       -88.7113      2354.5007      2374.5007
     2558.3386         9.8750        10.1776       0.023995        96.9693         3.1380        65.1977       0.362960         1.7910         2.2520         5.9366         3.0656       -88.3750      2354.6362      2374.6362
     2558.4910         9.8750        10.0139       0.021993        97.4995         2.3413        50.5435       0.346827         1.7760         2.2390         6.6621         4.5750       -88.3878      2354.7717      2374.7717
     2558.6434         9.8750         9.9694       0.018983        97.8437         0.1693        42.6550       0.276867         1.7920         2.2470         7.9569         6.4090       -88.4743      2354.9071      2374.9071
     2558.7958         9.8750        10.1334    -999.250000        97.8130        -1.4476        42.2493       0.222980         1.8010         2.2560         8.4447         6.1985       -88.2887      2355.0426      2375.0426
     2558.9482         9.8750        10.2909    -999.250000        97.5633        -1.8332        41.9545       0.215027         1.8000         2.2500         8.4317         3.5311       -88.6251      2355.1780      2375.1780
     2559.1006         9.8750        10.2378    -999.250000        97.2813        -1.7666        39.3234       0.226017         1.7889         2.2350         8.2916         3.2500       -88.6766      2355.3135      2375.3135
     2559.2530         9.8750        10.1478    -999.250000        97.2500        -1.7536        37.4611       0.232997         1.7478         2.2240         8.2186         4.1211       -89.1380      2355.4490      2375.4490
     2559.4054         9.8750        10.0656    -999.250000        97.3129        -1.8671        37.4834       0.231995         1.6769         2.2200         8.1928         5.5088       -89.3076      2355.5844      2375.5844
