~Version Information Block
VERS .                 2.00:  CWLS LOG ASCII STANDARD - VERSION 2.00
WRAP .                   NO:  One line per depth step
~Well Information Block
#MNEM.UNIT        Data Type   Information
#---------- ----------------  -----------
STRT .M              0.0000:  START DEPTH
STOP .M           2799.8928:  STOP DEPTH
STEP .M              0.1524:  STEP
NULL .              -999.25:  NULL VALUE
COMP .                     :  COMPANY
WELL .              GABO-18:  WELL
FLD  .                     :  FIELD
LOC  .   6.635779, 5.238893:  LOCATION
CTRY .                     :  COUNTRY
STAT .                     :  STATE
CNTY .                     :  COUNTY
API  .                     :  API NUMBER
UWI  .                     :  UNIQUE WELL ID
SRVC .                     :  SERVICE COMPANY
DATE .                     :  LOG DATE
~Curve Information Block
#MNEM.UNIT         API CODE   Curve Description
#---------- ----------------  -----------------
DEPTH.M                    :  Reference Depth
BS_COMP.INCHES             :  Bit Size
CALI_COMP.INCHES          0:  Caliper
DRHO_COMP.G/C3            0:  Density Correction Log
ECART_COMP.                :  Neutron Density Seperation
GR   .GAPI                0:  Gamma Ray
GR_COMP.GAPI              0:  Gamma Ray Composite
NPHI .V/V                  :  Neutron Porosity
NPHI_COMP.V/V              :  Neutron Porosity Composite
PEF_COMP.B/E              0:  Photo Electric Factor
RHOB_COMP.G/C3            0:  Bulk Density
RT   .OHMM                0:  True or Deep Resistivity
RT_COMP.OHMM              0:  True or Deep Resistivity Composite
RXO  .OHMM                0:  Invaded Zone Resistivity
RXO_COMP.OHMM             0:  Invaded Zone Resistivity composite
SP_COMP.MV                0:  Spontaneous Potential
TVDSS_COMP.M               :  Reference tvdss log.
TVD_COMP.M                 :  Reference tvd log.
~Parameter Information Block
#MNEM.UNIT            Value   Description
#---------- ----------------  -----------
SET  .                  LCS:  
~Other Information Block
#        DEPTH        BS_COMP      CALI_COMP      DRHO_COMP     ECART_COMP             GR        GR_COMP           NPHI      NPHI_COMP       PEF_COMP      RHOB_COMP             RT        RT_COMP            RXO       RXO_COMP        SP_COMP     TVDSS_COMP       TVD_COMP 
~A
# ...
     2250.0336        12.2500        13.0370    -999.250000        -2.6290        33.2056        33.2056         0.2426       0.242555         1.7164         2.1643        16.2406        16.2406        10.0048        10.0048       -12.2987      2083.5457      2101.6457
     2250.1860        12.2500        13.0515    -999.250000        -2.7306        31.7381        31.7381         0.2468       0.246823         1.6913         2.1521        16.3812        16.3812         9.8592         9.8592       -12.8326      2083.6700      2101.7700
     2250.3384        12.2500        13.0934    -999.250000        -2.9855        32.9794        32.9794         0.2407       0.240668         1.6758         2.1496        16.0974        16.0974         9.5466         9.5466       -12.8726      2083.7942      2101.8942
     2250.4908        12.2500        13.0517    -999.250000        -2.8803        33.3260        33.3260         0.2368       0.236821         1.6764         2.1613        16.0134        16.0134         9.1729         9.1729       -13.2449      2083.9185      2102.0185
     2250.6432        12.2500        13.0173    -999.250000        -2.6321        32.5175        32.5175         0.2319       0.231924         1.6907         2.1819        16.1403        16.1403         8.9666         8.9666       -14.1399      2084.0428      2102.1428
     2250.7956        12.2500        12.9890    -999.250000        -2.6599        30.7782        30.7782         0.2187       0.218745         1.7143         2.2024        16.3872        16.3872         9.2560         9.2560       -15.7018      2084.1670      2102.2670
     2250.9480        12.2500        12.9570    -999.250000        -3.0064        31.1992        31.1992         0.2022       0.202228         1.6883         2.2126        17.6344        17.6344        10.5288        10.5288       -16.2443      2084.2913      2102.3913
     2251.1004        12.2500        12.9303    -999.250000        -3.1951        33.7171        33.7171         0.1945       0.194546         1.6609         2.2160        18.9300        18.9300        12.8843        12.8843       -16.9994      2084.4156      2102.5156
     2251.2528        12.2500        12.8973    -999.250000        -3.1782        37.8319        37.8319         0.1952       0.195214         1.6576         2.2157        20.2837        20.2837        15.9032        15.9032       -17.6658      2084.5399      2102.6399
     2251.4052        12.2500        12.8534    -999.250000        -2.9246        43.1124        43.1124         0.2032       0.203213         1.7047         2.2151        21.7548        21.7548        19.0717        19.0717       -17.9163      2084.6641      2102.7641
     2251.5576        12.2500        12.7972    -999.250000        -2.3504        52.0647        52.0647         0.2191       0.219067         1.8944         2.2174        23.9788        23.9788        20.1650        20.1650       -17.7023      2084.7884      2102.8884
     2251.7100        12.2500        12.7553    -999.250000        -1.8427        61.5617        61.5617         0.2481       0.248137         2.1712         2.1943        24.2750        24.2750        18.6048        18.6048       -16.9471      2084.9127      2103.0127
     2251.8624        12.2500        12.6979    -999.250000        -1.3743        69.5426        69.5426         0.2826       0.282596         2.4397         2.1603        23.7111        23.7111        15.8664        15.8664       -16.1677      2085.0370      2103.1370
     2252.0148        12.2500        12.6193    -999.250000        -0.8824        74.7601        74.7601         0.3171       0.317130         2.6218         2.1273        22.8357        22.8357        13.0035        13.0035       -15.6930      2085.1613      2103.2613
     2252.1672        12.2500        12.5295    -999.250000         0.0086        77.3076        77.3076         0.3480       0.347976         2.5602         2.1205        20.7216        20.7216        11.1416        11.1416       -15.6098      2085.2856      2103.3856
     2252.3196        12.2500        12.5020    -999.250000         0.5712        80.6277        80.6277         0.3639       0.363937         2.5308         2.1220        19.7393        19.7393        10.0832        10.0832       -15.8736      2085.4098      2103.5098
     2252.4720        12.2500        12.4608    -999.250000         0.7934        82.6735        82.6735         0.3685       0.368535         2.6034         2.1254        19.2148        19.2148         9.5134         9.5134       -16.5613      2085.5341      2103.6341
     2252.6244        12.2500        12.4556       0.010612         0.8290        82.6470        82.6470         0.3672       0.367182         2.7807         2.1295        18.9955        18.9955         9.3306         9.3306       -17.4696      2085.6584      2103.7584
     2252.7768        12.2500        12.4857       0.014423         1.3419        80.4152        80.4152         0.3771       0.377084         2.9651         2.1386        19.4929        19.4929         9.5994         9.5994       -17.6246      2085.7827      2103.8827
     2252.9292        12.2500        12.5047       0.020820         1.3304        82.4948        82.4948         0.3654       0.365431         3.0635         2.1575        20.5733        20.5733        10.1388        10.1388       -17.1879      2085.9070      2104.0070
     2253.0816        12.2500        12.4989       0.026450         1.0219        87.4301        87.4301         0.3458       0.345800         3.0566         2.1748        21.6973        21.6973        10.7889        10.7889       -16.7007      2086.0313      2104.1313
     2253.2340        12.2500        12.4980       0.029655         0.4999        93.6101        93.6101         0.3240       0.324018         2.9255         2.1850        22.4371        22.4371        11.3353        11.3353       -16.4062      2086.1556      2104.2556
     2253.3864        12.2500        12.4992       0.028134        -0.1526        97.8652        97.8652         0.3072       0.307183         2.6337         2.1804        22.0299        22.0299        11.3378        11.3378       -16.6155      2086.2799      2104.3799
     2253.5388        12.2500        12.4886       0.024526        -0.5877       103.3609       103.3609         0.3065       0.306460         2.4280         2.1598        21.2102        21.2102        10.6229        10.6229       -17.1844      2086.4042      2104.5042
     2253.6912        12.2500        12.4822       0.017519        -0.9914       107.6104       107.6104         0.3084       0.308431         2.3161         2.1364        20.0481        20.0481         9.8069         9.8069       -17.6164      2086.5285      2104.6285
     2253.8436        12.2500        12.4843       0.009910        -1.3413       109.7847       109.7847         0.3107       0.310723         2.2685         2.1151        18.9752        18.9752         9.0558         9.0558       -18.0101      2086.6528      2104.7528
     2253.9960        12.2500        12.4944       0.006097        -1.5759       109.0745       109.0745         0.3119       0.311919         2.2387         2.1013        18.6228        18.6228         8.5185         8.5185       -18.5915      2086.7772      2104.8772
     2254.1484        12.2500        12.5110       0.004515        -1.4589       108.5635       108.5635         0.3161       0.316080         2.3858         2.1003        18.4424        18.4424         8.0779         8.0779       -17.2099      2086.9015      2105.0015
     2254.3008        12.2500        12.5133       0.007535        -0.8672       106.4303       106.4303         0.3179       0.317923         2.6587         2.1268        17.6144        17.6144         7.4811         7.4811       -16.0082      2087.0258      2105.1258
     2254.4532        12.2500        12.5422       0.016604         0.3147       104.3533       104.3533         0.3218       0.321778         2.9531         2.1794        16.3867        16.3867         6.8248         6.8248       -15.0424      2087.1501      2105.2501
