~Version Information Block
VERS .                 2.00:  CWLS LOG ASCII STANDARD - VERSION 2.00
WRAP .                   NO:  One line per depth step
~Well Information Block
#MNEM.UNIT        Data Type   Information
#---------- ----------------  -----------
STRT .M              0.0000:  START DEPTH
STOP .M           2757.2208:  STOP DEPTH
STEP .M              0.1524:  STEP
NULL .              -999.25:  NULL VALUE
COMP .                     :  COMPANY
WELL .               GABO14:  WELL
FLD  .                     :  FIELD
LOC  .   6.639036, 5.241653:  LOCATION
CTRY .                     :  COUNTRY
STAT .                     :  STATE
CNTY .                     :  COUNTY
API  .                     :  API NUMBER
UWI  .                     :  UNIQUE WELL ID
SRVC .                     :  SERVICE COMPANY
DATE .                     :  LOG DATE
~Curve Information Block
#MNEM.UNIT         API CODE   Curve Description
#---------- ----------------  -----------------
DEPTH.M                    :  Reference Depth
BS_COMP.INCHES             :  Bit Size
CALI_COMP.INCHES          0:  Caliper
DRHO_COMP.G/C3            0:  Density Correction 
DT_COMP.US/F              0:  Compressional Sonic
ECART_COMP.                :  Neutron Density Seperation
GR_COMP.GAPI              0:  Gamma Ray
NPHI_COMP.V/V             0:  Neutron Porosity
PEF_COMP.B/E              0:  Photo Electric Factor
RHOB_COMP.G/C3            0:  Bulk Density
RT_COMP.OHMM              0:  True or Deep Resistivity
RXO_COMP.OHMM             0:  Invaded Zone Resistivity
SP_COMP.MV                0:  Spontaneous Potential
TVDSS_COMP.M               :  Reference TVD sub-sea log.
TVD_COMP.M                 :  Reference TVD log.
~Parameter Information Block
#MNEM.UNIT            Value   Description
#---------- ----------------  -----------
SET  .                  LCS:  
~Other Information Block
#        DEPTH        BS_COMP      CALI_COMP      DRHO_COMP        DT_COMP     ECART_COMP        GR_COMP      NPHI_COMP       PEF_COMP      RHOB_COMP        RT_COMP       RXO_COMP        SP_COMP     TVDSS_COMP       TVD_COMP 
~A
# ...
     2748.9912        12.2500        12.6524       0.085019      -999.2500         3.8710      -999.2500       0.392109         2.7887         2.2400         1.9989      -999.2500      -999.2500      2659.9801      2675.9801
     2749.1436        12.2500        12.6663       0.094984      -999.2500         4.8648      -999.2500       0.392692         2.8911         2.2888         1.9849      -999.2500      -999.2500      2660.1296      2676.1296
     2749.2960        12.2500        12.7599       0.100950      -999.2500         5.4702      -999.2500       0.389614         3.0048         2.3242         1.9679      -999.2500      -999.2500      2660.2790      2676.2790
     2749.4484        12.2500        12.8439       0.093980      -999.2500         5.3504      -999.2500       0.385721         3.0689         2.3247         1.9489      -999.2500      -999.2500      2660.4285      2676.4285
     2749.6008        12.2500        12.8973       0.082015      -999.2500         4.7415      -999.2500       0.382343         3.0766         2.2998         1.9249      -999.2500      -999.2500      2660.5779      2676.5779
     2749.7532        12.2500        12.7753       0.074008      -999.2500         3.8226      -999.2500       0.375278         3.0534         2.2657         1.8918      -999.2500      -999.2500      2660.7273      2676.7273
     2749.9056        12.2500        12.7136       0.068019      -999.2500      -999.2500      -999.2500       0.367482         3.0408         2.2302         1.8518      -999.2500      -999.2500      2660.8768      2676.8768
     2750.0580        12.2500        12.8278       0.067054      -999.2500      -999.2500      -999.2500       0.362200         3.0721         2.2126         1.8088      -999.2500      -999.2500      2661.0262      2677.0262
     2750.2104        12.2500        12.9001       0.080027      -999.2500      -999.2500      -999.2500       0.364254         3.1253         2.2321         1.7658      -999.2500      -999.2500      2661.1757      2677.1757
     2750.3628        12.2500        12.9923       0.099949      -999.2500      -999.2500      -999.2500       0.366903         3.1476         2.2780         1.7249      -999.2500      -999.2500      2661.3251      2677.3251
     2750.5152        12.2500        13.1721       0.106922      -999.2500      -999.2500      -999.2500       0.365753         3.1216         2.3109         1.6869      -999.2500      -999.2500      2661.4746      2677.4746
     2750.6676        12.2500        13.3841       0.093996      -999.2500      -999.2500      -999.2500       0.362931         3.0947         2.2969         1.6489      -999.2500      -999.2500      2661.6240      2677.6240
     2750.8200        12.2500        13.3663       0.080054      -999.2500      -999.2500      -999.2500       0.362324         3.0761         2.2592         1.6119      -999.2500      -999.2500      2661.7735      2677.7735
     2750.9724        12.2500        13.1571       0.080023      -999.2500      -999.2500      -999.2500       0.366530         3.0282         2.2377         1.5759      -999.2500      -999.2500      2661.9229      2677.9229
     2751.1248        12.2500        13.2294       0.085996      -999.2500      -999.2500      -999.2500       0.373429         2.9703         2.2464         1.5449      -999.2500      -999.2500      2662.0724      2678.0724
     2751.2772        12.2500        13.4093       0.090969      -999.2500      -999.2500      -999.2500       0.379051         2.9497         2.2642         1.5189      -999.2500      -999.2500      2662.2218      2678.2218
     2751.4296        12.2500        13.3976       0.087973      -999.2500      -999.2500      -999.2500       0.379853         2.9685         2.2655         1.4969      -999.2500      -999.2500      2662.3713      2678.3713
     2751.5820        12.2500        13.3048       0.077992      -999.2500      -999.2500      -999.2500       0.377937         2.9604         2.2443         1.4809      -999.2500      -999.2500      2662.5207      2678.5207
     2751.7344        12.2500        13.1581       0.066027      -999.2500      -999.2500      -999.2500       0.376936         2.9262         2.2203         1.4680      -999.2500      -999.2500      2662.6701      2678.6701
     2751.8868        12.2500        13.0414       0.061039      -999.2500      -999.2500      -999.2500       0.376070         2.9150         2.2108         1.4580      -999.2500      -999.2500      2662.8196      2678.8196
     2752.0392        12.2500        13.0120       0.066019      -999.2500      -999.2500      -999.2500       0.377059         2.9290         2.2225         1.4540      -999.2500      -999.2500      2662.9690      2678.9690
     2752.1916        12.2500        12.9842       0.075981      -999.2500      -999.2500      -999.2500       0.377684         2.9441         2.2467         1.4560      -999.2500      -999.2500      2663.1185      2679.1185
     2752.3440        12.2500        13.0041       0.080977      -999.2500      -999.2500      -999.2500       0.372537         2.9483         2.2755         1.4610      -999.2500      -999.2500      2663.2679      2679.2679
     2752.4964        12.2500        13.0627       0.079977      -999.2500      -999.2500      -999.2500       0.365031         2.9718         2.3006         1.4711      -999.2500      -999.2500      2663.4174      2679.4174
     2752.6488        12.2500        13.0369       0.072988      -999.2500      -999.2500      -999.2500       0.365451         3.0342         2.3117         1.4841      -999.2500      -999.2500      2663.5668      2679.5668
     2752.8012        12.2500        12.9859       0.063027      -999.2500      -999.2500      -999.2500       0.373296         3.1061         2.3064         1.5011      -999.2500      -999.2500      2663.7163      2679.7163
     2752.9536        12.2500        12.9175       0.060027      -999.2500      -999.2500      -999.2500    -999.250000         3.1445      -999.2500         1.5181      -999.2500      -999.2500      2663.8657      2679.8657
     2753.1060        12.2500      -999.2500    -999.250000      -999.2500      -999.2500      -999.2500    -999.250000         3.1577      -999.2500         1.5351      -999.2500      -999.2500      2664.0152      2680.0152
     2753.2584        12.2500      -999.2500    -999.250000      -999.2500      -999.2500      -999.2500    -999.250000      -999.2500      -999.2500         1.5521      -999.2500      -999.2500      2664.1646      2680.1646
     2753.4108        12.2500      -999.2500    -999.250000      -999.2500      -999.2500      -999.2500    -999.250000      -999.2500      -999.2500         1.5711      -999.2500      -999.2500      2664.3140      2680.3140
     2753.5632        12.2500      -999.2500    -999.250000      -999.2500      -999.2500      -999.2500    -999.250000      -999.2500      -999.2500         1.5890      -999.2500      -999.2500      2664.4635      2680.4635
     2753.7156        12.2500      -999.2500    -999.250000      -999.2500      -999.2500      -999.2500    -999.250000      -999.2500      -999.2500         1.5980      -999.2500      -999.2500      2664.6129      2680.6129
     2753.8680        12.2500      -999.2500    -999.250000      -999.2500      -999.2500      -999.2500    -999.250000      -999.2500      -999.2500         1.5970      -999.2500      -999.2500      2664.7624      2680.7624
     2754.0204        12.2500      -999.2500    -999.250000      -999.2500      -999.2500      -999.2500    -999.250000      -999.2500      -999.2500         1.5960      -999.2500      -999.2500      2664.9118      2680.9118
     2754.1728        12.2500      -999.2500    -999.250000      -999.2500      -999.2500      -999.2500    -999.250000      -999.2500      -999.2500         1.5980      -999.2500      -999.2500      2665.0613      2681.0613
     2754.3252        12.2500      -999.2500    -999.250000      -999.2500      -999.2500      -999.2500    -999.250000      -999.2500      -999.2500         1.6000      -999.2500      -999.2500      2665.2107      2681.2107
