~Version Information Block
VERS .                 2.00:  CWLS LOG ASCII STANDARD - VERSION 2.00
WRAP .                   NO:  One line per depth step
~Well Information Block
#MNEM.UNIT        Data Type   Information
#---------- ----------------  -----------
STRT .M              0.0000:  START DEPTH
STOP .M           2950.4637:  STOP DEPTH
STEP .M              0.1524:  STEP
NULL .              -999.25:  NULL VALUE
COMP .                     :  COMPANY
WELL .               GABO15:  WELL
FLD  .                     :  FIELD
LOC  .   6.656416, 5.257802:  LOCATION
CTRY .                     :  COUNTRY
STAT .                     :  STATE
CNTY .                     :  COUNTY
API  .                     :  API NUMBER
UWI  .                     :  UNIQUE WELL ID
SRVC .                     :  SERVICE COMPANY
DATE .                     :  LOG DATE
~Curve Information Block
#MNEM.UNIT         API CODE   Curve Description
#---------- ----------------  -----------------
DEPTH.M                    :  Reference Depth.
BS_COMP.INCHES             :  Bit Size
CALI_COMP.INCHES          0:  Caliper
DRHO_COMP.G/C3            0:  Density Correction
DT_COMP.US/F              0:  Compressional Sonic
ECART_COMP.                :  Neutron Density Seperation
GR_COMP.GAPI               :  Gamma Ray
NPHI_COMP.V/V             0:  Neutron Porosity
PEF_COMP.B/E              0:  Photo Electric Factor
RHOB_COMP.G/C3            0:  Bulk Density
RT_COMP.OHMM              0:  True or Deep Resistivity
RXO_COMP.OHMM             0:  Invaded Zone Resistivity
SP_COMP.MV                 :  Values changed using TEXT_EDIT
TVDSS_COMP.M               :  Reference TVD sub-sea log.
TVD_COMP.M                 :  Reference TVD log.
~Parameter Information Block
#MNEM.UNIT            Value   Description
#---------- ----------------  -----------
SET  .                  LCS:  
MFST .DEGF               80:  Mud filtrate sample temperature
RMFS .OHMM              1.9:  Resistivity of Filtrate sample
SP_SH.MV                  0:  Shale baseline value for SP
~Other Information Block
COMMENT:
$$MUX      Data from LAS tape
$$MUX      fevsbd 09/10/97 ng95603  ASCII:      GABO15.fod
$$MUX
$$MUX
#        DEPTH        BS_COMP      CALI_COMP      DRHO_COMP        DT_COMP     ECART_COMP        GR_COMP      NPHI_COMP       PEF_COMP      RHOB_COMP        RT_COMP       RXO_COMP        SP_COMP     TVDSS_COMP       TVD_COMP 
~A
# ...
     2735.1226         9.8750        10.2932       0.084038        85.8746         2.3785       117.9506       0.214140         3.4650         2.4620         4.7550         8.4477       -71.5740      2511.7719      2531.7719
     2735.2750         9.8750        10.3794       0.099995        90.1819         4.5440       130.0231       0.273095         3.4621         2.4720         3.5452         3.2108       -70.6603      2511.9074      2531.9074
     2735.4274         9.8750        10.5495       0.097962        93.6830         6.2348       139.7244       0.313031         3.5192         2.4900         3.0819         2.6751       -70.1671      2512.0428      2532.0428
     2735.5798         9.8750        10.7604       0.081948        93.8128         6.8663       141.9876       0.325998         3.5991         2.5000         3.0688         2.3157       -69.8124      2512.1783      2532.1783
     2735.7322         9.8750        10.9321       0.059960        94.1246         6.7126       136.7658       0.325000         3.6560         2.4940         3.0877         2.2057       -69.7887      2512.3138      2532.3138
     2735.8846         9.8750        10.9728       0.042976        95.9035         6.4135       130.3672       0.325031         3.6658         2.4790         3.0468         2.0857       -69.3411      2512.4492      2532.4492
     2736.0370         9.8750        10.8728       0.032991        97.0294         6.4674       127.0945       0.338050         3.5726         2.4600         2.9180         2.0920       -68.7431      2512.5847      2532.5847
     2736.1894         9.8750        10.7992       0.029005        97.0939         6.7872       127.3167       0.359033         3.3988         2.4410         2.7909         2.1203       -68.5508      2512.7202      2532.7202
     2736.3418         9.8750        10.8672       0.031005        97.4375         6.9932       128.8742       0.373005         3.2980         2.4280         2.6683         2.1605       -67.3311      2512.8556      2532.8556
     2736.4942         9.8750        10.9409       0.032988        98.1550         6.9396       128.5411       0.374995         3.3131         2.4220         2.4911         1.9673       -68.7433      2512.9911      2532.9911
     2736.6466         9.8750        10.9081       0.027976        98.4995         6.7527       126.0573       0.372995         3.3590         2.4160         2.4066         1.8713       -68.6385      2513.1265      2533.1265
     2736.7990         9.8750        10.9323       0.017986        99.0622         6.5061       123.6551       0.370990         3.3660         2.4070         2.3743         1.7546       -68.8615      2513.2620      2533.2620
     2736.9514         9.8750        11.0472       0.012005       100.3112         6.2734       123.2988       0.367002         3.3610         2.4020         2.3927         1.7203       -68.6251      2513.3975      2533.3975
     2737.1038         9.8750        11.1151       0.014024       100.6875         6.3080       124.0459       0.368031         3.3620         2.4020         2.4269         1.8175       -68.6855      2513.5329      2533.5329
     2737.2562         9.8750        11.1619       0.024028       100.7499         6.8815       123.5747       0.381028         3.3450         2.4090         2.4258         1.7533       -69.7163      2513.6684      2533.6684
     2737.4086         9.8750        11.1369       0.036005       101.7486         7.5202       122.1701       0.392995         3.3502         2.4210         2.3901         1.8233       -69.1048      2513.8038      2533.8038
     2737.5610         9.8750        11.0762       0.037979       102.3122         7.6127       121.3728       0.390988         3.4404         2.4290         2.3800         1.8793       -68.7097      2513.9393      2533.9393
     2737.7134         9.8750        11.1743       0.028976       102.0634         7.3461       120.4493       0.386002         3.6042         2.4240         2.3428         1.6999       -68.0133      2514.0748      2534.0748
     2737.8658         9.8750        11.2988       0.019007       101.8443         7.1199       118.8840       0.387007         3.7089         2.4110         2.2694         1.5285       -68.2098      2514.2102      2534.2102
     2738.0182         9.8750        11.2337       0.022021       101.9059         7.1002       115.9123       0.390005         3.6668         2.4050         2.2373         1.6618       -67.5268      2514.3457      2534.3457
     2738.1706         9.8750        11.1040       0.031016       102.1876         7.1870       111.8367       0.392002         3.5648         2.4060         2.2057         1.6066       -67.9799      2514.4812      2534.4812
     2738.3230         9.8750        11.1172       0.038014       102.6244         7.3405       108.7651       0.392998         3.5001         2.4120         2.1506         1.6613       -67.6317      2514.6166      2534.6166
     2738.4754         9.8750        11.1969       0.044017       102.2815         7.5474       108.4109       0.391998         3.5322         2.4240         2.1243         1.5277       -67.7433      2514.7521      2534.7521
     2738.6278         9.8750        11.1426       0.051000       101.0957         7.8744       110.5044       0.391012         3.6121         2.4420         2.1381         1.5955       -67.6383      2514.8875      2534.8875
     2738.7802         9.8750        10.9937       0.050964       100.3451         8.3208       112.3794       0.396026         3.6572         2.4560         2.2135         1.5554       -67.8615      2515.0230      2535.0230
     2738.9326         9.8750        10.8790       0.035960        99.8447         8.6467       114.2555       0.407014         3.7222         2.4540         2.3043         1.7136       -67.5784      2515.1585      2535.1585
     2739.0850         9.8750        10.8834       0.018979        99.5634         8.6663       116.5653       0.412998         3.8193         2.4450         2.3645         1.7654       -66.7898      2515.2939      2535.2939
     2739.2374         9.8750        11.0683       0.009998        99.5630         8.5123       117.5122       0.411972         3.9502         2.4390         2.3744         1.8164       -67.4269      2515.4294      2535.4294
     2739.3898         9.8750        11.2128       0.009009        99.1885         8.0913       115.8992       0.399941         4.0248         2.4380         2.3785         1.6078       -66.2048      2515.5649      2535.5649
     2739.5422         9.8750        11.1367       0.013024        98.7197         7.2386       113.0308       0.374955         3.9237         2.4370         2.3681         1.6559       -67.6383      2515.7003      2535.7003
     2739.6946         9.8750        11.0179       0.023021        98.4064         6.6672       112.9614       0.356005         3.8039         2.4400         2.3339         1.8131       -67.8883      2515.8358      2535.8358
     2739.8470         9.8750        10.9881       0.031993        96.6905         6.8948       116.4932       0.358038         3.7519         2.4480         2.3309         1.8057       -68.1250      2515.9712      2535.9712
     2739.9994         9.8750        11.0249       0.028969        93.0053         7.5073       120.3631       0.374021         3.7189         2.4520         2.3983         1.8053       -68.1185      2516.1067      2536.1067
     2740.1518         9.8750        10.9701       0.015971        90.7842         7.7642       122.1018       0.382922         3.6591         2.4500         2.5940         1.8009       -68.0430      2516.2422      2536.2422
     2740.3042         9.8750        10.6019       0.004019        92.2479         6.7454       125.4067       0.349950         3.7192         2.4540         2.9195         1.9859       -68.7595      2516.3776      2536.3776
     2740.4566         9.8750        10.5470       0.012045        95.1838         6.2068       125.7110       0.328993         3.8219         2.4620         3.2264         1.9884       -67.7959      2516.5131      2536.5131
