~Version Information Block
VERS .                 2.00:  CWLS LOG ASCII STANDARD - VERSION 2.00
WRAP .                   NO:  One line per depth step
~Well Information Block
#MNEM.UNIT        Data Type   Information
#---------- ----------------  -----------
STRT .M              0.0000:  START DEPTH
STOP .M           2950.4637:  STOP DEPTH
STEP .M              0.1524:  STEP
NULL .              -999.25:  NULL VALUE
COMP .                     :  COMPANY
WELL .               GABO15:  WELL
FLD  .                     :  FIELD
LOC  .   6.656416, 5.257802:  LOCATION
CTRY .                     :  COUNTRY
STAT .                     :  STATE
CNTY .                     :  COUNTY
API  .                     :  API NUMBER
UWI  .                     :  UNIQUE WELL ID
SRVC .                     :  SERVICE COMPANY
DATE .                     :  LOG DATE
~Curve Information Block
#MNEM.UNIT         API CODE   Curve Description
#---------- ----------------  -----------------
DEPTH.M                    :  Reference Depth.
BS_COMP.INCHES             :  Bit Size
CALI_COMP.INCHES          0:  Caliper
DRHO_COMP.G/C3            0:  Density Correction
DT_COMP.US/F              0:  Compressional Sonic
ECART_COMP.                :  Neutron Density Seperation
GR_COMP.GAPI               :  Gamma Ray
NPHI_COMP.V/V             0:  Neutron Porosity
PEF_COMP.B/E              0:  Photo Electric Factor
RHOB_COMP.G/C3            0:  Bulk Density
RT_COMP.OHMM              0:  True or Deep Resistivity
RXO_COMP.OHMM             0:  Invaded Zone Resistivity
SP_COMP.MV                 :  Values changed using TEXT_EDIT
TVDSS_COMP.M               :  Reference TVD sub-sea log.
TVD_COMP.M                 :  Reference TVD log.
~Parameter Information Block
#MNEM.UNIT            Value   Description
#---------- ----------------  -----------
SET  .                  LCS:  
MFST .DEGF               80:  Mud filtrate sample temperature
RMFS .OHMM              1.9:  Resistivity of Filtrate sample
SP_SH.MV                  0:  Shale baseline value for SP
~Other Information Block
COMMENT:
$$MUX      Data from LAS tape
$$MUX      fevsbd 09/10/97 ng95603  ASCII:      GABO15.fod
$$MUX
$$MUX
#        DEPTH        BS_COMP      CALI_COMP      DRHO_COMP        DT_COMP     ECART_COMP        GR_COMP      NPHI_COMP       PEF_COMP      RHOB_COMP        RT_COMP       RXO_COMP        SP_COMP     TVDSS_COMP       TVD_COMP 
~A
# ...
     2307.1834         9.8750         9.9530       0.006990       108.1565        -2.7803        27.2359       0.243003         1.6110         2.1560        11.4288         6.3861       -66.3455      2131.3951      2151.3951
     2307.3358         9.8750         9.9530    -999.250000       106.4387        -2.9070        27.9657       0.243997         1.6130         2.1480        11.2803         6.2042       -68.0433      2131.5306      2151.5306
     2307.4882         9.8750         9.9530    -999.250000       105.4384        -3.0200        29.7499       0.242995         1.6261         2.1440        11.1716         6.2247       -68.2930      2131.6660      2151.6660
     2307.6406         9.8750         9.9530    -999.250000       106.0628        -3.0064        31.2334       0.240997         1.6521         2.1480        11.2224         6.2814       -68.4465      2131.8015      2151.8015
     2307.7930         9.8750         9.9530    -999.250000       106.8127        -2.9000        31.0159       0.239995         1.7012         2.1550        11.3587         6.3197       -68.3820      2131.9369      2151.9369
     2307.9454         9.8750         9.9551    -999.250000       106.9380        -2.8871        29.4331       0.237984         1.7702         2.1590        11.3209         6.5015       -69.4747      2132.0724      2152.0724
     2308.0978         9.8750         9.9792    -999.250000       106.5941        -3.0471        29.1039       0.231982         1.8443         2.1610        10.9861         6.6038       -70.4658      2132.2079      2152.2079
     2308.2502         9.8750        10.0453       0.007039       105.2815        -3.1993        32.9003       0.224987         1.9636         2.1651        10.4296         6.3687       -71.6186      2132.3433      2152.3433
     2308.4026         9.8750        10.1483       0.022063       103.1568        -2.9237        42.6240       0.220013         2.1898         2.1871         9.7026         6.0815       -72.2199      2132.4788      2152.4788
     2308.5550         9.8750        10.2502       0.046065       101.2198        -1.7952        58.6955       0.225047         2.4936         2.2352         8.8110         5.4888       -72.4180      2132.6142      2152.6142
     2308.7074         9.8750        10.3343       0.071016       100.4693         0.0646        76.8653       0.243063         2.7132         2.2981         7.9985         4.9339       -72.6036      2132.7497      2152.7497
     2308.8598         9.8750        10.4473       0.076937       100.3750         1.8224        91.1467       0.267055         2.7731         2.3460         7.2823         5.0065       -72.5643      2132.8852      2152.8852
     2309.0122         9.8750        10.5591       0.052914       100.2810         2.7606        99.4336       0.288031         2.7951         2.3580         6.6939         3.8520       -72.7570      2133.0206      2153.0206
     2309.1646         9.8750        10.5900    -999.250000       100.9377         2.9795       103.8684       0.300013         2.8340         2.3490         6.2035         3.9592       -72.3377      2133.1561      2153.1561
     2309.3170         9.8750        10.5940    -999.250000       102.6553         2.8056       107.4789       0.305003         2.8309         2.3319         5.8160         4.2745       -72.8586      2133.2916      2153.2916
     2309.4694         9.8750        10.6039    -999.250000       104.3433         2.3992       111.2703       0.306005         2.7879         2.3100         5.5770         4.1264       -72.0900      2133.4270      2153.4270
     2309.6218         9.8750        10.5679    -999.250000       105.3436         2.0861       119.0526       0.307997         2.7390         2.2910         5.4757         3.9280       -73.0821      2133.5625      2153.5625
     2309.7742         9.8750        10.5209    -999.250000       105.4999         1.8727       133.0855       0.306984         2.7462         2.2820         5.4591         3.8815       -72.9397      2133.6979      2153.6979
     2309.9266         9.8750        10.4879    -999.250000       105.5630         1.6328       147.8039       0.300987         2.8172         2.2800         5.6778         4.0162       -73.3574      2133.8334      2153.8334
     2310.0790         9.8750        10.4511    -999.250000       106.2187         1.4273       156.5676       0.296026         2.8870         2.2780         5.9806         4.2007       -73.8326      2133.9689      2153.9689
     2310.2314         9.8750        10.4732    -999.250000       106.6558         1.6822       158.3380       0.306068         2.9039         2.2740         6.0437         4.1209       -73.8830      2134.1043      2154.1043
     2310.3838         9.8750        10.5470    -999.250000       106.7809         2.5088       156.0157       0.332060         2.8538         2.2720         5.9592         4.3161       -75.2107      2134.2398      2154.2398
     2310.5362         9.8750        10.5508    -999.250000       106.7190         3.3136       150.1325       0.355010         2.7898         2.2740         5.7622         4.2539       -75.5175      2134.3753      2154.3753
     2310.6886         9.8750        10.4789    -999.250000       106.2192         3.4047       141.1284       0.358961         2.7128         2.2720         5.5799         3.8122       -74.9356      2134.5107      2154.5107
     2310.8410         9.8750        10.4259    -999.250000       105.4063         2.6642       130.5659       0.343953         2.6370         2.2600         5.5676         3.8060       -74.6035      2134.6462      2154.6462
     2310.9934         9.8750        10.4059    -999.250000       104.6253         1.7254       119.8053       0.325966         2.6262         2.2430         5.7597         4.2282       -74.5000      2134.7816      2154.7816
     2311.1458         9.8750        10.3750    -999.250000       104.1882         1.2341       111.1143       0.312992         2.7063         2.2401         6.0752         4.3396       -74.4787      2134.9171      2154.9171
     2311.2982         9.8750        10.3591    -999.250000       104.2190         1.5356       107.0187       0.310021         2.8101         2.2601         6.3388         4.1920       -74.4390      2135.0526      2155.0526
     2311.4506         9.8750        10.4142       0.007010       104.7188         2.4017       108.0711       0.318021         2.8520         2.2901         6.2978         4.0496       -74.6000      2135.1880      2155.1880
     2311.6030         9.8750        10.4881       0.010992       105.5936         3.0664       111.1756       0.325992         2.8640         2.3100         6.1141         3.9319       -73.9178      2135.3235      2155.3235
     2311.7554         9.8750        10.5160       0.007984       106.5626         2.9451       112.5568       0.322987         2.8609         2.3089         5.8642         3.9163       -74.0825      2135.4589      2155.4589
     2311.9078         9.8750        10.5120    -999.250000       106.9059         2.3390       110.1710       0.318018         2.8087         2.2869         5.6271         4.1004       -74.0460      2135.5944      2155.5944
     2312.0602         9.8750        10.4959    -999.250000       106.7191         1.9537       103.6690       0.325034         2.7078         2.2560         5.7114         4.1167       -74.6820      2135.7299      2155.7299
     2312.2126         9.8750        10.4609    -999.250000       106.0633         2.0870        96.3867       0.337995         2.6350         2.2410         6.0814         4.1634       -73.6426      2135.8653      2155.8653
     2312.3650         9.8750        10.4340    -999.250000       104.8445         2.2199        94.7475       0.335963         2.6481         2.2511         6.3599         4.6120       -72.9967      2136.0008      2156.0008
     2312.5174         9.8750        10.4532    -999.250000       104.2502         2.1931        99.9073       0.321976         2.7051         2.2730         6.4252         5.7849       -72.4176      2136.1363      2156.1363
