~Version Information Block
VERS .                 2.00:  CWLS LOG ASCII STANDARD - VERSION 2.00
WRAP .                   NO:  One line per depth step
~Well Information Block
#MNEM.UNIT        Data Type   Information
#---------- ----------------  -----------
STRT .M              0.0000:  START DEPTH
STOP .M           2799.8928:  STOP DEPTH
STEP .M              0.1524:  STEP
NULL .              -999.25:  NULL VALUE
COMP .                     :  COMPANY
WELL .              GABO-18:  WELL
FLD  .                     :  FIELD
LOC  .   6.635779, 5.238893:  LOCATION
CTRY .                     :  COUNTRY
STAT .                     :  STATE
CNTY .                     :  COUNTY
API  .                     :  API NUMBER
UWI  .                     :  UNIQUE WELL ID
SRVC .                     :  SERVICE COMPANY
DATE .                     :  LOG DATE
~Curve Information Block
#MNEM.UNIT         API CODE   Curve Description
#---------- ----------------  -----------------
DEPTH.M                    :  Reference Depth
BS_COMP.INCHES             :  Bit Size
CALI_COMP.INCHES          0:  Caliper
DRHO_COMP.G/C3            0:  Density Correction Log
ECART_COMP.                :  Neutron Density Seperation
GR   .GAPI                0:  Gamma Ray
GR_COMP.GAPI              0:  Gamma Ray Composite
NPHI .V/V                  :  Neutron Porosity
NPHI_COMP.V/V              :  Neutron Porosity Composite
PEF_COMP.B/E              0:  Photo Electric Factor
RHOB_COMP.G/C3            0:  Bulk Density
RT   .OHMM                0:  True or Deep Resistivity
RT_COMP.OHMM              0:  True or Deep Resistivity Composite
RXO  .OHMM                0:  Invaded Zone Resistivity
RXO_COMP.OHMM             0:  Invaded Zone Resistivity composite
SP_COMP.MV                0:  Spontaneous Potential
TVDSS_COMP.M               :  Reference tvdss log.
TVD_COMP.M                 :  Reference tvd log.
~Parameter Information Block
#MNEM.UNIT            Value   Description
#---------- ----------------  -----------
SET  .                  LCS:  
~Other Information Block
#        DEPTH        BS_COMP      CALI_COMP      DRHO_COMP     ECART_COMP             GR        GR_COMP           NPHI      NPHI_COMP       PEF_COMP      RHOB_COMP             RT        RT_COMP            RXO       RXO_COMP        SP_COMP     TVDSS_COMP       TVD_COMP 
~A
# ...
     2442.0576        12.2500        13.1121       0.032543         3.5649       107.6904       107.6904         0.3057       0.305711         2.7231         2.3687         5.5285         5.5285         6.7567         6.7567       -23.5687      2242.4259      2260.5259
     2442.2100        12.2500        13.0877       0.023905         3.8963       108.3824       108.3824         0.3155       0.315474         2.8031         2.3690         5.5131         5.5131         6.5694         6.5694       -23.9455      2242.5549      2260.6549
     2442.3624        12.2500        13.2017       0.022376         4.3951       110.2165       110.2165         0.3213       0.321298         2.8937         2.3843         5.5588         5.5588         6.4246         6.4246       -22.7098      2242.6839      2260.7839
     2442.5148        12.2500        13.4019       0.019701         4.1247       112.4102       112.4102         0.3096       0.309562         2.9827         2.3903         5.6177         5.6177         6.4195         6.4195       -22.0575      2242.8130      2260.9130
     2442.6672        12.2500        13.5742       0.014294         3.5784       115.3887       115.3887         0.2966       0.296603         3.0485         2.3846         5.6658         5.6658         6.4619         6.4619       -21.6813      2242.9420      2261.0420
     2442.8196        12.2500        13.6921       0.006510         3.1018       119.6010       119.6010         0.2930       0.292953         3.0911         2.3668         5.6910         5.6910         6.4908         6.4908       -21.5196      2243.0710      2261.1710
     2442.9720        12.2500        13.7590       0.002697         3.3092       126.4323       126.4323         0.3138       0.313806         3.1688         2.3424         5.6910         5.6910         6.4132         6.4132       -22.0602      2243.2001      2261.3001
     2443.1244        12.2500        13.7993       0.003870         3.2624       131.7890       131.7890         0.3196       0.319557         3.2771         2.3305         5.7147         5.7147         6.3816         6.3816       -22.1601      2243.3291      2261.4291
     2443.2768        12.2500        13.8923       0.005769         3.3571       136.2522       136.2522         0.3198       0.319799         3.4772         2.3349         5.7794         5.7794         6.3933         6.3933       -22.2496      2243.4582      2261.5582
     2443.4292        12.2500        13.9186       0.009207         3.7578       139.1371       139.1371         0.3179       0.317864         3.7385         2.3581         5.8872         5.8872         6.4151         6.4151       -22.0995      2243.5872      2261.6872
     2443.5816        12.2500        13.9594       0.020630         4.6272       137.7403       137.7403         0.3156       0.315601         3.9078         2.4054         6.0281         6.0281         6.3436         6.3436       -20.5917      2243.7163      2261.8163
     2443.7340        12.2500        14.0282       0.036756         6.2817       135.2420       135.2420         0.3377       0.337697         3.8159         2.4513         5.9651         5.9651         5.8876         5.8876       -17.7783      2243.8453      2261.9453
     2443.8864        12.2500        14.1250       0.040528         7.9309       134.1836       134.1836         0.3717       0.371698         3.7706         2.4771         5.6494         5.6494         5.1837         5.1837       -14.7727      2243.9744      2262.0744
     2444.0388        12.2500        14.1188       0.036394         9.3181       133.1848       133.1848         0.4073       0.407259         3.8076         2.4871         5.1187         5.1187         4.3501         4.3501       -11.6707      2244.1035      2262.2035
     2444.1912        12.2500        14.1298       0.037914        10.1899       128.8605       128.8605         0.4284       0.428379         3.9036         2.4955         4.4605         4.4605         3.5713         3.5713        -8.3234      2244.2326      2262.3326
     2444.3436        12.2500        14.1424       0.027936         9.5785       129.2186       129.2186         0.4197       0.419677         3.7451         2.4795         4.0357         4.0357         3.1548         3.1548        -5.4367      2244.3616      2262.4616
     2444.4960        12.2500        14.1280       0.017752         9.1774       130.7221       130.7221         0.4161       0.416137         3.5617         2.4653         3.7851         3.7851         2.9370         2.9370        -3.6016      2244.4907      2262.5907
     2444.6484        12.2500        14.1150       0.012222         8.9595       132.2430       132.2430         0.4139       0.413852         3.4479         2.4582         3.6348         3.6348         2.8596         2.8596        -2.4408      2244.6198      2262.7198
     2444.8008        12.2500        14.0236       0.015981         8.7690       132.6722       132.6722         0.4059       0.405875         3.4942         2.4620         3.5002         3.5002         2.8610         2.8610        -1.4417      2244.7489      2262.8489
     2444.9532        12.2500        13.9768       0.013699         9.6935       125.9133       125.9133         0.4345       0.434526         3.5216         2.4605         3.5177         3.5177         2.8618         2.8618        -0.1190      2244.8780      2262.9780
     2445.1056        12.2500        14.0558       0.011943        10.1824       119.0215       119.0215         0.4476       0.447568         3.5120         2.4632         3.5151         3.5151         2.9154         2.9154         0.5050      2245.0071      2263.1071
     2445.2580        12.2500        14.0696       0.011292        10.1624       115.9377       115.9377         0.4432       0.443178         3.5179         2.4695         3.5336         3.5336         3.0087         3.0087         0.3812      2245.1362      2263.2362
     2445.4104        12.2500        14.0598       0.011946         9.6336       119.1912       119.1912         0.4226       0.422565         3.5810         2.4774         3.5988         3.5988         3.1178         3.1178        -0.2717      2245.2653      2263.3653
     2445.5628        12.2500        14.0611       0.011185         9.1595       123.6283       123.6283         0.4134       0.413368         3.7250         2.4690         3.6392         3.6392         3.0874         3.0874         1.5105      2245.3944      2263.4944
     2445.7152        12.2500        14.0861       0.013308         8.8796       122.7903       122.7903         0.4093       0.409305         3.8384         2.4618         3.6449         3.6449         3.0292         3.0292         2.3599      2245.5236      2263.6236
     2445.8676        12.2500        14.1097       0.014998         9.0101       121.6007       121.6007         0.4155       0.415502         3.9489         2.4580         3.6440         3.6440         2.9734         2.9734         2.5969      2245.6527      2263.7527
     2446.0200        12.2500        14.0392       0.014899         9.4957       122.2408       122.2408         0.4301       0.430071         4.0486         2.4580         3.6461         3.6461         2.9379         2.9379         2.3617      2245.7818      2263.8818
     2446.1724        12.2500        13.9558       0.014137         9.4669       123.9545       123.9545         0.4292       0.429206         4.0235         2.4580         3.6316         3.6316         2.9448         2.9448         1.5986      2245.9109      2264.0109
     2446.3248        12.2500        13.9034       0.012750         9.3331       120.4259       120.4259         0.4286       0.428569         3.9953         2.4524         3.5521         3.5521         2.9054         2.9054         1.2207      2246.0401      2264.1401
     2446.4772        12.2500        13.9460       0.012001         8.9813       117.9659       117.9659         0.4224       0.422362         3.9202         2.4451         3.4747         3.4747         2.8586         2.8586         0.7596      2246.1692      2264.2692
