~Version Information Block
VERS .                 2.00:  CWLS LOG ASCII STANDARD - VERSION 2.00
WRAP .                   NO:  One line per depth step
~Well Information Block
#MNEM.UNIT        Data Type   Information
#---------- ----------------  -----------
STRT .M            800.1000:  START DEPTH
STOP .M           4245.4068:  STOP DEPTH
STEP .M              0.1524:  STEP
NULL .              -999.25:  NULL VALUE
COMP .                     :  COMPANY
WELL .               GABO51:  WELL
FLD  .                     :  FIELD
LOC  .   6.643728, 5.227344:  LOCATION
CTRY .                     :  COUNTRY
STAT .                     :  STATE
CNTY .                     :  COUNTY
API  .                     :  API NUMBER
UWI  .                     :  UNIQUE WELL ID
SRVC .                     :  SERVICE COMPANY
DATE .                     :  LOG DATE
~Curve Information Block
#MNEM.UNIT         API CODE   Curve Description
#---------- ----------------  -----------------
DEPTH.M                    :  Depth
DRHO_COMP.G/C3             :  Density Correction
DTSM_COMP.US/F             :  Shear Sonic
DT_COMP.US/F               :  Compressional Sonic
GR_COMP.GAPI               :  Gamma Ray
HCAL_COMP.INCHES           :  Caliper
NPHI_COMP.V/V              :  Neutron Porosity
PEF_COMP.B/E               :  Pho Electric Factor
RDEEP_COMP.OHMM            :  Deep Resistivity
RHOB_COMP.G/C3             :  Bulk Density
RSHAL_COMP.OHMM            :  Shallow Resistivity
TVDSS_COMP.M               :  Reference TVD sub-sea log.
TVD_COMP.M                 :  Reference TVD log.
~Parameter Information Block
#MNEM.UNIT            Value   Description
#---------- ----------------  -----------
SET  .                  LCS:  
~Other Information Block
#        DEPTH      DRHO_COMP      DTSM_COMP        DT_COMP        GR_COMP      HCAL_COMP      NPHI_COMP       PEF_COMP     RDEEP_COMP      RHOB_COMP     RSHAL_COMP     TVDSS_COMP       TVD_COMP 
~A
# ...
     2644.1400       0.003000       213.2101       201.7689        28.1358        12.5011       0.291100         1.5316         6.2277         2.1531         4.7689      2114.0884      2133.8684
     2644.2924      -0.002800       212.8898       201.9957        27.4522        12.4490       0.298600         1.5013         5.9020         2.1517         4.7901      2114.1920      2133.9720
     2644.4448       0.007800       211.1541       202.0012        27.0027        12.4044       0.312800         1.4950         5.5684         2.1529         4.7478      2114.2956      2134.0756
     2644.5972       0.009200       209.4338       203.1623        27.9585        12.4044       0.304400         1.5121         5.3430         2.1581         4.5898      2114.3991      2134.1791
     2644.7496       0.008000       208.6479       203.8835        26.4774        12.4155       0.291100         1.5493         5.6886         2.1648         4.6928      2114.5026      2134.2826
     2644.9020      -0.000900       208.3413       201.0674        25.8507        12.3895       0.265600         1.5572         5.5884         2.1709         4.5651      2114.6062      2134.3862
     2645.0544      -0.006700       207.7133       199.1080        25.8064        12.4155       0.260400         1.5253         5.4683         2.1721         4.4737      2114.7097      2134.4897
     2645.2068      -0.005600       206.8462       197.1198        24.7050        12.4155       0.268300         1.4890         5.3346         2.1707         4.4749      2114.8131      2134.5931
     2645.3592      -0.002200       206.4400       196.4440        24.3062        12.4044       0.273500         1.4867         5.2895         2.1717         4.4999      2114.9166      2134.6966
     2645.5116      -0.000400       206.1384       194.9585        24.6734        12.3448       0.262600         1.5076         5.2918         2.1766         4.5276      2115.0200      2134.8000
     2645.6640      -0.002600       205.4191       195.3267        28.2244        12.3448       0.262900         1.5447         5.2980         2.1783         4.5206      2115.1235      2134.9035
     2645.8164      -0.005800       205.5548       201.7908        30.5031        12.3448       0.261400         1.5662         5.4049         2.1766         4.5581      2115.2269      2135.0069
     2645.9688      -0.007000       207.1330       203.1280        32.2248        12.3485       0.247700         1.5898         5.1227         2.1735         4.5339      2115.3303      2135.1103
     2646.1212      -0.005700       208.9841       199.3888        34.5922        12.3448       0.233100         1.6034         5.1733         2.1842         4.7018      2115.4336      2135.2136
     2646.2736      -0.003800       210.3154       201.2967        42.7956        12.3485       0.228200         1.6213         5.2853         2.2025         4.7106      2115.5370      2135.3170
     2646.4260       0.002200       211.7513       205.9529        53.9867        12.3150       0.258100         1.6686         5.3086         2.2172         4.7441      2115.6404      2135.4204
     2646.5784       0.001000       214.1332       208.3295        63.6397        12.3076       0.289500         1.7415         5.3158         2.2114         4.7111      2115.7437      2135.5237
     2646.7308      -0.003800       216.9895       213.9477        68.1908        12.2927       0.315100         1.8296         5.2883         2.1858         4.7564      2115.8470      2135.6270
     2646.8832      -0.002700       220.1446       216.5174        73.0268        12.2816       0.342100         1.9375         5.0766         2.1545         4.6956      2115.9503      2135.7303
     2647.0356      -0.003300       223.5526       216.6226        78.4388        12.3002       0.335000         2.0374         5.0555         2.1417         4.6151      2116.0536      2135.8336
     2647.1880      -0.002200       225.4087       214.9880        86.1928        12.3225       0.327400         2.1559         5.0688         2.1609         4.6323      2116.1568      2135.9368
     2647.3404      -0.007200       224.3548       210.8537        88.9969        12.3374       0.318300         2.3137         5.2187         2.2067         4.7495      2116.2601      2136.0401
     2647.4928      -0.005600       220.4937       208.5425        91.7884        12.2927       0.330200         2.5408         5.3110         2.2402         4.9463      2116.3633      2136.1433
     2647.6452      -0.004500       215.7817       204.9636        96.0863        12.3039       0.328600         2.7516         5.3903         2.2610         5.1051      2116.4665      2136.2465
     2647.7976      -0.003100       212.7820       203.5658       102.0553        12.2704       0.331600         2.8657         5.5395         2.2921         5.1700      2116.5697      2136.3497
     2647.9500      -0.003000       211.7758       202.3013       101.9540        12.2629       0.333000         2.9086         5.4522         2.3332         5.0966      2116.6729      2136.4529
     2648.1024      -0.003200       211.5359       202.2218        97.6561        12.3597       0.313000         2.9222         5.4553         2.3404         5.0097      2116.7761      2136.5561
     2648.2548      -0.007400       211.6582       203.6980        96.4218        12.3820       0.313700         2.9054         5.5346         2.3028         4.9972      2116.8792      2136.6592
     2648.4072      -0.008400       213.7174       204.6992       102.9858        12.3002       0.318000         2.8340         5.3048         2.2629         4.9204      2116.9824      2136.7624
     2648.5596      -0.006800       216.7718       206.3828       110.3917        12.2406       0.331800         2.7680         5.2550         2.2598         5.0428      2117.0855      2136.8655
     2648.7120      -0.005200       217.9523       207.2572       114.5883        12.2592       0.321700         2.7198         5.5137         2.2723         5.0451      2117.1886      2136.9686
     2648.8644      -0.004000       217.5089       207.0204       113.5946        12.3225       0.310100         2.7030         5.6246         2.2764         5.0032      2117.2917      2137.0717
     2649.0168      -0.006200       216.3434       206.8010       106.7204        12.3039       0.320400         2.6954         5.6047         2.2709         5.1206      2117.3947      2137.1747
     2649.1692      -0.007900       215.6498       206.8706       100.7957        12.2034       0.335300         2.6926         5.5169         2.2653         5.1189      2117.4978      2137.2778
     2649.3216      -0.010400       216.8687       207.3786        90.9212        12.2257       0.336200         2.6657         5.4115         2.2588         5.0353      2117.6008      2137.3808
     2649.4740      -0.008800       219.1752       207.5282        88.5665        12.2257       0.332100         2.5925         5.3195         2.2363         5.0136      2117.7038      2137.4838
     2649.6264      -0.003900       221.6239       208.2598        82.7621        12.2257       0.338400         2.4877         5.3636         2.2085         5.1127      2117.8068      2137.5868
     2649.7788      -0.000600       223.5021       208.8833        84.6610        12.2555       0.337400         2.3930         5.3915         2.1880         5.2262      2117.9098      2137.6898
     2649.9312      -0.001100       224.4193       210.2072        85.4016        12.2629       0.324800         2.3059         5.4875         2.1963         5.3074      2118.0128      2137.7928
     2650.0836      -0.004500       224.5540       209.9482        87.6740        12.2555       0.307600         2.3072         5.5986         2.2180         5.4739      2118.1157      2137.8957
     2650.2360      -0.007200       223.3596       208.7106        87.0663        12.2555       0.286300         2.3430         5.6769         2.2399         5.5167      2118.2186      2137.9986
     2650.3884      -0.008500       222.2586       208.0056        84.8066        12.2592       0.292400         2.4026         5.6107         2.2466         5.3614      2118.3216      2138.1016
