~Version Information Block
VERS .                 2.00:  CWLS LOG ASCII STANDARD - VERSION 2.00
WRAP .                   NO:  One line per depth step
~Well Information Block
#MNEM.UNIT        Data Type   Information
#---------- ----------------  -----------
STRT .M           1084.4784:  START DEPTH
STOP .M           2540.6604:  STOP DEPTH
STEP .M              0.1524:  STEP
NULL .              -999.25:  NULL VALUE
COMP .                     :  COMPANY
WELL .               GABA17:  WELL
FLD  .                     :  FIELD
LOC  .   6.675366, 5.270403:  LOCATION
CTRY .                     :  COUNTRY
STAT .                     :  STATE
CNTY .                     :  COUNTY
API  .                     :  API NUMBER
UWI  .                     :  UNIQUE WELL ID
SRVC .                     :  SERVICE COMPANY
DATE .                     :  LOG DATE
~Curve Information Block
#MNEM.UNIT         API CODE   Curve Description
#---------- ----------------  -----------------
DEPTH.M                    :  Reference Depth
BS_COMP.INCHES             :  Bit Size
DRHO_COMP.G/C3             :  Density Correction
GR_COMP.GAPI               :  Gamma Ray
LLS_COMP.OHMM             0:  Resistivity
NPHI_COMP.V/V              :  Neutron Porosity
PEF_COMP.B/E               :  Photo Electric Factor
RHOB_COMP.G/C3             :  Bulk Density
RT_COMP.OHMM               :  True Resistivity
RXO_COMP.OHMM              :  Invaded Zone Resistivity
TVDSS_COMP.M               :  Reference TVD sub-sea log.
TVD_COMP.M                 :  Reference TVD log.
~Parameter Information Block
#MNEM.UNIT            Value   Description
#---------- ----------------  -----------
SET  .                  LCS:  
DEPTH_BOTTOM.M         2530:  Downhole depth
DEPTH_TOP.M            1787:  Downhole depth
UNDER_SAMPLING_RATE.      1:  Full sampling rate if equal to 1
~Other Information Block
#        DEPTH        BS_COMP      DRHO_COMP        GR_COMP       LLS_COMP      NPHI_COMP       PEF_COMP      RHOB_COMP        RT_COMP       RXO_COMP     TVDSS_COMP       TVD_COMP 
~A
# ...
     2483.5104         9.8750       0.090305       112.3144         2.7426       0.360229         3.6494         2.3910         2.4897         2.7454      2461.3887      2479.3887
     2483.6628         9.8750       0.081790       112.4157         2.6736       0.361694         3.6587         2.4009         2.4608         2.7129      2461.5409      2479.5409
     2483.8152         9.8750       0.075434       112.6541         2.6244       0.367098         3.6731         2.4133         2.4319         2.6804      2461.6932      2479.6932
     2483.9676         9.8750       0.078813       113.0640         2.6270       0.375853         3.6970         2.4263         2.4030         2.6478      2461.8455      2479.8455
     2484.1200         9.8750       0.085817       113.8401         2.6925       0.384757         3.7167         2.4384         2.4957         2.7557      2461.9978      2479.9978
     2484.2724         9.8750       0.085680       114.2436         2.8388       0.390916         3.7211         2.4486         2.6213         2.9015      2462.1501      2480.1501
     2484.4248         9.8750       0.076523       112.9549         3.0295       0.392972         3.7149         2.4561         2.7469         3.0474      2462.3023      2480.3023
     2484.5772         9.8750       0.065203       110.2498         3.2115       0.391968         3.7019         2.4594         2.8099         3.1399      2462.4546      2480.4546
     2484.7296         9.8750       0.055371       108.0030         3.3201       0.390062         3.6862         2.4544         2.8120         3.1805      2462.6069      2480.6069
     2484.8820         9.8750       0.042156       107.1425         3.3170       0.388344         3.6679         2.4340         2.8141         3.2211      2462.7592      2480.7592
     2485.0344         9.8750       0.024287       106.4298         3.2337       0.387719         3.5919         2.3898         2.8017         3.2365      2462.9115      2480.9115
     2485.1868         9.8750       0.011878       103.7099         3.1269       0.389259         3.4364         2.3276         2.7398         3.1654      2463.0637      2481.0637
     2485.3392         9.8750       0.017780        98.7225         3.0486       0.393018         3.2896         2.2685         2.6778         3.0944      2463.2160      2481.2160
     2485.4916         9.8750       0.035289        94.4908         3.0172       0.397047         3.2349         2.2363         2.6158         3.0233      2463.3683      2481.3683
     2485.6440         9.8750       0.049273        94.6045         3.0567       0.400339         3.2452         2.2504         2.7436         3.1812      2463.5206      2481.5206
     2485.7964         9.8750       0.054225        98.6700         3.1870       0.403327         3.2936         2.2988         2.8826         3.3525      2463.6729      2481.6729
     2485.9488         9.8750       0.052956       104.8061         3.4548       0.404984         3.4510         2.3626         3.0215         3.5237      2463.8252      2481.8252
     2486.1012         9.8750       0.050461       110.2391         3.8310       0.403284         3.6240         2.4163         3.1778         3.6998      2463.9774      2481.9774
     2486.2536         9.8750       0.046677       114.0325         4.1852       0.395607         3.7182         2.4479         3.3429         3.8783      2464.1297      2482.1297
     2486.4060         9.8750       0.040902       117.2049         4.3041       0.382510         3.7411         2.4655         3.5080         4.0568      2464.2820      2482.2820
     2486.5584         9.8750       0.034139       120.3754         4.0818       0.362040         3.7638         2.4740         3.5197         4.0631      2464.4343      2482.4343
     2486.7108         9.8750       0.029441       123.1220         3.7388       0.335285         3.7940         2.4783         3.2847         3.7921      2464.5866      2482.5866
     2486.8632         9.8750       0.027113       124.4377         3.4463       0.307050         3.8000         2.4802         3.0497         3.5210      2464.7389      2482.7389
     2487.0156         9.8750       0.023414       123.7456         3.2585       0.285657         3.7198         2.4795         2.8318         3.2708      2464.8911      2482.8911
     2487.1680         9.8750       0.017942       120.8190         3.1558       0.277410         3.5782         2.4725         2.7647         3.2034      2465.0434      2483.0434
     2487.3204         9.8750       0.016106       117.3878         3.0985       0.283903         3.4813         2.4574         2.6975         3.1359      2465.1957      2483.1957
     2487.4728         9.8750       0.022679       115.6983         3.0623       0.302732         3.4676         2.4387         2.6303         3.0684      2465.3480      2483.3480
     2487.6252         9.8750       0.033098       116.2076         3.0293       0.325040         3.4766         2.4258         2.5915         3.0124      2465.5003      2483.5003
     2487.7776         9.8750       0.040823       117.0130         2.9873       0.344326         3.4980         2.4223         2.5588         2.9588      2465.6526      2483.6526
     2487.9300         9.8750       0.043630       116.1291         2.9205       0.358058         3.5326         2.4261         2.5261         2.9053      2465.8049      2483.8049
     2488.0824         9.8750       0.045278       114.0278         2.8337       0.367244         3.5563         2.4328         2.4750         2.8307      2465.9571      2483.9571
     2488.2348         9.8750       0.047536       112.9153         2.7358       0.374093         3.5916         2.4409         2.4082         2.7382      2466.1094      2484.1094
     2488.3872         9.8750       0.046413       113.1151         2.6418       0.380696         3.6813         2.4512         2.3414         2.6457      2466.2617      2484.2617
     2488.5396         9.8750       0.040055       113.1230         2.5547       0.387864         3.7110         2.4630         2.2710         2.5488      2466.4140      2484.4140
     2488.6920         9.8750       0.032943       112.0749         2.4627       0.395690         3.6971         2.4721         2.1903         2.4393      2466.5663      2484.5663
     2488.8444         9.8750       0.030739       110.4539         2.3499       0.405418         3.6809         2.4729         2.1096         2.3297      2466.7186      2484.7186
     2488.9968         9.8750       0.034412       109.1463         2.2200       0.418292         3.6674         2.4666         2.0289         2.2201      2466.8709      2484.8709
     2489.1492         9.8750       0.042375       108.1960         2.1138       0.434637         3.6593         2.4577         2.0939         2.2686      2467.0232      2485.0232
     2489.3016         9.8750       0.050035       107.4455         2.1031       0.450335         3.6506         2.4515         2.1620         2.3204      2467.1755      2485.1755
     2489.4540         9.8750       0.053571       107.0643         2.2558       0.459213         3.6386         2.4504         2.2301         2.3722      2467.3277      2485.3277
     2489.6064         9.8750       0.052804       107.1312         2.6935       0.460966         3.6350         2.4521         2.9341         3.1372      2467.4800      2485.4800
     2489.7588         9.8750       0.052148       107.6289         3.5283       0.459355         3.6432         2.4553         3.9130         4.2105      2467.6323      2485.6323
     2489.9112         9.8750       0.058106       108.7096         4.9615       0.458671         3.6494         2.4615         4.8919         5.2838      2467.7846      2485.7846
     2490.0636         9.8750       0.071800       111.8894         6.5880       0.453261         3.6418         2.4756         5.4563         5.8661      2467.9369      2485.9369
     2490.2160         9.8750       0.083626       120.3885         7.1020       0.430668         3.6440         2.5000         5.4418         5.7627      2468.0892      2486.0892
