~Version Information Block
VERS .                 2.00:  CWLS LOG ASCII STANDARD - VERSION 2.00
WRAP .                   NO:  One line per depth step
~Well Information Block
#MNEM.UNIT        Data Type   Information
#---------- ----------------  -----------
STRT .M              0.0000:  START DEPTH
STOP .M           2748.9912:  STOP DEPTH
STEP .M              0.1524:  STEP
NULL .              -999.25:  NULL VALUE
COMP .                     :  COMPANY
WELL .               GABO13:  LOCATION
FLD  .                     :  FIELD
LOC  .   6.617986, 5.233868:  LOCATION
CTRY .                     :  COUNTRY
STAT .                     :  STATE
CNTY .                     :  COUNTY
API  .                     :  API NUMBER
UWI  .                     :  UNIQUE WELL ID
SRVC .                     :  SERVICE COMPANY
DATE .                     :  LOG DATE
~Curve Information Block
#MNEM.UNIT         API CODE   Curve Description
#---------- ----------------  -----------------
DEPTH.M                    :  Depth
BS_COMP.INCHES             :  Bit Size
CALI_COMP.INCHES          0:  Caliper
DRHO_COMP.G/C3             :  Density Correction Log
DT_COMP.US/F              0:  Compressional Sonic
ECART_COMP.                :  Neutron Density Seperation
GR_COMP.GAPI              0:  Gamma Ray
NPHI_COMP.V/V              :  Neutron Porosity
PEF_COMP.B/E              0:  Photo Electric Factor
RHOB_COMP.G/C3            0:  Bulk Density
RDeep_COMP.OHMM           0:  Deep Resistivity
RShal_COMP.OHMM           0:  Shallow Resistivity
SP_COMP.MV                0:  Spontaneous Potential
TVDSS_COMP.M               :  Reference TVD sub-sea log.
TVD_COMP.M                 :  Reference TVD log.
~Parameter Information Block
#MNEM.UNIT            Value   Description
#---------- ----------------  -----------
SET  .                  LCS:  
~Other Information Block
#        DEPTH        BS_COMP      CALI_COMP      DRHO_COMP        DT_COMP     ECART_COMP        GR_COMP      NPHI_COMP       PEF_COMP      RHOB_COMP      RDeep_COMP     RShal_COMP        SP_COMP     TVDSS_COMP       TVD_COMP 
~A
# ...
     2048.8656        12.2500        13.9842       0.038529       112.3116         4.8877       101.9389       0.386051         2.9562         2.3010         3.7223         2.1352         2.7222      2034.8195      2048.6195
     2049.0180        12.2500        14.3637       0.040731       115.7585         5.6942       101.4253       0.413424         2.9338         2.2957         3.5812         1.8148         3.4077      2034.9719      2048.7719
     2049.1704        12.2500        14.7303       0.046141       118.9614         7.1170        95.4866       0.456768         2.9328         2.2946         3.5401         1.5859         3.9664      2035.1242      2048.9242
     2049.3228        12.2500        14.8912       0.045800       121.1698         8.4709        80.7511       0.502684         2.9825         2.2857         3.6803         1.5056         4.3584      2035.2766      2049.0766
     2049.4752        12.2500        14.6807       0.043340       120.8858         8.7056        63.4449       0.516617         3.0627         2.2743         4.0088         1.6026         4.5411      2035.4289      2049.2289
     2049.6276        12.2500        14.2673       0.044338       118.1609         7.0755        51.4496       0.470318         3.1282         2.2699         4.4496         1.8998         4.6437      2035.5813      2049.3813
     2049.7800        12.2500        13.8740       0.045279       113.8157         4.0130        48.4351       0.379729         3.1070         2.2678         4.9189         2.4182         4.8135      2035.7336      2049.5336
     2049.9324        12.2500        13.8183       0.037146       108.6142         1.2556        52.3585       0.307855         2.9073         2.2497         5.3491         3.0729         5.0036      2035.8860      2049.6860
     2050.0848        12.2500        13.8711       0.023267       104.4821        -0.4038        59.6342       0.278241         2.5863         2.2161         5.7068         3.5332         5.0288      2036.0383      2049.8383
     2050.2372        12.2500        13.9560       0.010914       102.4640        -1.0573        68.4137       0.278944         2.2994         2.1822         6.0074         3.6292         5.0232      2036.1907      2049.9907
     2050.3896        12.2500        14.0678       0.001663       102.2048        -1.2682        76.5745       0.287193         2.1314         2.1579         6.2788         3.4631         5.1416      2036.3430      2050.1430
     2050.5420        12.2500        14.0960      -0.005972       102.6305        -1.9105        79.0044       0.275488         2.0597         2.1453         6.5142         3.2945         5.3146      2036.4954      2050.2954
     2050.6944        12.2500        14.1026      -0.010132       102.6740        -2.8927        81.0797       0.246219         2.0150         2.1450         6.6575         3.3364         5.4802      2036.6477      2050.4477
     2050.8468        12.2500        13.8602      -0.009311       102.1245        -3.3147        83.0333       0.227201         1.9913         2.1556         6.7518         3.5935         5.7060      2036.8001      2050.6001
     2050.9992        12.2500        13.4416      -0.004811       101.8657        -2.5650        82.2556       0.238949         2.0185         2.1735         6.8866         3.8883         5.9677      2036.9524      2050.7524
     2051.1516        12.2500        13.2693       0.001094       102.7693        -0.8090        75.8165       0.281313         2.0966         2.1907         7.0913         3.9899         6.1211      2037.1048      2050.9048
     2051.3040        12.2500        13.4164       0.008046       103.8760         0.7439        68.2873       0.325825         2.1622         2.1941         7.2593         3.8675         6.1652      2037.2571      2051.0571
     2051.4564        12.2500        13.5682       0.016884       104.6476         1.3118        63.0710       0.350294         2.1826         2.1818         7.2958         3.6839         6.3180      2037.4095      2051.2095
     2051.6088        12.2500        13.5807       0.028431       105.3403         0.9431        60.9973       0.352486         2.1674         2.1597         7.2071         3.5397         6.6152      2037.5618      2051.3618
     2051.7612        12.2500        13.4266       0.043400       106.1807         0.1350        62.3309       0.341217         2.1437         2.1381         7.0432         3.4393         6.9020      2037.7142      2051.5142
     2051.9136        12.2500        13.2347       0.060638       107.2066        -0.3717        63.9192       0.331518         2.1460         2.1289         6.8412         3.3647         7.0910      2037.8665      2051.6665
     2052.0660        12.2500        13.0899       0.072662       108.4775        -0.4974        64.7729       0.329227         2.1563         2.1264         6.6408         3.3194         7.2436      2038.0189      2051.8189
     2052.2184        12.2500        12.9836       0.069319       109.6840        -0.7103        64.4232       0.326609         2.1351         2.1201         6.4799         3.3042         7.3520      2038.1712      2051.9712
     2052.3708        12.2500        12.8945       0.048963       110.4502        -1.2611        62.4090       0.316627         2.0740         2.1092         6.3760         3.3047         7.3884      2038.3236      2052.1236
     2052.5232        12.2500        12.8350       0.027289       110.8923        -1.7047        59.8370       0.307038         2.0091         2.1030         6.3166         3.3078         7.4733      2038.4759      2052.2759
     2052.6756        12.2500        12.8118       0.017421       111.2906        -1.5841        58.6211       0.310847         1.9603         2.1027         6.2830         3.3307         7.7077      2038.6283      2052.4283
     2052.8280        12.2500        12.7784       0.017702       111.5164        -1.1230        58.3125       0.323467         1.9266         2.1047         6.2651         3.3695         7.9300      2038.7806      2052.5806
     2052.9804        12.2500        12.7033       0.020979       111.4654        -0.8366        57.7739       0.330760         1.9203         2.1069         6.2552         3.3919         7.9758      2038.9330      2052.7330
     2053.1328        12.2500        12.6100       0.021645       111.3770        -1.0349        55.1110       0.324904         1.9611         2.1068         6.2434         3.3632         7.9026      2039.0853      2052.8853
     2053.2852        12.2500        12.5184       0.020348       111.3214        -1.4285        52.0014       0.315668         2.0116         2.1025         6.2134         3.2980         7.8525      2039.2377      2053.0377
     2053.4376        12.2500        12.4616       0.021450       111.3277        -1.7788        51.0962       0.307952         2.0304         2.0978         6.1252         3.2395         7.8690      2039.3900      2053.1900
     2053.5900        12.2500        12.4457       0.024499       111.4690        -1.9766        52.5109       0.302651         2.0198         2.0968         5.9890         3.2096         7.9274      2039.5424      2053.3424
     2053.7424        12.2500        12.4349       0.023795       111.7436        -1.8710        53.2684       0.304759         2.0110         2.0985         5.8761         3.2066         8.0167      2039.6947      2053.4947
     2053.8948        12.2500        12.4304       0.020699       111.9877        -1.5562        53.7034       0.314465         2.0123         2.0981         5.8020         3.2287         8.1326      2039.8471      2053.6471
     2054.0472        12.2500        12.4300       0.024072       112.0678        -1.3914        53.5141       0.321850         1.9991         2.0940         5.7558         3.2654         8.1515      2039.9994      2053.7994
     2054.1996        12.2500        12.4315       0.032582       112.0040        -1.6487        53.5531       0.317932         1.9611         2.0877         5.7307         3.3027         8.1657      2040.1518      2053.9518
