~Version Information Block
VERS .                 2.00:  CWLS LOG ASCII STANDARD - VERSION 2.00
WRAP .                   NO:  One line per depth step
~Well Information Block
#MNEM.UNIT        Data Type   Information
#---------- ----------------  -----------
STRT .M            800.1000:  START DEPTH
STOP .M           4245.4068:  STOP DEPTH
STEP .M              0.1524:  STEP
NULL .              -999.25:  NULL VALUE
COMP .                     :  COMPANY
WELL .               GABO51:  WELL
FLD  .                     :  FIELD
LOC  .   6.643728, 5.227344:  LOCATION
CTRY .                     :  COUNTRY
STAT .                     :  STATE
CNTY .                     :  COUNTY
API  .                     :  API NUMBER
UWI  .                     :  UNIQUE WELL ID
SRVC .                     :  SERVICE COMPANY
DATE .                     :  LOG DATE
~Curve Information Block
#MNEM.UNIT         API CODE   Curve Description
#---------- ----------------  -----------------
DEPTH.M                    :  Depth
DRHO_COMP.G/C3             :  Density Correction
DTSM_COMP.US/F             :  Shear Sonic
DT_COMP.US/F               :  Compressional Sonic
GR_COMP.GAPI               :  Gamma Ray
HCAL_COMP.INCHES           :  Caliper
NPHI_COMP.V/V              :  Neutron Porosity
PEF_COMP.B/E               :  Pho Electric Factor
RDEEP_COMP.OHMM            :  Deep Resistivity
RHOB_COMP.G/C3             :  Bulk Density
RSHAL_COMP.OHMM            :  Shallow Resistivity
TVDSS_COMP.M               :  Reference TVD sub-sea log.
TVD_COMP.M                 :  Reference TVD log.
~Parameter Information Block
#MNEM.UNIT            Value   Description
#---------- ----------------  -----------
SET  .                  LCS:  
~Other Information Block
#        DEPTH      DRHO_COMP      DTSM_COMP        DT_COMP        GR_COMP      HCAL_COMP      NPHI_COMP       PEF_COMP     RDEEP_COMP      RHOB_COMP     RSHAL_COMP     TVDSS_COMP       TVD_COMP 
~A
# ...
     3975.5064      -0.006000       151.1063       154.1315        47.3976        12.2592       0.231100         1.7049         3.2784         2.2113         4.0378      3123.0676      3142.8476
     3975.6588      -0.004600       151.0490       146.5889        48.4610        12.2853       0.222100         1.7146         3.1427         2.2142         3.8628      3123.1857      3142.9657
     3975.8112      -0.006000       150.7491       146.1768        48.6763        12.2927       0.218400         1.7507         3.1574         2.2251         3.6803      3123.3039      3143.0839
     3975.9636      -0.007500       150.6088       145.6752        53.0058        12.3262       0.213600         1.7899         3.3219         2.2373         3.9058      3123.4221      3143.2021
     3976.1160      -0.008700       150.5458       144.7488        57.7532        12.3374       0.217800         1.8110         3.4249         2.2366         4.2032      3123.5402      3143.3202
     3976.2684      -0.008100       150.2081       145.3767        65.2477        12.3299       0.221200         1.8111         3.5660         2.2288         4.5899      3123.6584      3143.4384
     3976.4208      -0.008800       149.4784       145.5257        68.3240        12.3002       0.222800         1.8148         3.8637         2.2189         5.0109      3123.7765      3143.5565
     3976.5732      -0.009400       147.9471       145.6246        73.0587        12.2853       0.241500         1.8601         4.1775         2.2155         5.3804      3123.8947      3143.6747
     3976.7256      -0.006200       145.7129       145.8142        81.0342        12.2704       0.236100         1.9603         4.4482         2.2464         5.6383      3124.0128      3143.7928
     3976.8780      -0.002900       143.6595       143.6968        86.4905        12.2704       0.235200         2.1274         4.3205         2.3139         5.3942      3124.1309      3143.9109
     3977.0304       0.000000       142.1985       138.7943        93.4850        12.2927       0.227400         2.3582         4.4845         2.4055         5.9969      3124.2490      3144.0290
     3977.1828      -0.000800       141.3768       137.8084        90.1808        12.3746       0.241700         2.5817         4.5728         2.4624         6.1089      3124.3671      3144.1471
     3977.3352      -0.003300       141.1095       138.5016        87.2311        12.3895       0.243300         2.6964         4.6694         2.4598         6.1278      3124.4852      3144.2652
     3977.4876      -0.006500       141.5014       137.8789        78.2998        12.3969       0.248000         2.5786         5.1702         2.4078         6.8064      3124.6033      3144.3833
     3977.6400      -0.009300       142.8700       137.5403        66.1085        12.3597       0.233200         2.3189         4.8964         2.3467         6.1235      3124.7214      3144.5014
     3977.7924      -0.011500       144.7670       137.9160        57.1076        12.3299       0.225500         2.0393         4.7997         2.2987         5.9194      3124.8395      3144.6195
     3977.9448      -0.010800       146.0342       139.1117        47.6382        12.2927       0.224700         1.8848         4.2129         2.2615         4.7482      3124.9576      3144.7376
     3978.0972      -0.009700       146.4099       138.6277        50.7144        12.2927       0.237900         1.8232         3.8924         2.2220         4.2248      3125.0756      3144.8556
     3978.2496      -0.009100       146.5782       139.3639        55.7783        12.2927       0.249000         1.8132         3.5911         2.1993         3.9262      3125.1937      3144.9737
     3978.4020      -0.008800       146.8796       139.7091        64.1969        12.3597       0.250900         1.8473         3.2112         2.2229         3.5915      3125.3117      3145.0917
     3978.5544      -0.006100       147.1743       139.1930        66.5263        12.3932       0.232900         1.9554         3.1537         2.3028         3.6188      3125.4298      3145.2098
     3978.7068      -0.002900       146.9291       139.0971        66.0199        12.4490       0.222300         2.1513         3.2555         2.3785         3.6757      3125.5478      3145.3278
     3978.8592      -0.001700       146.0002       139.3523        66.8555        12.4416       0.236600         2.2996         3.4834         2.3985         4.0232      3125.6658      3145.4458
     3979.0116      -0.003700       145.1927       139.8834        68.3999        12.3523       0.247400         2.3322         3.8887         2.3520         4.6725      3125.7838      3145.5638
     3979.1640      -0.005400       146.0708       141.4670        72.7802        12.3225       0.252000         2.2998         4.6278         2.3075         5.8945      3125.9018      3145.6818
     3979.3164       0.008700       148.8794       143.0701        83.2244        12.3076       0.252000         2.4072         5.0454         2.3561         5.8602      3126.0198      3145.7998
     3979.4688       0.023300       151.7451       145.4864        92.8710        12.3225       0.285000         2.7197         4.9901         2.4468         5.5879      3126.1378      3145.9178
     3979.6212       0.023300       153.5126       148.4822       100.1123        12.4267       0.335300         3.0311         4.8057         2.5076         4.9363      3126.2558      3146.0358
     3979.7736       0.007200       154.3685       148.2342        96.8778        12.5272       0.333900         3.1549         3.9180         2.4977         4.2146      3126.3738      3146.1538
     3979.9260      -0.007900       154.6208       148.2023        94.4091        12.5234       0.283900         3.0967         3.6453         2.4742         3.7467      3126.4918      3146.2718
     3980.0784      -0.007700       154.2408       142.0684        87.0602        12.4713       0.262500         3.0064         3.5039         2.4612         3.8817      3126.6098      3146.3898
     3980.2308      -0.004000       153.6709       140.9081        84.8258        12.3932       0.277600         2.8660         3.5610         2.4292         4.0418      3126.7277      3146.5077
     3980.3832      -0.000300       153.2061       139.9688        72.5523        12.2927       0.271900         2.6279         3.6341         2.3694         4.2056      3126.8457      3146.6257
     3980.5356       0.000400       152.2188       138.1832        63.7285        12.2927       0.253100         2.3304         4.3016         2.3166         4.6284      3126.9636      3146.7436
     3980.6880       0.000900       150.3220       137.3807        53.0185        12.3076       0.215600         2.1257         5.0233         2.3110         5.1397      3127.0815      3146.8615
     3980.8404       0.002900       147.8871       136.7671        46.9482        12.3150       0.202700         2.0750         5.3405         2.3156         5.3560      3127.1995      3146.9795
     3980.9928       0.003300       146.0123       135.7527        42.9668        12.3076       0.206400         2.0312         4.9704         2.3029         5.1450      3127.3174      3147.0974
     3981.1452       0.001100       145.2686       130.9800        40.8020        12.3374       0.223000         1.9333         4.4216         2.2565         4.7058      3127.4353      3147.2153
     3981.2976      -0.004300       145.6053       131.1703        40.7387        12.3820       0.226600         1.7973         4.3914         2.2260         4.7742      3127.5532      3147.3332
     3981.4500      -0.004100       146.1188       131.5211        41.2767        12.3932       0.221300         1.7167         4.2785         2.2313         4.9679      3127.6711      3147.4511
     3981.6024      -0.003400       145.3815       131.9712        41.0488        12.3485       0.218100         1.7209         3.6779         2.2451         4.0791      3127.7890      3147.5690
     3981.7548      -0.002400       143.7299       137.4841        39.1119        12.2704       0.213300         1.7464         3.2181         2.2536         3.5193      3127.9069      3147.6869
