~Version Information Block
VERS .                 2.00:  CWLS LOG ASCII STANDARD - VERSION 2.00
WRAP .                   NO:  One line per depth step
~Well Information Block
#MNEM.UNIT        Data Type   Information
#---------- ----------------  -----------
STRT .M              0.0000:  START DEPTH
STOP .M           2731.4652:  STOP DEPTH
STEP .M              0.1524:  STEP
NULL .              -999.25:  NULL VALUE
COMP .                     :  COMPANY
WELL .              GABO-19:  WELL
FLD  .                     :  FIELD
LOC  .   6.687920, 5.237424:  LOCATION
CTRY .                     :  COUNTRY
STAT .                     :  STATE
CNTY .                     :  COUNTY
API  .                     :  API NUMBER
UWI  .                     :  UNIQUE WELL ID
SRVC .                     :  SERVICE COMPANY
DATE .                     :  LOG DATE
~Curve Information Block
#MNEM.UNIT         API CODE   Curve Description
#---------- ----------------  -----------------
DEPTH.M                    :  Reference TVD log.
BS_COMP.INCHES             :  BIT SIZE
DRHO_COMP.G/C3            0:  Density Correction
GR_COMP.GAPI              0:  Gamma Ray
LLS_COMP.OHMM             0:  Deep Laterolog resistivity
NPHI_COMP.V/V              :  Neutron Porosity
PEF_COMP.B/E              0:  Photo Electric Facotr
RHOB_COMP.G/C3            0:  Bulk Density
RT_COMP.OHMM              0:  True Resistivity
RXO_COMP.OHMM             0:  Invaded Zone Resistivity
SP_COMP.MV                0:  Spontaneous Potential
TVDSS_COMP.M               :  Reference TVD sub-sea log.
TVD_COMP.M                 :  Reference TVD log.
~Parameter Information Block
#MNEM.UNIT            Value   Description
#---------- ----------------  -----------
SET  .                  LCS:  
~Other Information Block
#        DEPTH        BS_COMP      DRHO_COMP        GR_COMP       LLS_COMP      NPHI_COMP       PEF_COMP      RHOB_COMP        RT_COMP       RXO_COMP        SP_COMP     TVDSS_COMP       TVD_COMP 
~A
# ...
     2407.6152         9.8750       0.052789       109.1468         2.9736       0.440123         3.5718         2.4554         3.8085         2.6138        64.6376      2182.0358      2200.0358
     2407.7676         9.8750       0.054804       108.4726         2.9564       0.444950         3.5981         2.4498         3.8069         2.5911        64.7880      2182.1735      2200.1735
     2407.9200         9.8750       0.055425       108.8388         2.9285       0.449177         3.6248         2.4431         3.7867         2.5637        64.9583      2182.3112      2200.3112
     2408.0724         9.8750       0.058180       110.2032         2.8920       0.452556         3.6402         2.4371         3.7495         2.5302        65.1112      2182.4489      2200.4489
     2408.2248         9.8750       0.065408       111.0644         2.8549       0.453774         3.6391         2.4346         3.7054         2.4972        65.2170      2182.5866      2200.5866
     2408.3772         9.8750       0.074439       110.7739         2.8307       0.453055         3.6267         2.4376         3.6728         2.4744        65.2769      2182.7244      2200.7244
     2408.5296         9.8750       0.078802       110.1180         2.8309       0.453201         3.6139         2.4455         3.6747         2.4705        65.3080      2182.8621      2200.8621
     2408.6820         9.8750       0.076714       109.9013         2.8598       0.455860         3.6101         2.4552         3.7178         2.4856        65.3067      2182.9998      2200.9998
     2408.8344         9.8750       0.069407       110.1203         2.9021       0.458859         3.6209         2.4629         3.7844         2.5219        65.2373      2183.1375      2201.1375
     2408.9868         9.8750       0.059056       110.5516         2.9304       0.458777         3.6337         2.4672         3.8294         2.5709        65.0845      2183.2752      2201.2752
     2409.1392         9.8750       0.050604       111.2766         2.9146       0.454583         3.6286         2.4687         3.8089         2.6038        64.8816      2183.4130      2201.4130
     2409.2916         9.8750       0.048142       112.4668         2.8603       0.448305         3.6142         2.4700         3.7325         2.5877        64.6977      2183.5507      2201.5507
     2409.4440         9.8750       0.052999       113.4161         2.7842       0.441848         3.6260         2.4714         3.6311         2.5178        64.5732      2183.6884      2201.6884
     2409.5964         9.8750       0.060301       113.3136         2.7094       0.437129         3.6637         2.4708         3.5358         2.4482        64.4671      2183.8262      2201.8262
     2409.7488         9.8750       0.063854       111.5648         2.6482       0.436455         3.6367         2.4654         3.4617         2.4126        64.3340      2183.9639      2201.9639
     2409.9012         9.8750       0.063456       109.1636         2.6016       0.438755         3.4882         2.4559         3.4056         2.3969        64.1752      2184.1017      2202.1017
     2410.0536         9.8750       0.062482       107.4637         2.5739       0.441312         3.3850         2.4441         3.3744         2.3852        64.0484      2184.2394      2202.2394
     2410.2060         9.8750       0.063747       107.0491         2.5632       0.441964         3.3856         2.4329         3.3665         2.3819        64.0039      2184.3772      2202.3772
     2410.3584         9.8750       0.069369       107.9379         2.5713       0.441738         3.3975         2.4240         3.3823         2.4115        64.0700      2184.5149      2202.5149
     2410.5108         9.8750       0.076595       109.6004         2.5856       0.443139         3.3980         2.4170         3.4025         2.4531        64.1955      2184.6527      2202.6527
     2410.6632         9.8750       0.079298       111.3954         2.5874       0.446995         3.4125         2.4131         3.3977         2.4735        64.3313      2184.7904      2202.7904
     2410.8156         9.8750       0.074954       112.0781         2.5640       0.452327         3.4390         2.4129         3.3505         2.4781        64.4513      2184.9282      2202.9282
     2410.9680         9.8750       0.065461       110.7214         2.5119       0.458104         3.4671         2.4161         3.2665         2.4950        64.5713      2185.0660      2203.0660
     2411.1204         9.8750       0.058095       108.1608         2.4551       0.462445         3.5015         2.4198         3.1823         2.5093        64.7001      2185.2037      2203.2037
     2411.2728         9.8750       0.056721       105.9985         2.4106       0.463525         3.5415         2.4211         3.1210         2.4637        64.8110      2185.3415      2203.3415
     2411.4252         9.8750       0.059137       104.9312         2.3824       0.461682         3.5628         2.4199         3.0846         2.3553        64.8795      2185.4793      2203.4793
     2411.5776         9.8750       0.062578       104.2875         2.3610       0.458934         3.5704         2.4182         3.0595         2.2428        64.9213      2185.6171      2203.6171
     2411.7300         9.8750       0.065513       103.3136         2.3355       0.456342         3.5688         2.4167         3.0354         2.1647        64.9784      2185.7548      2203.7548
     2411.8824         9.8750       0.066852       102.2299         2.3105       0.452754         3.5625         2.4138         3.0184         2.1121        65.0500      2185.8926      2203.8926
     2412.0348         9.8750       0.067139       101.6345         2.2990       0.446240         3.5204         2.4091         3.0280         2.0797        65.0822      2186.0304      2204.0304
     2412.1872         9.8750       0.069116       101.6971         2.3025       0.435674         3.4083         2.4074         3.0592         2.0656        65.0322      2186.1682      2204.1682
     2412.3396         9.8750       0.072506       102.3790         2.3010       0.418671         3.3136         2.4216         3.0766         2.0748        64.8983      2186.3060      2204.3060
     2412.4920         9.8750       0.070845       103.0927         2.2718       0.395604         3.3850         2.4584         3.0406         2.1024        64.7518      2186.4438      2204.4438
     2412.6444         9.8750       0.056667       103.4685         2.2116       0.371633         3.8247         2.5123         2.9427         2.1527        64.6579      2186.5816      2204.5816
     2412.7968         9.8750       0.035479       103.8244         2.1519       0.356229         4.5639         2.5554         2.8377         2.2100        64.6273      2186.7194      2204.7194
     2412.9492         9.8750       0.023931       104.4223         2.1450       0.358396         5.2267         2.5543         2.7980         2.2390        64.6325      2186.8572      2204.8572
     2413.1016         9.8750       0.033374       104.9876         2.2208       0.372059         5.3307         2.5181         2.8714         2.2469        64.6142      2186.9950      2204.9950
     2413.2540         9.8750       0.057113       104.3168         2.4498       0.388953         4.7120         2.4705         3.1601         2.3538        64.5534      2187.1328      2205.1328
     2413.4064         9.8750       0.074231       101.1987         2.8631       0.401388         3.9600         2.4363         3.7186         2.7078        64.4922      2187.2706      2205.2706
     2413.5588         9.8750       0.077659        94.6506         3.5665       0.408260         3.4886         2.4243         4.7019         3.6126        64.4543      2187.4084      2205.4084
     2413.7112         9.8750       0.075677        86.3887         4.4463       0.413784         3.3137         2.4266         5.9230         5.1032        64.3907      2187.5463      2205.5463
     2413.8636         9.8750       0.074457        79.1556         4.9170       0.418017         3.3182         2.4365         6.5458         6.0695        64.2330      2187.6841      2205.6841
