~Version Information Block
VERS .                 2.00:  CWLS LOG ASCII STANDARD - VERSION 2.00
WRAP .                   NO:  One line per depth step
~Well Information Block
#MNEM.UNIT        Data Type   Information
#---------- ----------------  -----------
STRT .M           1084.4784:  START DEPTH
STOP .M           2540.6604:  STOP DEPTH
STEP .M              0.1524:  STEP
NULL .              -999.25:  NULL VALUE
COMP .                     :  COMPANY
WELL .               GABA17:  WELL
FLD  .                     :  FIELD
LOC  .   6.675366, 5.270403:  LOCATION
CTRY .                     :  COUNTRY
STAT .                     :  STATE
CNTY .                     :  COUNTY
API  .                     :  API NUMBER
UWI  .                     :  UNIQUE WELL ID
SRVC .                     :  SERVICE COMPANY
DATE .                     :  LOG DATE
~Curve Information Block
#MNEM.UNIT         API CODE   Curve Description
#---------- ----------------  -----------------
DEPTH.M                    :  Reference Depth
BS_COMP.INCHES             :  Bit Size
DRHO_COMP.G/C3             :  Density Correction
GR_COMP.GAPI               :  Gamma Ray
LLS_COMP.OHMM             0:  Resistivity
NPHI_COMP.V/V              :  Neutron Porosity
PEF_COMP.B/E               :  Photo Electric Factor
RHOB_COMP.G/C3             :  Bulk Density
RT_COMP.OHMM               :  True Resistivity
RXO_COMP.OHMM              :  Invaded Zone Resistivity
TVDSS_COMP.M               :  Reference TVD sub-sea log.
TVD_COMP.M                 :  Reference TVD log.
~Parameter Information Block
#MNEM.UNIT            Value   Description
#---------- ----------------  -----------
SET  .                  LCS:  
DEPTH_BOTTOM.M         2530:  Downhole depth
DEPTH_TOP.M            1787:  Downhole depth
UNDER_SAMPLING_RATE.      1:  Full sampling rate if equal to 1
~Other Information Block
#        DEPTH        BS_COMP      DRHO_COMP        GR_COMP       LLS_COMP      NPHI_COMP       PEF_COMP      RHOB_COMP        RT_COMP       RXO_COMP     TVDSS_COMP       TVD_COMP 
~A
# ...
     2085.7464         9.8750       0.112871        38.9499        19.0700       0.234942         1.9740         2.2275        16.3320        18.8163      2064.3208      2082.3208
     2085.8988         9.8750       0.091005        41.0596        18.5410       0.237638         1.9991         2.2332        16.0288        18.4022      2064.4726      2082.4726
     2086.0512         9.8750       0.077027        44.2801        17.9178       0.245773         2.0367         2.2282        15.7520        18.0457      2064.6244      2082.6244
     2086.2036         9.8750       0.066734        48.1155        17.4355       0.255995         2.0532         2.2152        15.5275        17.8034      2064.7762      2082.7762
     2086.3560         9.8750       0.060420        52.6833        17.2289       0.260198         2.0493         2.1997        15.3030        17.5610      2064.9280      2082.9280
     2086.5084         9.8750       0.059013        57.4060        17.3380       0.257356         2.0493         2.1889        15.0901        17.3252      2065.0798      2083.0798
     2086.6608         9.8750       0.058197        61.5651        17.5203       0.254399         2.0592         2.1883        15.0774        17.2036      2065.2316      2083.2316
     2086.8132         9.8750       0.055306        65.4915        17.4219       0.257929         2.0746         2.1961        15.0647        17.0820      2065.3835      2083.3835
     2086.9656         9.8750       0.054078        70.0717        17.0317       0.268020         2.0909         2.2055        15.0520        16.9604      2065.5353      2083.5353
     2087.1180         9.8750       0.055874        74.9723        16.5941       0.277295         2.1046         2.2068        15.0860        16.9733      2065.6871      2083.6871
     2087.2704         9.8750       0.058839        78.2072        16.4513       0.279598         2.1150         2.1964        15.1336        17.0255      2065.8389      2083.8389
     2087.4228         9.8750       0.059529        78.0289        16.7848       0.276022         2.1234         2.1824        15.1812        17.0777      2065.9907      2083.9907
     2087.5752         9.8750       0.056662        74.9246        17.4151       0.272151         2.1318         2.1757        15.3498        17.2505      2066.1425      2084.1425
     2087.7276         9.8750       0.055980        71.0734        18.0154       0.271470         2.1420         2.1803        15.6427        17.5472      2066.2943      2084.2943
     2087.8800         9.8750       0.064381        67.5721        18.2498       0.272174         2.1550         2.1900        15.9357        17.8440      2066.4461      2084.4461
     2088.0324         9.8750       0.079750        64.4183        18.0311       0.275241         2.1702         2.1941        16.0689        17.9608      2066.5980      2084.5980
     2088.1848         9.8750       0.091656        61.8360        17.4772       0.286915         2.1838         2.1891        15.6107        17.4112      2066.7498      2084.7498
     2088.3372         9.8750       0.091651        61.3536        16.8310       0.305104         2.1942         2.1787        15.1525        16.8617      2066.9016      2084.9016
     2088.4896         9.8750       0.083534        64.9345        16.2990       0.319865         2.2032         2.1676        14.6944        16.3122      2067.0534      2085.0534
     2088.6420         9.8750       0.075805        73.9276        15.9433       0.326354         2.2103         2.1568        14.4568        16.0434      2067.2052      2085.2052
     2088.7944         9.8750       0.071913        85.2794        15.7389       0.326473         2.2143         2.1475        14.2354        15.7953      2067.3570      2085.3570
     2088.9468         9.8750       0.066981        94.6999        15.5458       0.321625         2.2178         2.1428        14.0140        15.5471      2067.5089      2085.5089
     2089.0992         9.8750       0.056127        99.6186        15.3013       0.316839         2.2324         2.1415        13.8537        15.3901      2067.6607      2085.6607
     2089.2516         9.8750       0.040724        98.1710        15.0830       0.317187         2.2805         2.1395        13.7261        15.2821      2067.8125      2085.8125
     2089.4040         9.8750       0.027771        93.1907        15.0265       0.321917         2.3440         2.1352        13.5985        15.1741      2067.9643      2085.9643
     2089.5564         9.8750       0.022923        87.7635        15.1528       0.327237         2.3912         2.1334        13.5401        15.1311      2068.1161      2086.1161
     2089.7088         9.8750       0.024724        85.1048        15.3551       0.329134         2.4210         2.1391        13.5994        15.1989      2068.2680      2086.2680
     2089.8612         9.8750       0.029972        85.9806        15.4323       0.327343         2.4500         2.1520        13.6588        15.2666      2068.4198      2086.4198
     2090.0136         9.8750       0.035190        87.2033        15.3181       0.326269         2.4805         2.1636        13.7136        15.3283      2068.5716      2086.5716
     2090.1660         9.8750       0.039082        86.5075        15.1407       0.330138         2.4987         2.1657        13.7224        15.3286      2068.7234      2086.7234
     2090.3184         9.8750       0.042111        84.7653        15.0914       0.337451         2.5004         2.1585        13.7313        15.3290      2068.8752      2086.8752
     2090.4708         9.8750       0.045675        83.6482        15.2772       0.340341         2.4986         2.1493        13.7401        15.3293      2069.0271      2087.0271
     2090.6232         9.8750       0.048621        82.9807        15.5495       0.329600         2.5174         2.1485        13.7128        15.2374      2069.1789      2087.1789
     2090.7756         9.8750       0.047949        80.8176        15.5926       0.305336         2.5442         2.1607        13.6769        15.1235      2069.3307      2087.3307
     2090.9280         9.8750       0.043445        75.1454        15.2611       0.280300         2.4722         2.1815        13.6410        15.0097      2069.4825      2087.4825
     2091.0804         9.8750       0.042492        66.1356        14.6151       0.267705         2.2872         2.2013        13.3534        14.6419      2069.6343      2087.6343
     2091.2328         9.8750       0.055594        56.3335        13.9502       0.273395         2.1145         2.2121        12.8403        14.0466      2069.7862      2087.7862
     2091.3852         9.8750       0.081478        49.2007        13.4180       0.292469         2.0662         2.2152        12.3273        13.4514      2069.9380      2087.9380
     2091.5376         9.8750       0.105676        47.6241        12.8671       0.320652         2.0828         2.2165        11.6875        12.6979      2070.0898      2088.0898
     2091.6900         9.8750       0.117732        50.7584        11.9060       0.350352         2.1436         2.2214        10.6607        11.4613      2070.2416      2088.2416
     2091.8424         9.8750       0.120720        56.9447        10.4377       0.372052         2.2625         2.2299         9.6338        10.2247      2070.3935      2088.3935
     2091.9948         9.8750       0.125795        63.9520         8.9756       0.382360         2.3118         2.2397         8.6070         8.9881      2070.5453      2088.5453
     2092.1472         9.8750       0.135096        70.3531         8.1051       0.380360         2.2972         2.2534         8.5026         8.9659      2070.6971      2088.6971
     2092.2996         9.8750       0.138401        75.3932         7.9534       0.371902         2.2863         2.2749         8.4308         8.9866      2070.8489      2088.8489
     2092.4520         9.8750       0.126508        78.0693         8.6276       0.357798         2.2859         2.3031         8.3590         9.0072      2071.0008      2089.0008
