~Version Information Block
VERS .                 2.00:  CWLS LOG ASCII STANDARD - VERSION 2.00
WRAP .                   NO:  One line per depth step
~Well Information Block
#MNEM.UNIT        Data Type   Information
#---------- ----------------  -----------
STRT .M              0.0000:  START DEPTH
STOP .M           2748.9912:  STOP DEPTH
STEP .M              0.1524:  STEP
NULL .              -999.25:  NULL VALUE
COMP .                     :  COMPANY
WELL .               GABO13:  LOCATION
FLD  .                     :  FIELD
LOC  .   6.617986, 5.233868:  LOCATION
CTRY .                     :  COUNTRY
STAT .                     :  STATE
CNTY .                     :  COUNTY
API  .                     :  API NUMBER
UWI  .                     :  UNIQUE WELL ID
SRVC .                     :  SERVICE COMPANY
DATE .                     :  LOG DATE
~Curve Information Block
#MNEM.UNIT         API CODE   Curve Description
#---------- ----------------  -----------------
DEPTH.M                    :  Depth
BS_COMP.INCHES             :  Bit Size
CALI_COMP.INCHES          0:  Caliper
DRHO_COMP.G/C3             :  Density Correction Log
DT_COMP.US/F              0:  Compressional Sonic
ECART_COMP.                :  Neutron Density Seperation
GR_COMP.GAPI              0:  Gamma Ray
NPHI_COMP.V/V              :  Neutron Porosity
PEF_COMP.B/E              0:  Photo Electric Factor
RHOB_COMP.G/C3            0:  Bulk Density
RDeep_COMP.OHMM           0:  Deep Resistivity
RShal_COMP.OHMM           0:  Shallow Resistivity
SP_COMP.MV                0:  Spontaneous Potential
TVDSS_COMP.M               :  Reference TVD sub-sea log.
TVD_COMP.M                 :  Reference TVD log.
~Parameter Information Block
#MNEM.UNIT            Value   Description
#---------- ----------------  -----------
SET  .                  LCS:  
~Other Information Block
#        DEPTH        BS_COMP      CALI_COMP      DRHO_COMP        DT_COMP     ECART_COMP        GR_COMP      NPHI_COMP       PEF_COMP      RHOB_COMP      RDeep_COMP     RShal_COMP        SP_COMP     TVDSS_COMP       TVD_COMP 
~A
# ...
     2142.1344        12.2500        12.6256       0.002683       100.6150        -0.1811        32.0977       0.313531         1.8369         2.1684         5.7191         5.4524        -6.3552      2128.0534      2141.8534
     2142.2868        12.2500        12.6097       0.005467       100.5597         0.1110        32.2020       0.322004         1.8856         2.1689         5.6807         5.6713        -6.2617      2128.2058      2142.0058
     2142.4392        12.2500        12.5860       0.013204       101.1329         0.1775        30.8256       0.325673         1.9093         2.1661         5.6408         5.7741        -6.3340      2128.3582      2142.1582
     2142.5916        12.2500        12.5677       0.022795       102.2351        -0.0278        29.1754       0.321344         1.9118         2.1630         5.5965         5.6372        -6.4533      2128.5106      2142.3106
     2142.7440        12.2500        12.5844       0.028100       103.4075        -0.2624        31.9490       0.313478         1.9125         2.1644         5.5424         5.2991        -6.5278      2128.6630      2142.4630
     2142.8964        12.2500        12.6043       0.027642       104.1067        -0.7218        32.3870       0.300275         1.9401         2.1635         5.4888         4.9726        -6.6145      2128.8153      2142.6153
     2143.0488        12.2500        12.5988       0.027031       104.4343        -1.4209        30.0530       0.283924         1.9808         2.1558         5.4496         4.7423        -6.6934      2128.9677      2142.7677
     2143.2012        12.2500        12.5695       0.027656       104.2455        -1.9126        27.2621       0.274416         2.0253         2.1470         5.4312         4.5378        -6.6633      2129.1201      2142.9201
     2143.3536        12.2500        12.5311       0.024654       103.3440        -1.7523        25.9960       0.280641         2.0827         2.1446         5.4315         4.3124        -6.5718      2129.2725      2143.0725
     2143.5060        12.2500        12.5563       0.015415       102.6334        -1.2459        28.2388       0.294998         2.1349         2.1460         5.4374         4.1906        -6.7251      2129.4249      2143.2249
     2143.6584        12.2500        12.5972       0.006044       102.2939        -0.9994        30.8345       0.301236         2.1538         2.1480         5.4374         4.2229        -6.9716      2129.5772      2143.3772
     2143.8108        12.2500        12.6362       0.002461       102.3697        -1.2583        30.8807       0.292316         2.1344         2.1499         5.4254         4.3621        -7.0825      2129.7296      2143.5296
     2143.9632        12.2500        12.6880       0.006422       103.0135        -1.7897        26.7632       0.275348         2.0912         2.1516         5.4011         4.5175        -7.0602      2129.8820      2143.6820
     2144.1156        12.2500        12.7146       0.014496       103.7449        -1.9618        25.1199       0.269871         2.0491         2.1521         5.3755         4.5777        -7.0145      2130.0344      2143.8344
     2144.2680        12.2500        12.6525       0.018856       104.3455        -1.7720        26.9693       0.277748         2.0239         2.1485         5.3583         4.6007        -6.9264      2130.1868      2143.9868
     2144.4204        12.2500        12.5742       0.016904       104.7530        -1.6722        30.4154       0.285623         2.0028         2.1404         5.3515         4.6754        -6.7789      2130.3391      2144.1391
     2144.5728        12.2500        12.5651       0.011017       104.7836        -1.9736        34.0815       0.281860         1.9649         2.1316         5.3554         4.8077        -6.6427      2130.4915      2144.2915
     2144.7252        12.2500        12.6019       0.004471       104.3055        -2.5577        36.8013       0.265886         1.9082         2.1290         5.3717         4.9313        -6.5649      2130.6439      2144.4439
     2144.8776        12.2500        12.6105      -0.001063       103.5390        -2.9504        38.7466       0.250684         1.8564         2.1347         5.3989         5.0001        -6.3864      2130.7963      2144.5963
     2145.0300        12.2500        12.5840      -0.004283       102.7537        -2.9216        38.4672       0.245864         1.8300         2.1441         5.4347         5.0147        -6.1503      2130.9487      2144.7487
     2145.1824        12.2500        12.5430      -0.003793       102.2597        -2.5745        35.5877       0.252360         1.8338         2.1507         5.4796         5.0018        -5.9949      2131.1010      2144.9010
     2145.3348        12.2500        12.5310       0.000372       102.3534        -2.2219        33.8956       0.264067         1.8458         2.1488         5.5366         5.0061        -5.9161      2131.2534      2145.0534
     2145.4872        12.2500        12.5310       0.004701       102.6642        -2.1082        33.9720       0.271308         1.8224         2.1424         5.6065         5.0512        -5.8515      2131.4058      2145.2058
     2145.6396        12.2500        12.5310       0.007250       102.8559        -2.1213        34.1715       0.272074         1.7819         2.1405         5.6869         5.1420        -5.8041      2131.5582      2145.3582
     2145.7920        12.2500        12.5316       0.008435       102.6415        -2.1340        33.8791       0.267787         1.7785         2.1470         5.7721         5.3036        -5.8015      2131.7106      2145.5106
     2145.9444        12.2500        12.5346       0.009925       101.8013        -2.1298        33.5079       0.260929         1.8434         2.1586         5.8532         5.5626        -5.8107      2131.8629      2145.6629
     2146.0968        12.2500        12.5626       0.013612       100.8431        -2.0162        34.9893       0.258339         1.9315         2.1686         5.9236         5.8423        -5.7474      2132.0153      2145.8153
     2146.2492        12.2500        12.6024       0.017261        99.8672        -1.8960        36.8276       0.257509         1.9876         2.1760         5.9758         6.0164        -5.7515      2132.1677      2145.9677
     2146.4016        12.2500        12.6434       0.016956        98.7628        -1.9908        39.0519       0.251182         1.9961         2.1818         6.0029         6.0239        -5.9289      2132.3201      2146.1201
     2146.5540        12.2500        12.6846       0.011669        97.6610        -2.3328        43.6226       0.238400         1.9742         2.1860         6.0031         5.9094        -6.1853      2132.4725      2146.2725
     2146.7064        12.2500        12.6564       0.006279        96.9007        -2.4879        46.2337       0.231365         1.9569         2.1900         5.9874         5.8248        -6.3481      2132.6248      2146.4248
     2146.8588        12.2500        12.6113       0.001987        96.8487        -2.2248        45.2337       0.236321         1.9509         2.1949         5.9715         5.8047        -6.4393      2132.7772      2146.5772
     2147.0112        12.2500        12.5917      -0.003372        97.2360        -1.7869        42.0878       0.246792         1.9518         2.1993         5.9639         5.7949        -6.4646      2132.9296      2146.7296
     2147.1636        12.2500        12.6100      -0.009785        97.5960        -1.5965        38.8069       0.251149         1.9648         2.2016         5.9619         5.7680        -6.3749      2133.0820      2146.8820
     2147.3160        12.2500        12.6209      -0.013058        98.0636        -1.8533        39.1054       0.242763         1.9962         2.2027         5.9517         5.7607        -6.2609      2133.2344      2147.0344
     2147.4684        12.2500        12.6155      -0.013073        98.7436        -2.1771        41.1448       0.232432         2.0278         2.2038         5.9306         5.7756        -6.2478      2133.3867      2147.1867
