~Version Information Block
VERS .                 2.00:  CWLS LOG ASCII STANDARD - VERSION 2.00
WRAP .                   NO:  One line per depth step
~Well Information Block
#MNEM.UNIT        Data Type   Information
#---------- ----------------  -----------
STRT .M           1084.4784:  START DEPTH
STOP .M           2540.6604:  STOP DEPTH
STEP .M              0.1524:  STEP
NULL .              -999.25:  NULL VALUE
COMP .                     :  COMPANY
WELL .               GABA17:  WELL
FLD  .                     :  FIELD
LOC  .   6.675366, 5.270403:  LOCATION
CTRY .                     :  COUNTRY
STAT .                     :  STATE
CNTY .                     :  COUNTY
API  .                     :  API NUMBER
UWI  .                     :  UNIQUE WELL ID
SRVC .                     :  SERVICE COMPANY
DATE .                     :  LOG DATE
~Curve Information Block
#MNEM.UNIT         API CODE   Curve Description
#---------- ----------------  -----------------
DEPTH.M                    :  Reference Depth
BS_COMP.INCHES             :  Bit Size
DRHO_COMP.G/C3             :  Density Correction
GR_COMP.GAPI               :  Gamma Ray
LLS_COMP.OHMM             0:  Resistivity
NPHI_COMP.V/V              :  Neutron Porosity
PEF_COMP.B/E               :  Photo Electric Factor
RHOB_COMP.G/C3             :  Bulk Density
RT_COMP.OHMM               :  True Resistivity
RXO_COMP.OHMM              :  Invaded Zone Resistivity
TVDSS_COMP.M               :  Reference TVD sub-sea log.
TVD_COMP.M                 :  Reference TVD log.
~Parameter Information Block
#MNEM.UNIT            Value   Description
#---------- ----------------  -----------
SET  .                  LCS:  
DEPTH_BOTTOM.M         2530:  Downhole depth
DEPTH_TOP.M            1787:  Downhole depth
UNDER_SAMPLING_RATE.      1:  Full sampling rate if equal to 1
~Other Information Block
#        DEPTH        BS_COMP      DRHO_COMP        GR_COMP       LLS_COMP      NPHI_COMP       PEF_COMP      RHOB_COMP        RT_COMP       RXO_COMP     TVDSS_COMP       TVD_COMP 
~A
# ...
     1832.0004         9.8750      -0.003438        35.0100        32.7796       0.243272         1.9185         2.1478        27.2110        32.7796      1812.0091      1830.0091
     1832.1528         9.8750      -0.000251        30.8811        32.8591       0.243977         1.8582         2.1485        27.3720        32.8873      1812.1607      1830.1607
     1832.3052         9.8750       0.003913        29.5631        33.0733       0.247247         1.8124         2.1440        27.5326        32.9947      1812.3124      1830.3124
     1832.4576         9.8750       0.003190        29.2543        33.1797       0.249570         1.7784         2.1401        27.6932        33.1021      1812.4641      1830.4641
     1832.6100         9.8750      -0.001827        28.9561        33.0081       0.250988         1.7591         2.1399        27.5521        32.7260      1812.6158      1830.6158
     1832.7624         9.8750      -0.005499        28.4691        32.5382       0.252838         1.7516         2.1409        27.2947        32.1634      1812.7674      1830.7674
     1832.9148         9.8750      -0.003471        28.0317        31.8437       0.254951         1.7506         2.1397        27.0373        31.6009      1812.9191      1830.9191
     1833.0672         9.8750       0.005285        28.1368        30.8470       0.255846         1.7579         2.1355        26.2902        30.4093      1813.0708      1831.0708
     1833.2196         9.8750       0.017715        29.2141        29.2578       0.254764         1.7769         2.1319        24.9221        28.4201      1813.2224      1831.2224
     1833.3720         9.8750       0.028272        31.2531        26.9219       0.252677         1.8038         2.1348        23.5540        26.4309      1813.3741      1831.3741
     1833.5244         9.8750       0.034670        34.2847        24.3481       0.251702         1.8337         2.1464        22.2458        24.5662      1813.5258      1831.5258
     1833.6768         9.8750       0.035609        38.3391        22.2599       0.254422         1.8739         2.1621        21.2522        23.3547      1813.6774      1831.6774
     1833.8292         9.8750       0.030330        42.8672        21.1026       0.263311         1.9520         2.1711        20.2586        22.1431      1813.8291      1831.8291
     1833.9816         9.8750       0.021809        46.8948        20.8023       0.280132         2.0701         2.1625        19.2650        20.9316      1813.9808      1831.9808
     1834.1340         9.8750       0.019677        50.0967        20.6620       0.304628         2.1799         2.1344        18.4758        19.8878      1814.1325      1832.1325
     1834.2864         9.8750       0.034964        52.9289        19.8193       0.334385         2.2499         2.0956        17.7146        18.8670      1814.2841      1832.2841
     1834.4388         9.8750       0.066600        55.9699        18.1303       0.358944         2.3065         2.0660        16.9534        17.8462      1814.4358      1832.4358
     1834.5912         9.8750       0.098742        58.9175        16.4020       0.361335         2.4032         2.0688        15.8647        16.5486      1814.5875      1832.5875
     1834.7436         9.8750       0.110208        60.7708        15.1427       0.336928         2.5830         2.1194        14.5562        15.0654      1814.7391      1832.7391
     1834.8960         9.8750       0.093853        61.1063        13.8941       0.300045         2.8317         2.2194        13.2477        13.5821      1814.8908      1832.8908
     1835.0484         9.8750       0.067049        61.0575        11.9537       0.279413         3.0314         2.3300        11.8171        11.9966      1815.0425      1833.0425
     1835.2008         9.8750       0.048051        62.3365         9.6180       0.291227         3.0732         2.4037        10.1242        10.1912      1815.1941      1833.1941
     1835.3532         9.8750       0.046599        66.9694         7.7237       0.330037         3.0119         2.4179         8.4312         8.3857      1815.3458      1833.3458
     1835.5056         9.8750       0.059329        76.4953         6.6056       0.378563         2.9781         2.3927         6.7862         6.6347      1815.4975      1833.4975
     1835.6580         9.8750       0.068940        90.5354         6.1339       0.416110         2.9968         2.3642         6.3978         6.3090      1815.6491      1833.6491
     1835.8104         9.8750       0.065770       106.9830         5.9363       0.436770         3.0355         2.3441         6.0094         5.9834      1815.8008      1833.8008
     1835.9628         9.8750       0.054587       121.3751         5.6857       0.448194         3.0687         2.3294         5.6211         5.6577      1815.9525      1833.9525
     1836.1152         9.8750       0.044803       129.1717         5.2455       0.458832         3.0573         2.3161         5.2556         5.3134      1816.1041      1834.1041
     1836.2676         9.8750       0.040830       128.6567         4.7762       0.469470         3.0419         2.3049         4.8976         4.9631      1816.2558      1834.2558
     1836.4200         9.8750       0.040408       123.5936         4.4733       0.476390         3.0469         2.2988         4.5395         4.6128      1816.4075      1834.4075
     1836.5724         9.8750       0.042536       118.5439         4.3887       0.478490         3.0524         2.3007         4.4855         4.6093      1816.5591      1834.5591
     1836.7248         9.8750       0.051690       115.3474         4.5611       0.477748         3.0432         2.3090         4.7674         4.9890      1816.7108      1834.7108
     1836.8772         9.8750       0.072119       112.6596         5.0083       0.470444         3.0191         2.3234         5.0493         5.3688      1816.8625      1834.8625
     1837.0296         9.8750       0.092752       108.1762         5.8354       0.451138         2.9902         2.3442         5.4316         5.8696      1817.0141      1835.0141
     1837.1820         9.8750       0.097550       101.4610         6.9690       0.420492         2.9582         2.3716         6.2303         6.8728      1817.1658      1835.1658
     1837.3344         9.8750       0.083467        94.3078         8.1718       0.392505         2.9239         2.3949         7.0291         7.8761      1817.3175      1835.3175
     1837.4868         9.8750       0.060931        88.5358         8.9563       0.377948         2.8751         2.3982         7.8279         8.8793      1817.4691      1835.4691
     1837.6392         9.8750       0.046509        84.1415         9.0715       0.376679         2.7730         2.3756         7.5893         8.6919      1817.6208      1835.6208
     1837.7916         9.8750       0.043700        79.7722         8.7316       0.383961         2.6136         2.3371         7.2524         8.3915      1817.7725      1835.7725
     1837.9440         9.8750       0.046176        75.1940         8.1711       0.394952         2.4749         2.3022         6.9155         8.0912      1817.9241      1835.9241
     1838.0964         9.8750       0.051254        72.8079         7.6533       0.407406         2.4033         2.2820         6.7638         7.9948      1818.0758      1836.0758
     1838.2488         9.8750       0.058886        75.3587         7.3999       0.416830         2.3666         2.2754         6.7198         8.0168      1818.2275      1836.2275
     1838.4012         9.8750       0.064881        81.7521         7.6059       0.418442         2.3345         2.2725         6.6758         8.0388      1818.3791      1836.3791
     1838.5536         9.8750       0.064143        87.5631         8.2957       0.412829         2.3110         2.2642         6.9159         8.3786      1818.5308      1836.5308
     1838.7060         9.8750       0.057718        89.1007         9.3833       0.407263         2.3011         2.2499         7.6796         9.3039      1818.6825      1836.6825
