~Version Information Block
VERS .                 2.00:  CWLS LOG ASCII STANDARD - VERSION 2.00
WRAP .                   NO:  One line per depth step
~Well Information Block
#MNEM.UNIT        Data Type   Information
#---------- ----------------  -----------
STRT .M              0.0000:  START DEPTH
STOP .M           2748.9912:  STOP DEPTH
STEP .M              0.1524:  STEP
NULL .              -999.25:  NULL VALUE
COMP .                     :  COMPANY
WELL .               GABO13:  LOCATION
FLD  .                     :  FIELD
LOC  .   6.617986, 5.233868:  LOCATION
CTRY .                     :  COUNTRY
STAT .                     :  STATE
CNTY .                     :  COUNTY
API  .                     :  API NUMBER
UWI  .                     :  UNIQUE WELL ID
SRVC .                     :  SERVICE COMPANY
DATE .                     :  LOG DATE
~Curve Information Block
#MNEM.UNIT         API CODE   Curve Description
#---------- ----------------  -----------------
DEPTH.M                    :  Depth
BS_COMP.INCHES             :  Bit Size
CALI_COMP.INCHES          0:  Caliper
DRHO_COMP.G/C3             :  Density Correction Log
DT_COMP.US/F              0:  Compressional Sonic
ECART_COMP.                :  Neutron Density Seperation
GR_COMP.GAPI              0:  Gamma Ray
NPHI_COMP.V/V              :  Neutron Porosity
PEF_COMP.B/E              0:  Photo Electric Factor
RHOB_COMP.G/C3            0:  Bulk Density
RDeep_COMP.OHMM           0:  Deep Resistivity
RShal_COMP.OHMM           0:  Shallow Resistivity
SP_COMP.MV                0:  Spontaneous Potential
TVDSS_COMP.M               :  Reference TVD sub-sea log.
TVD_COMP.M                 :  Reference TVD log.
~Parameter Information Block
#MNEM.UNIT            Value   Description
#---------- ----------------  -----------
SET  .                  LCS:  
~Other Information Block
#        DEPTH        BS_COMP      CALI_COMP      DRHO_COMP        DT_COMP     ECART_COMP        GR_COMP      NPHI_COMP       PEF_COMP      RHOB_COMP      RDeep_COMP     RShal_COMP        SP_COMP     TVDSS_COMP       TVD_COMP 
~A
# ...
     2531.6688        12.2500        12.5642      -0.002644        93.0180        -2.9913        35.5174       0.212831         1.9547         2.1957         2.0371         3.7177       -27.2154      2517.0247      2530.8247
     2531.8212        12.2500        12.7310      -0.000410        94.1208        -3.5162        35.1532       0.203639         1.9534         2.1848         2.0280         3.5997       -27.2535      2517.1768      2530.9768
     2531.9736        12.2500        12.9071      -0.002598        94.9038        -3.5004        34.8017       0.206182         1.9406         2.1813         2.0371         3.5931       -27.3453      2517.3289      2531.1289
     2532.1260        12.2500        13.0275      -0.004326        95.0565        -3.1858        34.3993       0.213868         1.9585         2.1842         2.0542         3.6678       -27.5139      2517.4809      2531.2809
     2532.2784        12.2500        13.1408      -0.001507        94.8834        -2.9047        34.1448       0.219673         1.9866         2.1886         2.0707         3.7574       -27.5484      2517.6330      2531.4330
     2532.4308        12.2500        13.3269       0.003184        94.7719        -2.5843        34.3270       0.228048         1.9918         2.1907         2.0775         3.8287       -27.5047      2517.7851      2531.5851
     2532.5832        12.2500        13.5867       0.005565        95.0111        -2.0905        35.1269       0.242651         1.9775         2.1910         2.0717         3.9019       -27.5438      2517.9371      2531.7371
     2532.7356        12.2500        13.7521       0.004206        95.6457        -1.5970        36.7084       0.255739         1.9811         2.1939         2.0574         4.0171       -27.6200      2518.0892      2531.8892
     2532.8880        12.2500        13.7590       0.001381        95.9843        -1.3943        34.5648       0.258299         2.0252         2.1998         2.0335         4.1410       -27.6215      2518.2413      2532.0413
     2533.0404        12.2500        13.6974       0.000535        96.0106        -1.3802        31.1202       0.255850         2.0862         2.2046         2.0080         4.2042       -27.5818      2518.3933      2532.1933
     2533.1928        12.2500        13.6450       0.004015        96.0980        -1.5173        29.0244       0.252957         2.1159         2.2026         1.9931         4.1785       -27.5427      2518.5454      2532.3454
     2533.3452        12.2500        13.6756       0.012429        96.4465        -1.9310        29.1674       0.247699         2.0731         2.1906         1.9981         4.1049       -27.4529      2518.6975      2532.4975
     2533.4976        12.2500        13.8316       0.022279        97.2016        -2.3141        30.2993       0.244387         1.9835         2.1770         2.0291         4.0999       -27.3015      2518.8495      2532.6495
     2533.6500        12.2500        14.0118       0.027197        98.2053        -2.4538        31.3460       0.244223         1.8972         2.1703         2.0952         4.2353       -27.2759      2519.0016      2532.8016
     2533.8024        12.2500        14.1191       0.024138        98.8859        -2.4040        32.2145       0.243551         1.8477         2.1739         2.2047         4.5019       -27.3890      2519.1537      2532.9537
     2533.9548        12.2500        14.0681       0.015089        98.8039        -2.2172        33.1842       0.241207         1.8480         2.1871         2.3533         4.8264       -27.4724      2519.3057      2533.1057
     2534.1072        12.2500        13.8404       0.006194        98.4198        -1.8102        34.4370       0.244348         1.8728         2.2022         2.5085         5.0734       -27.5371      2519.4578      2533.2578
     2534.2596        12.2500        13.6610       0.000550        97.9695        -1.2969        35.9893       0.255280         1.8806         2.2097         2.6456         5.1683       -27.6664      2519.6099      2533.4099
     2534.4120        12.2500        13.5186      -0.003498        97.7404        -0.9396        38.0059       0.266586         1.8725         2.2087         2.7614         5.1161       -27.7786      2519.7620      2533.5620
     2534.5644        12.2500        13.2796      -0.009758        98.0910        -0.8900        40.5903       0.271570         1.8814         2.2029         2.8579         4.9553       -27.7350      2519.9140      2533.7140
     2534.7168        12.2500        12.8658      -0.019267        98.9178        -1.1464        41.2629       0.271222         1.9294         2.1906         2.9290         4.7473       -27.6028      2520.0661      2533.8661
     2534.8692        12.2500        12.6064      -0.023235       100.0431        -1.9175        39.8565       0.260443         1.9987         2.1701         2.9679         4.5578       -27.5985      2520.2182      2534.0182
     2535.0216        12.2500        12.5498      -0.017614       100.9068        -3.0394        37.2433       0.238798         2.0556         2.1501         2.9786         4.4302       -27.6027      2520.3703      2534.1703
     2535.1740        12.2500        12.6028      -0.008406       101.0135        -3.8689        34.0708       0.218701         2.0744         2.1421         2.9678         4.3870       -27.4846      2520.5223      2534.3223
     2535.3264        12.2500        12.6444      -0.006623       100.5224        -3.7001        31.1599       0.220274         2.0429         2.1478         2.9362         4.4136       -27.4215      2520.6744      2534.4744
     2535.4788        12.2500        12.5291      -0.012165        99.8447        -2.8315        29.8104       0.240746         1.9712         2.1571         2.8812         4.4159       -27.3265      2520.8265      2534.6265
     2535.6312        12.2500        12.3675      -0.018561        99.6198        -2.0238        29.6918       0.262660         1.8929         2.1610         2.7950         4.3199       -27.1774      2520.9786      2534.7786
     2535.7836        12.2500        12.2809      -0.020490       100.1907        -1.8445        30.1870       0.271026         1.8315         2.1561         2.6674         4.1261       -27.0927      2521.1307      2534.9307
     2535.9360        12.2500        12.3319      -0.015772       101.2593        -2.4304        30.8454       0.260424         1.7877         2.1445         2.4964         3.8898       -27.1024      2521.2827      2535.0827
     2536.0884        12.2500        12.4225      -0.009779       102.2091        -3.0641        32.7573       0.246255         1.7633         2.1364         2.3039         3.6469       -27.0389      2521.4348      2535.2348
     2536.2408        12.2500        12.4825      -0.007022       102.3051        -3.2624        33.8408       0.239611         1.7672         2.1375         2.1163         3.4110       -26.7872      2521.5869      2535.3869
     2536.3932        12.2500        12.5000      -0.006789       101.5545        -3.1159        33.7889       0.237725         1.8043         2.1480         1.9463         3.1976       -26.5209      2521.7390      2535.5390
     2536.5456        12.2500        12.4844      -0.005220       100.6248        -2.8127        35.6064       0.235929         1.8849         2.1662         1.7994         3.0438       -26.4771      2521.8911      2535.6911
     2536.6980        12.2500        12.5820       0.000390        99.6279        -2.2197        36.9968       0.240522         2.0347         2.1881         1.6851         3.0039       -26.4153      2522.0432      2535.8432
     2536.8504        12.2500        12.7163       0.008261        98.6575        -1.4793        36.2510       0.249649         2.2248         2.2099         1.6082         3.0614       -26.2858      2522.1952      2535.9952
     2537.0028        12.2500        12.7812       0.013667        97.8870        -0.9149        34.0863       0.255120         2.3763         2.2291         1.5656         3.1493       -26.2247      2522.3473      2536.1473
