~Version Information Block
VERS .                 2.00:  CWLS LOG ASCII STANDARD - VERSION 2.00
WRAP .                   NO:  One line per depth step
~Well Information Block
#MNEM.UNIT        Data Type   Information
#---------- ----------------  -----------
STRT .M            800.1000:  START DEPTH
STOP .M           4245.4068:  STOP DEPTH
STEP .M              0.1524:  STEP
NULL .              -999.25:  NULL VALUE
COMP .                     :  COMPANY
WELL .               GABO51:  WELL
FLD  .                     :  FIELD
LOC  .   6.643728, 5.227344:  LOCATION
CTRY .                     :  COUNTRY
STAT .                     :  STATE
CNTY .                     :  COUNTY
API  .                     :  API NUMBER
UWI  .                     :  UNIQUE WELL ID
SRVC .                     :  SERVICE COMPANY
DATE .                     :  LOG DATE
~Curve Information Block
#MNEM.UNIT         API CODE   Curve Description
#---------- ----------------  -----------------
DEPTH.M                    :  Depth
DRHO_COMP.G/C3             :  Density Correction
DTSM_COMP.US/F             :  Shear Sonic
DT_COMP.US/F               :  Compressional Sonic
GR_COMP.GAPI               :  Gamma Ray
HCAL_COMP.INCHES           :  Caliper
NPHI_COMP.V/V              :  Neutron Porosity
PEF_COMP.B/E               :  Pho Electric Factor
RDEEP_COMP.OHMM            :  Deep Resistivity
RHOB_COMP.G/C3             :  Bulk Density
RSHAL_COMP.OHMM            :  Shallow Resistivity
TVDSS_COMP.M               :  Reference TVD sub-sea log.
TVD_COMP.M                 :  Reference TVD log.
~Parameter Information Block
#MNEM.UNIT            Value   Description
#---------- ----------------  -----------
SET  .                  LCS:  
~Other Information Block
#        DEPTH      DRHO_COMP      DTSM_COMP        DT_COMP        GR_COMP      HCAL_COMP      NPHI_COMP       PEF_COMP     RDEEP_COMP      RHOB_COMP     RSHAL_COMP     TVDSS_COMP       TVD_COMP 
~A
# ...
     4097.1216      -0.011700       134.8189       125.5088        37.7312        12.3374       0.106100         1.5933        32.3771         2.1957        40.4156      -999.2500      -999.2500
     4097.2740      -0.008100       135.2540       127.9282        36.1785        12.3299       0.104300         1.5935        37.5602         2.1932        47.2989      -999.2500      -999.2500
     4097.4264      -0.003800       135.2069       128.5133        35.5587        12.3039       0.107300         1.6042        38.1500         2.1938        46.1314      -999.2500      -999.2500
     4097.5788      -0.003500       135.1638       128.3942        36.2559        12.3002       0.109900         1.6157        38.4485         2.1921        45.7925      -999.2500      -999.2500
     4097.7312      -0.006300       135.2311       129.0911        36.8015        12.2927       0.114400         1.6359        38.7682         2.1983        43.9826      -999.2500      -999.2500
     4097.8836      -0.009200       135.0614       130.6162        34.3223        12.3262       0.119900         1.6518        38.4176         2.2105        42.9175      -999.2500      -999.2500
     4098.0360      -0.010900       134.4421       130.9187        32.3595        12.3485       0.122600         1.6587        37.8039         2.2226        41.1623      -999.2500      -999.2500
     4098.1884      -0.011700       133.6723       131.0716        29.5703        12.3448       0.109900         1.6451        37.9666         2.2294        39.4298      -999.2500      -999.2500
     4098.3408      -0.009800       133.6501       131.2616        29.8802        12.3597       0.101600         1.6385        34.4412         2.2312        35.6367      -999.2500      -999.2500
     4098.4932      -0.004500       133.8278       131.2368        31.4556        12.3374       0.101200         1.6461        39.4560         2.2346        38.4392      -999.2500      -999.2500
     4098.6456      -0.004400       133.5900       131.2812        31.4395        12.3039       0.107800         1.6645        37.5059         2.2360        37.2851      -999.2500      -999.2500
     4098.7980      -0.005700       133.2547       131.0790        34.7710        12.3076       0.108300         1.6880        33.5764         2.2436        35.0667      -999.2500      -999.2500
     4098.9504      -0.008500       132.5516       130.8480        34.6160        12.3039       0.110300         1.7111        30.2972         2.2656        31.4145      -999.2500      -999.2500
     4099.1028      -0.003900       131.2715       130.6604        38.9709        12.2816       0.112600         1.7328        31.3113         2.2913        32.4531      -999.2500      -999.2500
     4099.2552      -0.002700       130.0149       129.9607        39.3486        12.2704       0.109800         1.7193        31.6916         2.3137        33.8882      -999.2500      -999.2500
     4099.4076      -0.001300       129.2300       129.3901        38.8062        12.2816       0.106600         1.7015        28.8215         2.3273        29.6884      -999.2500      -999.2500
     4099.5600      -0.006100       128.9206       128.3016        37.2567        12.2853       0.110200         1.6821        26.5285         2.3328        26.6206      -999.2500      -999.2500
     4099.7124      -0.007300       129.4778       127.4132        34.8646        12.2778       0.108500         1.6967        23.9519         2.3405        24.5425      -999.2500      -999.2500
     4099.8648      -0.007900       130.8410       125.1925        35.7168        12.2927       0.109100         1.7259        22.6944         2.3493        22.4419      -999.2500      -999.2500
     4100.0172      -0.008100       132.4036       120.8942        35.4941        12.2927       0.109400         1.7385        22.5517         2.3398        22.3514      -999.2500      -999.2500
     4100.1696      -0.009900       134.0910       121.9078        37.8303        12.2927       0.122000         1.7504        22.4570         2.2966        22.5613      -999.2500      -999.2500
     4100.3220      -0.010900       136.1236       123.1790        40.8616        12.2927       0.128600         1.7262        23.0305         2.2440        25.0539      -999.2500      -999.2500
     4100.4744      -0.006600       138.5807       127.1928        46.7402        12.2927       0.136900         1.7138        28.4296         2.1985        30.2664      -999.2500      -999.2500
     4100.6268       0.000900       140.9019       128.4660        48.3294        12.3076       0.136800         1.6761        36.8060         2.1701        37.5525      -999.2500      -999.2500
     4100.7792       0.000700       141.8495       131.1713        46.7702        12.3076       0.133900         1.6484        46.1338         2.1566        43.5138      -999.2500      -999.2500
     4100.9316      -0.001200       140.9351       133.4918        43.7486        12.3039       0.122500         1.6396        58.4027         2.1736        50.0116      -999.2500      -999.2500
     4101.0840      -0.007100       138.8505       135.2169        42.2152        12.3039       0.107800         1.6502        64.9516         2.2044        55.7485      -999.2500      -999.2500
     4101.2364      -0.006800       136.3201       134.4508        41.9828        12.3262       0.099600         1.6676        53.8260         2.2225        49.8377      -999.2500      -999.2500
     4101.3888      -0.007400       134.1496       131.2602        40.2008        12.3485       0.097100         1.6729        45.2796         2.2250        42.5509      -999.2500      -999.2500
     4101.5412      -0.006800       133.2406       128.5325        39.8231        12.3709       0.107800         1.6763        44.7253         2.2219        41.7244      -999.2500      -999.2500
     4101.6936      -0.007200       133.4743       128.2288        37.9023        12.3932       0.113000         1.6868        43.3784         2.2178        38.7701      -999.2500      -999.2500
     4101.8460      -0.007800       133.5622       128.3303        35.5780        12.3820       0.112300         1.6957        51.0497         2.2153        51.1487      -999.2500      -999.2500
     4101.9984      -0.005900       132.8239       128.6356        34.7258        12.4155       0.105600         1.7019        56.3033         2.2079        55.1957      -999.2500      -999.2500
     4102.1508      -0.007700       131.8145       128.4623        34.2448        12.3932       0.107900         1.6848        58.2699         2.1989        56.0362      -999.2500      -999.2500
     4102.3032      -0.008300       130.9496       128.1452        36.6240        12.4267       0.104500         1.6844        57.2374         2.1909        57.3256      -999.2500      -999.2500
     4102.4556      -0.008900       130.1593       127.5154        35.8492        12.4490       0.106400         1.6998        60.5788         2.1861        66.1749      -999.2500      -999.2500
     4102.6080      -0.008600       129.5307       126.5163        34.9970        12.4713       0.105500         1.7207        67.4612         2.1807        72.7400      -999.2500      -999.2500
     4102.7604      -0.013400       129.2727       125.9625        32.8502        12.4490       0.107400         1.6947        76.2504         2.1667        79.4238      -999.2500      -999.2500
     4102.9128      -0.014400       129.2727       125.0842        34.1286        12.4416       0.101300         1.6469        84.7899         2.1537        90.2230      -999.2500      -999.2500
     4103.0652      -0.011100       129.3786       124.7199        34.2061        12.4565       0.097900         1.6096        80.9862         2.1531        90.3494      -999.2500      -999.2500
     4103.2176      -0.008200       129.7784       125.1721        34.4159        12.4713       0.097100         1.5952        84.5900         2.1680        93.0311      -999.2500      -999.2500
     4103.3700      -0.007400       130.2475       126.0325        33.1375        12.4490       0.101400         1.6003        78.7873         2.1943        85.2441      -999.2500      -999.2500
