~Version Information Block
VERS .                 2.00:  CWLS LOG ASCII STANDARD - VERSION 2.00
WRAP .                   NO:  One line per depth step
~Well Information Block
#MNEM.UNIT        Data Type   Information
#---------- ----------------  -----------
STRT .M           1084.4784:  START DEPTH
STOP .M           2540.6604:  STOP DEPTH
STEP .M              0.1524:  STEP
NULL .              -999.25:  NULL VALUE
COMP .                     :  COMPANY
WELL .               GABA17:  WELL
FLD  .                     :  FIELD
LOC  .   6.675366, 5.270403:  LOCATION
CTRY .                     :  COUNTRY
STAT .                     :  STATE
CNTY .                     :  COUNTY
API  .                     :  API NUMBER
UWI  .                     :  UNIQUE WELL ID
SRVC .                     :  SERVICE COMPANY
DATE .                     :  LOG DATE
~Curve Information Block
#MNEM.UNIT         API CODE   Curve Description
#---------- ----------------  -----------------
DEPTH.M                    :  Reference Depth
BS_COMP.INCHES             :  Bit Size
DRHO_COMP.G/C3             :  Density Correction
GR_COMP.GAPI               :  Gamma Ray
LLS_COMP.OHMM             0:  Resistivity
NPHI_COMP.V/V              :  Neutron Porosity
PEF_COMP.B/E               :  Photo Electric Factor
RHOB_COMP.G/C3             :  Bulk Density
RT_COMP.OHMM               :  True Resistivity
RXO_COMP.OHMM              :  Invaded Zone Resistivity
TVDSS_COMP.M               :  Reference TVD sub-sea log.
TVD_COMP.M                 :  Reference TVD log.
~Parameter Information Block
#MNEM.UNIT            Value   Description
#---------- ----------------  -----------
SET  .                  LCS:  
DEPTH_BOTTOM.M         2530:  Downhole depth
DEPTH_TOP.M            1787:  Downhole depth
UNDER_SAMPLING_RATE.      1:  Full sampling rate if equal to 1
~Other Information Block
#        DEPTH        BS_COMP      DRHO_COMP        GR_COMP       LLS_COMP      NPHI_COMP       PEF_COMP      RHOB_COMP        RT_COMP       RXO_COMP     TVDSS_COMP       TVD_COMP 
~A
# ...
     2181.7584         9.8750       0.071955        90.0247         7.1913       0.350454         3.3369         2.2817         6.6758         6.8901      2160.0335      2178.0335
     2181.9108         9.8750       0.066973        91.6823         6.4264       0.348517         3.3520         2.2917         6.0481         6.2972      2160.1855      2178.1855
     2182.0632         9.8750       0.061813        93.2457         5.6129       0.351039         3.3488         2.3079         5.5108         5.7879      2160.3375      2178.3375
     2182.2156         9.8750       0.060836        94.5030         5.0118       0.358322         3.3365         2.3300         5.1012         5.3963      2160.4895      2178.4895
     2182.3680         9.8750       0.065731        96.0197         4.7043       0.367549         3.3362         2.3568         4.6916         5.0048      2160.6415      2178.6415
     2182.5204         9.8750       0.070979        98.4184         4.6598       0.372489         3.3513         2.3819         4.3450         4.6722      2160.7937      2178.7937
     2182.6728         9.8750       0.072118       102.0073         4.7146       0.368655         3.3817         2.3971         4.4054         4.7207      2160.9456      2178.9456
     2182.8252         9.8750       0.072604       106.0611         4.7492       0.359998         3.4127         2.4017         4.4658         4.7691      2161.0976      2179.0976
     2182.9776         9.8750       0.078575       109.6669         4.7883       0.352891         3.4299         2.3987         4.5262         4.8176      2161.2496      2179.2496
     2183.1300         9.8750       0.089350       112.0509         5.0360       0.351143         3.4564         2.3963         5.2995         5.7281      2161.4016      2179.4016
     2183.2824         9.8750       0.099843       112.8844         5.7363       0.348315         3.5327         2.4012         6.1956         6.7871      2161.5536      2179.5536
     2183.4348         9.8750       0.106224       112.8611         7.2286       0.329989         3.6332         2.4177         7.0917         7.8462      2161.7056      2179.7056
     2183.5872         9.8750       0.107550       112.5947         9.7311       0.292554         3.7160         2.4484         8.3360         9.1182      2161.8577      2179.8577
     2183.7396         9.8750       0.099566       111.9799        12.7494       0.252236         3.7749         2.4910         9.8406        10.5495      2162.0097      2180.0097
     2183.8920         9.8750       0.078785       110.3647        14.3186       0.224864         3.8086         2.5368        11.3452        11.9809      2162.1617      2180.1617
     2184.0444         9.8750       0.049828       107.1609        12.4511       0.216508         3.8098         2.5686        11.9868        12.5374      2162.3137      2180.3137
     2184.1968         9.8750       0.025945       103.3344        10.3118       0.225535         3.8094         2.5723        10.5288        10.9660      2162.4657      2180.4657
     2184.3492         9.8750       0.021001       100.8521         8.7335       0.254678         3.7551         2.5403         9.0708         9.3946      2162.6178      2180.6178
     2184.5016         9.8750       0.031467       100.3410         7.8302       0.294349         3.5569         2.4881         7.6245         7.8362      2162.7698      2180.7698
     2184.6540         9.8750       0.045431       101.6271         7.2810       0.328388         3.4019         2.4333         7.2773         7.5089      2162.9218      2180.9218
     2184.8064         9.8750       0.053667       103.3202         6.9693       0.351720         3.4177         2.3915         6.9300         7.1816      2163.0738      2181.0738
     2184.9588         9.8750       0.053982       104.1359         6.7829       0.366806         3.4580         2.3727         6.5828         6.8543      2163.2258      2181.2258
     2185.1112         9.8750       0.051282       103.6737         6.7198       0.378727         3.4873         2.3712         6.5809         6.8560      2163.3779      2181.3779
     2185.2636         9.8750       0.048520       101.8911         6.7659       0.387880         3.5293         2.3800         6.7069         6.9795      2163.5299      2181.5299
     2185.4160         9.8750       0.046891        99.6380         6.9560       0.394058         3.5540         2.3889         6.8329         7.1030      2163.6819      2181.6819
     2185.5684         9.8750       0.049646        98.4734         7.3462       0.395933         3.5502         2.3944         7.2590         7.5712      2163.8339      2181.8339
     2185.7208         9.8750       0.062107       100.0225         8.0284       0.391218         3.5524         2.3988         8.0536         8.4625      2163.9859      2181.9859
     2185.8732         9.8750       0.080044       104.9284         9.0477       0.379834         3.5792         2.4053         8.8483         9.3539      2164.1380      2182.1380
     2186.0256         9.8750       0.090272       111.6469        10.3071       0.366503         3.6332         2.4107         9.6221        10.2267      2164.2900      2182.2900
     2186.1780         9.8750       0.086380       116.5735        11.5114       0.356458         3.6946         2.4083        10.2928        11.0073      2164.4420      2182.4420
     2186.3304         9.8750       0.072938       116.4805        12.3734       0.350324         3.6664         2.3935        10.9636        11.7879      2164.5940      2182.5940
     2186.4828         9.8750       0.060009       112.3958        12.6811       0.343758         3.5140         2.3721        11.6344        12.5685      2164.7461      2182.7461
     2186.6352         9.8750       0.053751       107.1567        12.4638       0.333232         3.3514         2.3525        11.1833        12.1168      2164.8981      2182.8981
     2186.7876         9.8750       0.051996       103.4640        11.7302       0.321920         3.2707         2.3387        10.5895        11.5084      2165.0501      2183.0501
     2186.9400         9.8750       0.048715       102.8284        10.8725       0.319457         3.2535         2.3270         9.9957        10.9000      2165.2021      2183.2021
     2187.0924         9.8750       0.039515       104.3061        10.3339       0.333913         3.2328         2.3056         9.9574        10.8717      2165.3542      2183.3542
     2187.2448         9.8750       0.034299       105.9215        10.3463       0.368256         3.2034         2.2659        10.2799        11.2201      2165.5062      2183.5062
     2187.3972         9.8750       0.046630       105.1317        11.0211       0.406313         3.1711         2.2187        10.6024        11.5685      2165.6582      2183.6582
     2187.5496         9.8750       0.069781       100.5590        12.1811       0.423257         3.1014         2.1850        10.8792        11.7897      2165.8102      2183.8102
     2187.7020         9.8750       0.081239        93.0500        13.2722       0.408773         3.0255         2.1797        11.0612        11.7471      2165.9623      2183.9623
     2187.8544         9.8750       0.071427        84.5132        13.2066       0.376665         3.0203         2.2023        11.2433        11.7046      2166.1143      2184.1143
     2188.0068         9.8750       0.053051        76.9414        11.5919       0.349409         3.0404         2.2410        11.3404        11.5838      2166.2663      2184.2663
     2188.1592         9.8750       0.041095        71.5874         9.2788       0.338213         3.0348         2.2848         9.6193         9.7869      2166.4183      2184.4183
     2188.3116         9.8750       0.037648        69.5552         7.2535       0.345527         3.0349         2.3278         7.8983         7.9900      2166.5704      2184.5704
     2188.4640         9.8750       0.038973        71.1034         5.9429       0.365751         3.0924         2.3658         6.1772         6.1931      2166.7224      2184.7224
