~Version Information Block
VERS .                 2.00:  CWLS LOG ASCII STANDARD - VERSION 2.00
WRAP .                   NO:  One line per depth step
~Well Information Block
#MNEM.UNIT        Data Type   Information
#---------- ----------------  -----------
STRT .M              0.0000:  START DEPTH
STOP .M           2757.2208:  STOP DEPTH
STEP .M              0.1524:  STEP
NULL .              -999.25:  NULL VALUE
COMP .                     :  COMPANY
WELL .               GABO14:  WELL
FLD  .                     :  FIELD
LOC  .   6.639036, 5.241653:  LOCATION
CTRY .                     :  COUNTRY
STAT .                     :  STATE
CNTY .                     :  COUNTY
API  .                     :  API NUMBER
UWI  .                     :  UNIQUE WELL ID
SRVC .                     :  SERVICE COMPANY
DATE .                     :  LOG DATE
~Curve Information Block
#MNEM.UNIT         API CODE   Curve Description
#---------- ----------------  -----------------
DEPTH.M                    :  Reference Depth
BS_COMP.INCHES             :  Bit Size
CALI_COMP.INCHES          0:  Caliper
DRHO_COMP.G/C3            0:  Density Correction 
DT_COMP.US/F              0:  Compressional Sonic
ECART_COMP.                :  Neutron Density Seperation
GR_COMP.GAPI              0:  Gamma Ray
NPHI_COMP.V/V             0:  Neutron Porosity
PEF_COMP.B/E              0:  Photo Electric Factor
RHOB_COMP.G/C3            0:  Bulk Density
RT_COMP.OHMM              0:  True or Deep Resistivity
RXO_COMP.OHMM             0:  Invaded Zone Resistivity
SP_COMP.MV                0:  Spontaneous Potential
TVDSS_COMP.M               :  Reference TVD sub-sea log.
TVD_COMP.M                 :  Reference TVD log.
~Parameter Information Block
#MNEM.UNIT            Value   Description
#---------- ----------------  -----------
SET  .                  LCS:  
~Other Information Block
#        DEPTH        BS_COMP      CALI_COMP      DRHO_COMP        DT_COMP     ECART_COMP        GR_COMP      NPHI_COMP       PEF_COMP      RHOB_COMP        RT_COMP       RXO_COMP        SP_COMP     TVDSS_COMP       TVD_COMP 
~A
# ...
     2068.6776        12.2500        14.4982    -999.250000       107.4343         2.5048        67.3267       0.329008         3.1016         2.2769         9.4211         4.5601        66.7117      1988.0546      2004.0546
     2068.8300        12.2500        14.5939    -999.250000       106.6565         2.8307        70.2049       0.345956         3.1696         2.2649         9.6629         4.3761        66.8908      1988.2024      2004.2024
     2068.9824        12.2500        14.6288    -999.250000       106.7708         2.4802        70.5980       0.347966         3.0774         2.2441         9.8523         4.2462        67.0078      1988.3502      2004.3502
     2069.1348        12.2500        14.6148    -999.250000       107.7838         2.2618        68.2753       0.342005         3.0434         2.2431         9.9110         4.3934        67.0624      1988.4980      2004.4980
     2069.2872        12.2500        14.5639       0.004994       108.3805         2.4996        65.3885       0.339000         3.0987         2.2600         9.6943         5.0132        66.9921      1988.6458      2004.6458
     2069.4396        12.2500        14.5100       0.005000       109.5514         2.5498        64.8801       0.336968         3.0855         2.2659         9.1226         5.3607        66.9457      1988.7936      2004.7936
     2069.5920        12.2500        14.4730       0.005000       110.4698         1.8444        67.6638       0.328964         2.9321         2.2439         8.1964         4.9588        67.0490      1988.9414      2004.9414
     2069.7444        12.2500        14.4490       0.005005       110.6416         0.8948        72.4796       0.315984         2.7694         2.2181         7.0194         4.5703        67.5553      1989.0892      2005.0892
     2069.8968        12.2500        14.4257       0.006001       110.7679         0.5777        78.1039       0.304043         2.7696         2.2221         5.8305         4.5120        68.8869      1989.2370      2005.2370
     2070.0492        12.2500        14.3436       0.007002       111.1775         1.2728        83.5678       0.305157         2.9156         2.2550         4.8740         4.4634        70.8148      1989.3848      2005.3848
     2070.2016        12.2500        14.1989       0.008016       112.3547         3.0234        87.9500       0.339152         3.0298         2.2859         4.2311         3.8770        72.8084      1989.5327      2005.5327
     2070.3540        12.2500        14.0822       0.011987       114.6285         4.9313        90.4796       0.393978         3.0020         2.2899         3.8318         2.7594        74.3428      1989.6805      2005.6805
     2070.5064        12.2500        14.0412       0.011995       118.7467         5.7579        92.7218       0.425937         2.8946         2.2780         3.5804         2.1224        75.3614      1989.8283      2005.8283
     2070.6588        12.2500        14.0569       0.011008       121.4151         5.8675        96.6919       0.433994         2.8454         2.2701         3.4472         2.1017        75.8685      1989.9762      2005.9762
     2070.8112        12.2500        14.0528       0.012030       119.9539         6.1019       100.8916       0.438011         2.8643         2.2751         3.4904         2.2445        75.7617      1990.1240      2006.1240
     2070.9636        12.2500        14.0156       0.019011       116.7602         6.6860       100.9862       0.442937         2.8848         2.2961         3.7827         2.4787        75.6140      1990.2719      2006.2719
     2071.1160        12.2500        13.9094       0.025968       112.3646         6.9473        94.6604       0.432787         2.8494         2.3261         4.3582         2.8256        75.7033      1990.4197      2006.4197
     2071.2684        12.2500        13.7095       0.023959       106.7661         5.8521        82.2366       0.380701         2.7109         2.3581         5.2397         3.6705        75.8448      1990.5676      2006.5676
     2071.4208        12.2500        13.6890       0.013998       100.2206         3.4481        66.0833       0.282828         2.5539         2.4010         6.4567         6.3915        76.1424      1990.7155      2006.7155
     2071.5732        12.2500        13.8763       0.007013        94.0119         0.7511        50.7325       0.181086         2.4359         2.4357         8.0784        12.7726        76.6968      1990.8633      2006.8633
     2071.7256        12.2500        14.2872       0.005058        90.0021        -1.5345        40.4958       0.131209         2.2686         2.4046        10.2851        16.9413        77.5404      1991.0112      2007.0112
     2071.8780        12.2500        15.0319       0.016097        90.4610        -3.3037        36.2230       0.142191         2.0213         2.2978        13.4760        12.8904        78.5307      1991.1591      2007.1591
     2072.0304        12.2500        15.7342       0.043992        95.3214        -3.8626        33.8905       0.190094         1.7961         2.1900        17.4918         7.0561        79.2999      1991.3069      2007.3069
     2072.1828        12.2500        16.2378       0.060852       100.4910        -3.3735        31.4636       0.241944         1.6716         2.1281        20.6194         4.1071        79.6983      1991.4548      2007.4548
     2072.3352        12.2500        16.9660       0.040898       105.1367        -3.0877        30.3170       0.264885         1.6307         2.1041        21.1247         3.1588        79.8876      1991.6027      2007.6027
     2072.4876        12.2500        17.6565    -999.250000       107.5931        -3.1255        29.6749       0.255938         1.6328         2.1172        19.3685         4.0085        80.1602      1991.7506      2007.7506
     2072.6400        12.2500        17.3800    -999.250000       107.4069        -2.8983        28.5853       0.236998         1.6496         2.1601        17.1441         5.0285        80.4250      1991.8985      2007.8985
     2072.7924        12.2500        16.5664    -999.250000       107.5938        -2.3748        27.5953       0.223984         1.6681         2.2080        15.9041         5.5593        80.4260      1992.0464      2008.0464
     2072.9448        12.2500        16.0924    -999.250000       107.5435        -2.3362        27.8840       0.211967         1.6734         2.2299        15.9188         6.2826        80.4257      1992.1943      2008.1943
     2073.0972        12.2500        15.8603    -999.250000       106.8131        -2.9147        29.7856       0.196986         1.6558         2.2260        16.5090         6.8079        80.3511      1992.3422      2008.3422
     2073.2496        12.2500        15.5537    -999.250000       106.8289        -3.5660        33.1071       0.184022         1.6372         2.2150        17.1437         6.7937        80.0892      1992.4901      2008.4901
     2073.4020        12.2500        15.0672    -999.250000       107.0158        -3.8368        39.2906       0.180074         1.6767         2.2080        17.7117         6.7132        79.7055      1992.6380      2008.6380
     2073.5544        12.2500        15.0055    -999.250000       106.9875        -3.3234        48.7394       0.193100         1.8031         2.2120        17.8571         6.4796        79.0784      1992.7859      2008.7859
     2073.7068        12.2500        15.7134    -999.250000       107.7255        -2.3077        58.1100       0.223037         1.9276         2.2129        17.4511         5.9932        78.6344      1992.9338      2008.9338
     2073.8592        12.2500        16.2831       0.004987       109.0977        -1.8561        61.4538       0.250977         1.9304         2.1889        17.0496         5.6249        78.5552      1993.0818      2009.0818
     2074.0116        12.2500        16.2617       0.002997       109.8774        -2.1478        56.5271       0.264961         1.8195         2.1510        16.7514         5.2874        78.5284      1993.2297      2009.2297
