~Version Information Block
VERS .                 2.00:  CWLS LOG ASCII STANDARD - VERSION 2.00
WRAP .                   NO:  One line per depth step
~Well Information Block
#MNEM.UNIT        Data Type   Information
#---------- ----------------  -----------
STRT .M           1084.4784:  START DEPTH
STOP .M           2540.6604:  STOP DEPTH
STEP .M              0.1524:  STEP
NULL .              -999.25:  NULL VALUE
COMP .                     :  COMPANY
WELL .               GABA17:  WELL
FLD  .                     :  FIELD
LOC  .   6.675366, 5.270403:  LOCATION
CTRY .                     :  COUNTRY
STAT .                     :  STATE
CNTY .                     :  COUNTY
API  .                     :  API NUMBER
UWI  .                     :  UNIQUE WELL ID
SRVC .                     :  SERVICE COMPANY
DATE .                     :  LOG DATE
~Curve Information Block
#MNEM.UNIT         API CODE   Curve Description
#---------- ----------------  -----------------
DEPTH.M                    :  Reference Depth
BS_COMP.INCHES             :  Bit Size
DRHO_COMP.G/C3             :  Density Correction
GR_COMP.GAPI               :  Gamma Ray
LLS_COMP.OHMM             0:  Resistivity
NPHI_COMP.V/V              :  Neutron Porosity
PEF_COMP.B/E               :  Photo Electric Factor
RHOB_COMP.G/C3             :  Bulk Density
RT_COMP.OHMM               :  True Resistivity
RXO_COMP.OHMM              :  Invaded Zone Resistivity
TVDSS_COMP.M               :  Reference TVD sub-sea log.
TVD_COMP.M                 :  Reference TVD log.
~Parameter Information Block
#MNEM.UNIT            Value   Description
#---------- ----------------  -----------
SET  .                  LCS:  
DEPTH_BOTTOM.M         2530:  Downhole depth
DEPTH_TOP.M            1787:  Downhole depth
UNDER_SAMPLING_RATE.      1:  Full sampling rate if equal to 1
~Other Information Block
#        DEPTH        BS_COMP      DRHO_COMP        GR_COMP       LLS_COMP      NPHI_COMP       PEF_COMP      RHOB_COMP        RT_COMP       RXO_COMP     TVDSS_COMP       TVD_COMP 
~A
# ...
     2332.6344         9.8750       0.108658       100.3896         2.5540       0.512253         3.6762         2.3778         2.4306         2.5486      2310.6654      2328.6654
     2332.7868         9.8750       0.095981       102.3647         2.5617       0.511025         3.6824         2.3864         2.4339         2.5544      2310.8176      2328.8176
     2332.9392         9.8750       0.092522       102.9322         2.5632       0.511677         3.6413         2.3929         2.4371         2.5601      2310.9698      2328.9698
     2333.0916         9.8750       0.103206       101.7883         2.5612       0.515136         3.5348         2.3931         2.4414         2.5687      2311.1220      2329.1220
     2333.2440         9.8750       0.118159        99.7648         2.5623       0.521192         3.4177         2.3896         2.4462         2.5793      2311.2742      2329.2742
     2333.3964         9.8750       0.126045        98.0023         2.5750       0.528501         3.3345         2.3874         2.4510         2.5898      2311.4264      2329.4264
     2333.5488         9.8750       0.124090        97.1796         2.6073       0.534122         3.2744         2.3892         2.4639         2.6095      2311.5786      2329.5786
     2333.7012         9.8750       0.114538        97.2547         2.6579       0.535703         3.2318         2.3954         2.4938         2.6486      2311.7307      2329.7307
     2333.8536         9.8750       0.104409        97.6150         2.7089       0.534450         3.2025         2.4041         2.5238         2.6878      2311.8829      2329.8829
     2334.0060         9.8750       0.099789        97.9582         2.7261       0.532859         3.1757         2.4137         2.5500         2.7229      2312.0351      2330.0351
     2334.1584         9.8750       0.100361        98.2567         2.6825       0.532176         3.1561         2.4216         2.4859         2.6589      2312.1873      2330.1873
     2334.3108         9.8750       0.102129        98.6409         2.5932       0.531450         3.1538         2.4251         2.4218         2.5950      2312.3395      2330.3395
     2334.4632         9.8750       0.102940        99.1365         2.5135       0.529690         3.1650         2.4218         2.3576         2.5310      2312.4917      2330.4917
     2334.6156         9.8750       0.106382        99.6834         2.5222       0.527150         3.1763         2.4111         2.5523         2.7566      2312.6439      2330.6439
     2334.7680         9.8750       0.119029       100.5876         2.7134       0.522895         3.1758         2.3969         2.8293         3.0743      2312.7961      2330.7961
     2334.9204         9.8750       0.139457       102.1063         3.1481       0.511412         3.1679         2.3869         3.1064         3.3920      2312.9483      2330.9483
     2335.0728         9.8750       0.157550       103.3706         3.9327       0.483885         3.1610         2.3881         3.6768         4.0135      2313.1005      2331.1005
     2335.2252         9.8750       0.159902       102.5238         5.0192       0.441412         3.1580         2.3997         4.5680         4.9673      2313.2527      2331.2527
     2335.3776         9.8750       0.135744        98.3505         6.1476       0.392212         3.1592         2.4166         5.4592         5.9211      2313.4049      2331.4049
     2335.5300         9.8750       0.093333        92.8215         6.8193       0.350819         3.1616         2.4267         6.1505         6.6605      2313.5571      2331.5571
     2335.6824         9.8750       0.055661        88.9904         6.8707       0.326830         3.1620         2.4181         6.0267         6.5254      2313.7093      2331.7093
     2335.8348         9.8750       0.050563        89.0310         6.5964       0.320211         3.1584         2.3877         5.9028         6.3902      2313.8615      2331.8615
     2335.9872         9.8750       0.077249        93.4154         6.2655       0.327448         3.1518         2.3426         5.7790         6.2551      2314.0137      2332.0137
     2336.1396         9.8750       0.110083       102.8240         6.0065       0.345291         3.1468         2.2972         5.6326         6.1505      2314.1658      2332.1658
     2336.2920         9.8750       0.133372       117.9428         5.8604       0.366449         3.1467         2.2614         5.4842         6.0487      2314.3180      2332.3180
     2336.4444         9.8750       0.144183       138.1063         5.8659       0.379558         3.1501         2.2420         5.3359         5.9468      2314.4702      2332.4702
     2336.5968         9.8750       0.146031       157.8767         5.9859       0.380275         3.1512         2.2375         5.3334         5.9725      2314.6224      2332.6224
     2336.7492         9.8750       0.132883       171.2868         6.1603       0.365893         3.1469         2.2480         5.4148         6.0713      2314.7746      2332.7746
     2336.9016         9.8750       0.104039       176.9426         6.2678       0.343832         3.1404         2.2639         5.4962         6.1702      2314.9268      2332.9268
     2337.0540         9.8750       0.068352       173.8864         6.2155       0.322091         3.1282         2.2744         5.5008         6.1698      2315.0790      2333.0790
     2337.2064         9.8750       0.041914       162.5992         6.0394       0.307154         3.1043         2.2726         5.3655         5.9886      2315.2312      2333.2312
     2337.3588         9.8750       0.029613       144.3836         5.8138       0.301056         3.0554         2.2573         5.2303         5.8073      2315.3834      2333.3834
     2337.5112         9.8750       0.026184       124.3806         5.6256       0.302412         2.9617         2.2320         5.1013         5.6354      2315.5356      2333.5356
     2337.6636         9.8750       0.024956       108.4073         5.5144       0.307752         2.8534         2.2044         5.0511         5.5810      2315.6878      2333.6878
     2337.8160         9.8750       0.022646        99.6726         5.4720       0.313277         2.7914         2.1844         5.0010         5.5265      2315.8400      2333.8400
     2337.9684         9.8750       0.018753        95.8986         5.4628       0.316797         2.7665         2.1762         4.9508         5.4720      2315.9922      2333.9922
     2338.1208         9.8750       0.013335        94.1315         5.4528       0.317605         2.7477         2.1806         4.9576         5.4614      2316.1444      2334.1444
     2338.2732         9.8750       0.008266        92.3690         5.4357       0.316890         2.7348         2.1926         4.9793         5.4621      2316.2966      2334.2966
     2338.4256         9.8750       0.006278        90.0524         5.4398       0.315458         2.7387         2.2073         5.0010         5.4629      2316.4488      2334.4488
     2338.5780         9.8750       0.007402        87.6300         5.4879       0.313258         2.7588         2.2196         5.0566         5.5072      2316.6009      2334.6009
     2338.7304         9.8750       0.009364        85.9901         5.5857       0.310215         2.7807         2.2258         5.1446         5.5929      2316.7531      2334.7531
     2338.8828         9.8750       0.010647        85.6858         5.6972       0.306885         2.7888         2.2256         5.2325         5.6787      2316.9053      2334.9053
     2339.0352         9.8750       0.011769        86.2033         5.7589       0.303664         2.7875         2.2223         5.2885         5.7245      2317.0575      2335.0575
     2339.1876         9.8750       0.013722        86.4373         5.7338       0.300742         2.7914         2.2196         5.2377         5.6375      2317.2097      2335.2097
     2339.3400         9.8750       0.016451        85.9730         5.6157       0.298687         2.7996         2.2178         5.1870         5.5504      2317.3619      2335.3619
