~Version Information Block
VERS .                 2.00:  CWLS LOG ASCII STANDARD - VERSION 2.00
WRAP .                   NO:  One line per depth step
~Well Information Block
#MNEM.UNIT        Data Type   Information
#---------- ----------------  -----------
STRT .M              0.0000:  START DEPTH
STOP .M           2731.4652:  STOP DEPTH
STEP .M              0.1524:  STEP
NULL .              -999.25:  NULL VALUE
COMP .                     :  COMPANY
WELL .              GABO-19:  WELL
FLD  .                     :  FIELD
LOC  .   6.687920, 5.237424:  LOCATION
CTRY .                     :  COUNTRY
STAT .                     :  STATE
CNTY .                     :  COUNTY
API  .                     :  API NUMBER
UWI  .                     :  UNIQUE WELL ID
SRVC .                     :  SERVICE COMPANY
DATE .                     :  LOG DATE
~Curve Information Block
#MNEM.UNIT         API CODE   Curve Description
#---------- ----------------  -----------------
DEPTH.M                    :  Reference TVD log.
BS_COMP.INCHES             :  BIT SIZE
DRHO_COMP.G/C3            0:  Density Correction
GR_COMP.GAPI              0:  Gamma Ray
LLS_COMP.OHMM             0:  Deep Laterolog resistivity
NPHI_COMP.V/V              :  Neutron Porosity
PEF_COMP.B/E              0:  Photo Electric Facotr
RHOB_COMP.G/C3            0:  Bulk Density
RT_COMP.OHMM              0:  True Resistivity
RXO_COMP.OHMM             0:  Invaded Zone Resistivity
SP_COMP.MV                0:  Spontaneous Potential
TVDSS_COMP.M               :  Reference TVD sub-sea log.
TVD_COMP.M                 :  Reference TVD log.
~Parameter Information Block
#MNEM.UNIT            Value   Description
#---------- ----------------  -----------
SET  .                  LCS:  
~Other Information Block
#        DEPTH        BS_COMP      DRHO_COMP        GR_COMP       LLS_COMP      NPHI_COMP       PEF_COMP      RHOB_COMP        RT_COMP       RXO_COMP        SP_COMP     TVDSS_COMP       TVD_COMP 
~A
# ...
     1697.1264         9.8750    -999.250000        33.5662        33.1931    -999.250000      -999.2500      -999.2500        47.9308        22.6659        63.1566      1594.0552      1612.0552
     1697.2788         9.8750    -999.250000        34.2780        31.7120    -999.250000      -999.2500      -999.2500        45.4952        22.4655        63.3058      1594.1849      1612.1849
     1697.4312         9.8750    -999.250000        35.4127        30.0827    -999.250000      -999.2500      -999.2500        42.7158        22.0561        63.5416      1594.3146      1612.3146
     1697.5836         9.8750    -999.250000        36.5865        27.7065    -999.250000      -999.2500      -999.2500        38.6783        22.2019        64.0053      1594.4443      1612.4443
     1697.7360         9.8750    -999.250000        37.8777        24.0911    -999.250000      -999.2500      -999.2500        32.9279        22.8960        64.8205      1594.5740      1612.5740
     1697.8884         9.8750    -999.250000        40.1393        20.1641    -999.250000      -999.2500      -999.2500        27.0225        21.9179        65.7226      1594.7037      1612.7037
     1698.0408         9.8750    -999.250000        44.2978        17.1931    -999.250000      -999.2500      -999.2500        22.7453        17.6855        66.1038      1594.8334      1612.8334
     1698.1932         9.8750    -999.250000        49.0882        15.5034    -999.250000      -999.2500      -999.2500        20.4214        12.8829        65.7113      1594.9631      1612.9631
     1698.3456         9.8750    -999.250000        51.7806        15.2132    -999.250000      -999.2500      -999.2500        20.1493         9.1273        64.7148      1595.0928      1613.0928
     1698.4980         9.8750    -999.250000        51.2155        15.8574    -999.250000      -999.2500      -999.2500        21.1561         6.6260        63.7550      1595.2225      1613.2225
     1698.6504         9.8750    -999.250000        47.8630        17.0568    -999.250000      -999.2500      -999.2500        22.7554         5.4528        63.2704      1595.3521      1613.3521
     1698.8028         9.8750    -999.250000        44.7445        17.9399    -999.250000      -999.2500      -999.2500        23.7488         5.0722        63.1271      1595.4818      1613.4818
     1698.9552         9.8750    -999.250000        44.2781        17.7454    -999.250000      -999.2500      -999.2500        23.2555         5.4827        63.1350      1595.6115      1613.6115
     1699.1076         9.8750    -999.250000        46.4903        16.8628    -999.250000      -999.2500      -999.2500        21.9487         6.4972        63.1409      1595.7411      1613.7411
     1699.2600         9.8750    -999.250000        50.8826        15.7885    -999.250000      -999.2500      -999.2500        20.5053         7.9573        63.1412      1595.8708      1613.8708
     1699.4124         9.8750    -999.250000        55.4121        14.9164    -999.250000      -999.2500      -999.2500        19.4055         9.4628        63.1441      1596.0005      1614.0005
     1699.5648         9.8750    -999.250000        58.2795        14.4702    -999.250000      -999.2500      -999.2500        18.9538        10.3676        63.0899      1596.1301      1614.1301
     1699.7172         9.8750    -999.250000        58.4529        14.4584    -999.250000      -999.2500      -999.2500        19.1534        10.3050        62.9024      1596.2598      1614.2598
     1699.8696         9.8750    -999.250000        55.7533        14.8438    -999.250000      -999.2500      -999.2500        19.9450         9.3829        62.5715      1596.3894      1614.3894
     1700.0220         9.8750    -999.250000        51.4120        15.4629    -999.250000      -999.2500      -999.2500        21.0550         8.2905        62.1855      1596.5191      1614.5191
     1700.1744         9.8750    -999.250000        46.7804        16.1541    -999.250000      -999.2500      -999.2500        22.2077         7.5246        61.8345      1596.6487      1614.6487
     1700.3268         9.8750    -999.250000        43.0590        16.7708    -999.250000      -999.2500      -999.2500        23.1815         7.0839        61.5832      1596.7783      1614.7783
     1700.4792         9.8750    -999.250000        40.7492        17.2759    -999.250000      -999.2500      -999.2500        23.9390         6.8685        61.4508      1596.9080      1614.9080
     1700.6316         9.8750    -999.250000        39.4780        17.7046    -999.250000      -999.2500      -999.2500        24.5512         6.8846        61.4006      1597.0376      1615.0376
     1700.7840         9.8750    -999.250000        38.4463        18.1166    -999.250000      -999.2500      -999.2500        25.1312         7.0378        61.3600      1597.1672      1615.1672
     1700.9364         9.8750    -999.250000        37.1951        18.5618    -999.250000      -999.2500      -999.2500        25.7756         7.2432        61.2889      1597.2968      1615.2968
     1701.0888         9.8750    -999.250000        36.1470        19.0308    -999.250000      -999.2500      -999.2500        26.4761         7.1910        61.2393      1597.4264      1615.4264
     1701.2412         9.8750    -999.250000        35.9527        19.4391    -999.250000      -999.2500      -999.2500        27.1037         6.5500        61.3118      1597.5561      1615.5561
     1701.3936         9.8750    -999.250000        36.5237        19.6875    -999.250000      -999.2500      -999.2500        27.5025         5.8558        61.5082      1597.6857      1615.6857
     1701.5460         9.8750    -999.250000        37.7053        19.6883    -999.250000      -999.2500      -999.2500        27.5386         5.5129        61.7412      1597.8153      1615.8153
     1701.6984         9.8750    -999.250000        39.1381        19.5403    -999.250000      -999.2500      -999.2500        27.3616         5.4371        61.8990      1597.9449      1615.9449
     1701.8508         9.8750    -999.250000        40.1532        19.4465    -999.250000      -999.2500      -999.2500        27.2633         5.6018        61.9294      1598.0745      1616.0745
     1702.0032         9.8750    -999.250000        40.3305        19.5967    -999.250000      -999.2500      -999.2500        27.5054         5.8634        61.8934      1598.2040      1616.2040
     1702.1556         9.8750    -999.250000        39.8120        20.1112    -999.250000      -999.2500      -999.2500        28.2363         6.3362        61.8178      1598.3336      1616.3336
     1702.3080         9.8750    -999.250000        39.4191        20.8114    -999.250000      -999.2500      -999.2500        29.1984         7.0932        61.7002      1598.4632      1616.4632
     1702.4604         9.8750    -999.250000        39.6438        21.4376    -999.250000      -999.2500      -999.2500        30.0236         7.8986        61.5350      1598.5928      1616.5928
     1702.6128         9.8750    -999.250000        40.2857        21.7737    -999.250000      -999.2500      -999.2500        30.4240         8.3704        61.3597      1598.7224      1616.7224
     1702.7652         9.8750    -999.250000        41.2040        21.8109    -999.250000      -999.2500      -999.2500        30.4008         8.3324        61.1799      1598.8519      1616.8519
     1702.9176         9.8750    -999.250000        42.2595        21.7620    -999.250000      -999.2500      -999.2500        30.2766         8.0465        60.9741      1598.9815      1616.9815
     1703.0700         9.8750    -999.250000        43.0503        21.7426    -999.250000      -999.2500      -999.2500        30.2213         8.1254        60.7477      1599.1111      1617.1111
     1703.2224         9.8750    -999.250000        43.1104        21.7089    -999.250000      -999.2500      -999.2500        30.1419         8.8248        60.5564      1599.2406      1617.2406
     1703.3748         9.8750    -999.250000        42.5962        21.5073    -999.250000      -999.2500      -999.2500        29.7847         9.7164        60.4494      1599.3702      1617.3702
