~Version Information Block
VERS .                 2.00:  CWLS LOG ASCII STANDARD - VERSION 2.00
WRAP .                   NO:  One line per depth step
~Well Information Block
#MNEM.UNIT        Data Type   Information
#---------- ----------------  -----------
STRT .M              0.0000:  START DEPTH
STOP .M           2954.7312:  STOP DEPTH
STEP .M              0.1524:  STEP
NULL .              -999.25:  NULL VALUE
COMP .                     :  COMPANY
WELL .               GABO16:  WELL
FLD  .                     :  FIELD
LOC  .   6.656374, 5.257763:  LOCATION
CTRY .                     :  COUNTRY
STAT .                     :  STATE
CNTY .                     :  COUNTY
API  .                     :  API NUMBER
UWI  .                     :  UNIQUE WELL ID
SRVC .                     :  SERVICE COMPANY
DATE .                     :  LOG DATE
~Curve Information Block
#MNEM.UNIT         API CODE   Curve Description
#---------- ----------------  -----------------
DEPTH.M                    :  Reference Depth
BS_COMP.INCHES             :  Bit Size
CALI_COMP.INCHES           :  Caliper
DRHO_COMP.G/C3             :  Density Neutron Seperation
DT_COMP.US/F              0:  Compressional Sonic
GR_COMP.GAPI              0:  Gamma Ray
NPHI_COMP.V/V              :  Neutron Porosity
PEF_COMP.B/E              0:  Photo Electric Factor
RHOB_COMP.G/C3            0:  Bulk Density
RT_COMP.OHMM              0:  True or Deep Resistivity
RXO_COMP.OHMM             0:  Invaded Zone Resistivity
SP_COMP.MV                0:  Spontanuous Potential
TVDSS_COMP.M               :  Reference TVD sub-sea log.
TVD_COMP.M                 :  Reference TVD log.
~Parameter Information Block
#MNEM.UNIT            Value   Description
#---------- ----------------  -----------
SET  .                  LCS:  
~Other Information Block
COMMENT:
COMMENT:
$$MUX      Data from LAS tape
$$MUX      fevsbd 09/10/97 ng95603  ASCII:      GABO-16
$$MUX
$$MUX

#        DEPTH        BS_COMP      CALI_COMP      DRHO_COMP        DT_COMP        GR_COMP      NPHI_COMP       PEF_COMP      RHOB_COMP        RT_COMP       RXO_COMP        SP_COMP     TVDSS_COMP       TVD_COMP 
~A
# ...
     1369.6188        12.2500        12.1875      -0.017804       127.2108        38.9604       0.306128         1.5451         2.0664        47.0981         7.4342        70.3020      1310.0995      1330.5995
     1369.7712        12.2500        12.1875      -0.021483       127.0283        36.5685       0.314555         1.5099         2.0660        49.4448         7.8072        70.7878      1310.2424      1330.7424
     1369.9236        12.2500        12.1875      -0.020582       126.8917        34.9790       0.316095         1.4665         2.0705        52.4887         7.7781        71.5476      1310.3853      1330.8853
     1370.0760        12.2500        12.1875      -0.014797       127.3162        34.9250       0.308543         1.4467         2.0785        53.8928         7.3299        72.4577      1310.5281      1331.0281
     1370.2284        12.2500        12.1875      -0.008318       128.1469        35.8582       0.298173         1.4453         2.0843        53.2962         6.9167        73.1070      1310.6709      1331.1709
     1370.3808        12.2500        12.1875      -0.006716       128.8867        36.4973       0.291076         1.4509         2.0840        53.0981         6.8226        73.5790      1310.8138      1331.3138
     1370.5332        12.2500        12.1875      -0.009410       129.2268        36.5045       0.289955         1.4608         2.0798        53.5489         6.9931        73.5911      1310.9567      1331.4567
     1370.6856        12.2500        12.1896      -0.014799       129.1942        36.6197       0.296711         1.4703         2.0728        53.5387         7.2189        73.0343      1311.0995      1331.5995
     1370.8380        12.2500        12.2149      -0.019992       128.6239        37.0025       0.312334         1.4717         2.0667        54.1167         7.2313        72.6949      1311.2424      1331.7424
     1370.9904        12.2500        12.2597      -0.022890       127.7004        36.5198       0.325890         1.4677         2.0646        55.9091         7.0659        72.7128      1311.3853      1331.8853
     1371.1428        12.2500        12.2811      -0.023096       127.0315        34.9241       0.327469         1.4634         2.0676        57.0078         6.9817        72.7161      1311.5281      1332.0281
     1371.2952        12.2500        12.2812      -0.022099       126.6887        33.5469       0.317933         1.4597         2.0719        56.4889         6.9951        72.1832      1311.6709      1332.1709
     1371.4476        12.2500        12.2812      -0.020789       127.0797        33.1961       0.307472         1.4603         2.0746        55.7013         7.0083        71.2884      1311.8138      1332.3138
     1371.6000        12.2500        12.2812      -0.016405       128.4880        33.8957       0.304633         1.4620         2.0760        55.0856         7.0370        70.9697      1311.9565      1332.4565
     1371.7524        12.2500        12.2812      -0.013425       130.1009        34.5888       0.305683         1.4556         2.0735        54.1467         7.0871        71.3200      1312.0994      1332.5994
     1371.9048        12.2500        12.2812      -0.017216       131.0955        34.2909       0.304056         1.4432         2.0642        54.1977         7.1299        71.8482      1312.2423      1332.7423
     1372.0572        12.2500        12.2812      -0.025290       131.0005        33.2533       0.301061         1.4414         2.0528        55.7225         7.1185        72.2330      1312.3851      1332.8851
     1372.2096        12.2500        12.2812      -0.030775       129.9033        32.4943       0.300255         1.4602         2.0454        56.6586         7.0469        72.3857      1312.5280      1333.0280
     1372.3620        12.2500        12.2812      -0.029494       128.8048        33.1501       0.305833         1.4873         2.0440        57.0008         6.9858        72.2071      1312.6708      1333.1708
     1372.5144        12.2500        12.2812      -0.026706       128.3577        34.4828       0.315771         1.5046         2.0434        58.1505         6.9346        71.7948      1312.8137      1333.3137
     1372.6668        12.2500        12.2812      -0.025600       128.4696        34.7896       0.326800         1.5093         2.0420        58.8784         6.8420        71.4066      1312.9565      1333.4565
     1372.8192        12.2500        12.2812      -0.024502       129.0269        33.7730       0.332360         1.5167         2.0436        58.2767         6.7156        70.9787      1313.0992      1333.5992
     1372.9716        12.2500        12.2812      -0.024013       129.4597        32.5052       0.328481         1.5292         2.0486        58.0631         6.6418        70.5934      1313.2422      1333.7422
     1373.1240        12.2500        12.2812      -0.027007       129.1807        32.2404       0.321432         1.5286         2.0533        58.5681         6.7508        70.3309      1313.3850      1333.8850
     1373.2764        12.2500        12.2812      -0.031986       128.5954        33.0353       0.317050         1.5107         2.0573        58.0108         6.9624        70.3086      1313.5278      1334.0278
     1373.4288        12.2500        12.2812      -0.033286       128.1130        33.9236       0.313435         1.4957         2.0603        55.6410         7.0729        70.5351      1313.6707      1334.1707
     1373.5812        12.2500        12.2812      -0.030797       127.6745        33.8365       0.309069         1.4914         2.0607        51.0215         7.1131        70.3888      1313.8135      1334.3135
     1373.7336        12.2500        12.2812      -0.027603       127.1395        32.2447       0.308891         1.4827         2.0625        42.9909         7.1802        69.8561      1313.9563      1334.4563
     1373.8860        12.2500        12.2812      -0.025103       126.1719        30.1491       0.314552         1.4784         2.0750        32.8563         7.2162        69.0518      1314.0992      1334.5992
     1374.0384        12.2500        12.2812      -0.023299       124.5396        29.8292       0.314541         1.5378         2.0989        24.2438         7.2785        67.7443      1314.2419      1334.7419
     1374.1908        12.2500        12.2812      -0.021084       122.8530        33.7777       0.300119         1.7000         2.1269        18.4489         7.5073        66.3971      1314.3848      1334.8848
     1374.3432        12.2500        12.2813      -0.014461       122.5633        42.8655       0.284724         1.9080         2.1574        14.4547         7.5842        65.4587      1314.5276      1335.0276
     1374.4956        12.2500        12.3010       0.002603       123.9770        54.9335       0.294404         2.0888         2.1943        11.5341         6.9840        64.9906      1314.6705      1335.1705
     1374.6480        12.2500        12.3789       0.020331       126.9592        65.7579       0.334314         2.2539         2.2273         9.3908         6.0539        64.6629      1314.8134      1335.3134
     1374.8004        12.2500        12.4665       0.019350       131.4750        72.4294       0.389927         2.4607         2.2420         7.9768         5.4839        64.4448      1314.9561      1335.4561
     1374.9528        12.2500        12.4862       0.004818       135.1919        76.1747       0.443982         2.6616         2.2453         7.2236         5.1304        64.7116      1315.0989      1335.5989
     1375.1052        12.2500        12.4766      -0.004965       135.7453        80.0393       0.484491         2.6829         2.2502         6.9801         4.5839        65.2446      1315.2417      1335.7417
     1375.2576        12.2500        12.4786      -0.005199       133.2486        85.6981       0.497755         2.5010         2.2521         7.1367         4.1125        65.4980      1315.3846      1335.8846
     1375.4100        12.2500        12.5039      -0.005021       129.4667        92.3254       0.478408         2.2876         2.2346         7.5745         4.2548        65.2207      1315.5273      1336.0273
