~Version Information Block
VERS .                 2.00:  CWLS LOG ASCII STANDARD - VERSION 2.00
WRAP .                   NO:  One line per depth step
~Well Information Block
#MNEM.UNIT        Data Type   Information
#---------- ----------------  -----------
STRT .M            800.1000:  START DEPTH
STOP .M           4245.4068:  STOP DEPTH
STEP .M              0.1524:  STEP
NULL .              -999.25:  NULL VALUE
COMP .                     :  COMPANY
WELL .               GABO51:  WELL
FLD  .                     :  FIELD
LOC  .   6.643728, 5.227344:  LOCATION
CTRY .                     :  COUNTRY
STAT .                     :  STATE
CNTY .                     :  COUNTY
API  .                     :  API NUMBER
UWI  .                     :  UNIQUE WELL ID
SRVC .                     :  SERVICE COMPANY
DATE .                     :  LOG DATE
~Curve Information Block
#MNEM.UNIT         API CODE   Curve Description
#---------- ----------------  -----------------
DEPTH.M                    :  Depth
DRHO_COMP.G/C3             :  Density Correction
DTSM_COMP.US/F             :  Shear Sonic
DT_COMP.US/F               :  Compressional Sonic
GR_COMP.GAPI               :  Gamma Ray
HCAL_COMP.INCHES           :  Caliper
NPHI_COMP.V/V              :  Neutron Porosity
PEF_COMP.B/E               :  Pho Electric Factor
RDEEP_COMP.OHMM            :  Deep Resistivity
RHOB_COMP.G/C3             :  Bulk Density
RSHAL_COMP.OHMM            :  Shallow Resistivity
TVDSS_COMP.M               :  Reference TVD sub-sea log.
TVD_COMP.M                 :  Reference TVD log.
~Parameter Information Block
#MNEM.UNIT            Value   Description
#---------- ----------------  -----------
SET  .                  LCS:  
~Other Information Block
#        DEPTH      DRHO_COMP      DTSM_COMP        DT_COMP        GR_COMP      HCAL_COMP      NPHI_COMP       PEF_COMP     RDEEP_COMP      RHOB_COMP     RSHAL_COMP     TVDSS_COMP       TVD_COMP 
~A
# ...
     3008.9856       0.008200       177.5982       189.3183        43.0249        12.6351       0.218100         1.9381        10.0906         2.2095         9.9639      2368.1281      2387.9081
     3009.1380       0.005300       184.0935       194.8551        39.4929        12.6946       0.229700         1.7385        11.0615         2.1850        14.2075      2368.2371      2388.0171
     3009.2904      -0.001100       187.2045       196.9307        38.9232        12.6797       0.243800         1.6105        15.9984         2.1761        18.9747      2368.3461      2388.1261
     3009.4428      -0.006600       186.8071       191.3256        39.4074        12.4267       0.248200         1.5776        26.5202         2.1716        25.3040      2368.4551      2388.2351
     3009.5952      -0.007000       184.6278       191.0303        39.7492        12.4639       0.246900         1.7059        37.0781         2.1945        25.9874      2368.5640      2388.3440
     3009.7476       0.016500       181.8069       165.8333        43.8509        12.2704       0.237200         1.9722        32.0874         2.3046        38.8008      2368.6730      2388.4530
     3009.9000       0.027100       177.4098       164.9395        53.0941        12.3374       0.209700         2.3187        18.0851         2.4263        24.8042      2368.7820      2388.5620
     3010.0524       0.028400       170.8068       162.2664        71.2100        12.5272       0.209900         2.5955        13.9306         2.5207        16.8847      2368.8909      2388.6709
     3010.2048       0.007000       164.7456       159.8472        78.3880        12.5681       0.233900         2.6766        13.4566         2.5178        14.6602      2368.9999      2388.7799
     3010.3572       0.002000       162.5702       158.7977        75.9953        12.6053       0.254300         2.5414        11.5654         2.4626        12.8049      2369.1088      2388.8888
     3010.5096       0.007100       165.2675       160.2484        61.5254        12.6649       0.251400         2.2547         7.6377         2.3697         9.3831      2369.2178      2388.9978
     3010.6620       0.003400       171.3908       163.0662        51.5986        12.6574       0.264600         1.9393         8.6497         2.2516         9.6761      2369.3267      2389.1067
     3010.8144      -0.002100       176.8693       166.8922        46.8133        12.5086       0.267700         1.7249        12.0364         2.1650        13.3935      2369.4356      2389.2156
     3010.9668      -0.006900       179.6514       172.2258        43.5875        12.4825       0.259400         1.6389        17.5987         2.1353        22.7407      2369.5446      2389.3246
     3011.1192      -0.005100       181.2085       175.2007        42.6459        12.4341       0.260100         1.6517        19.7730         2.1543        19.6464      2369.6535      2389.4335
     3011.2716      -0.002300       182.3596       177.1575        41.0650        12.4155       0.243600         1.6810        19.4174         2.1810        17.6559      2369.7624      2389.5424
     3011.4240      -0.003000       182.8383       176.2931        42.5818        12.3820       0.229000         1.7004        24.1928         2.1896        19.5301      2369.8713      2389.6513
     3011.5764      -0.000500       182.7520       179.0577        39.5498        12.4192       0.224700         1.7084        26.8931         2.1909        23.3395      2369.9802      2389.7602
     3011.7288      -0.002400       182.8416       178.0391        40.5610        12.4416       0.209200         1.7073        21.6966         2.1982        22.5423      2370.0891      2389.8691
     3011.8812      -0.003800       184.4531       175.7540        41.3443        12.4713       0.206600         1.7188        20.7344         2.2049        20.7021      2370.1980      2389.9780
     3012.0336      -0.008600       186.0665       174.7765        43.2813        12.5309       0.203100         1.7644        27.6848         2.2090        22.3325      2370.3069      2390.0869
     3012.1860       0.003500       183.8722       175.2007        42.5976        12.3597       0.221500         1.9443        44.2386         2.2556        23.1872      2370.4158      2390.1958
     3012.3384       0.045400       177.3293       173.7244        43.8082        12.4713       0.230400         2.2798        52.2467         2.4001        36.5803      2370.5247      2390.3047
     3012.4908       0.084400       169.5468       167.8177        49.1632        12.5160       0.226400         2.6464        31.9546         2.5549        24.2547      2370.6336      2390.4136
     3012.6432       0.109700       164.3396       161.9997        62.6078        12.5532       0.210500         2.8389        14.1404         2.6674        12.9408      2370.7425      2390.5225
     3012.7956       0.095800       161.2026       149.4396        78.3453        12.5495       0.235600         2.7974        17.5726         2.6779        14.0461      2370.8514      2390.6314
     3012.9480       0.063000       157.6271       149.0846        98.7399        12.5681       0.290000         2.6445        14.4691         2.6398         8.5096      2370.9602      2390.7402
     3013.1004       0.026800       154.9379       144.6549       106.0318        12.5830       0.305100         2.5044         8.3448         2.5770         5.9163      2371.0691      2390.8491
     3013.2528      -0.001500       154.9169       143.0027       107.7836        12.5681       0.296200         2.3822         8.1758         2.5142         6.3255      2371.1780      2390.9580
     3013.4052      -0.006200       156.6021       143.3012        95.9342        12.5607       0.278700         2.2517         9.8040         2.4693         6.5384      2371.2868      2391.0668
     3013.5576      -0.007300       158.0832       145.3564        87.8447        12.6053       0.246500         2.1294         9.6326         2.4372         5.9624      2371.3957      2391.1757
     3013.7100      -0.006500       156.9404       145.3337        80.5243        12.6276       0.191400         2.0940         8.1192         2.4305         5.6882      2371.5045      2391.2845
     3013.8624      -0.002800       154.5664       153.7817        75.2832        12.6872       0.172400         2.1815         8.4068         2.4606         5.4336      2371.6134      2391.3934
     3014.0148       0.002100       154.9064       155.7162        70.9038        12.8509       0.185200         2.3306         7.9432         2.4967         5.5858      2371.7222      2391.5022
     3014.1672       0.002400       156.8223       154.2916        65.5772        13.1263       0.208900         2.3620         6.4174         2.4945         5.0287      2371.8311      2391.6111
     3014.3196       0.001800       158.5310       153.6254        62.6149        12.9179       0.208800         2.2516         5.8724         2.4637         4.4266      2371.9399      2391.7199
     3014.4720       0.000000       161.4644       153.7590        56.0564        12.6425       0.209100         2.0594         6.2102         2.4242         4.3513      2372.0487      2391.8287
     3014.6244      -0.002000       165.9911       162.2606        49.5193        12.5495       0.219600         1.9023         5.7756         2.3809         4.1902      2372.1575      2391.9375
     3014.7768      -0.005500       171.8625       172.9507        43.3667        12.5607       0.225500         1.7924         5.4076         2.3206         4.0289      2372.2664      2392.0464
     3014.9292      -0.012900       181.0164       196.2114        41.2019        12.6946       0.246600         1.7042         4.8951         2.2507         4.1954      2372.3752      2392.1552
     3015.0816      -0.016800       193.2274       202.1696        39.5356        12.9105       0.250500         1.6681         6.0654         2.1981         4.8787      2372.4840      2392.2640
     3015.2340      -0.013800       205.1364       207.3283        39.4857        12.8509       0.265600         1.6860         6.1502         2.1727         4.9861      2372.5928      2392.3728
