~Version Information Block
VERS .                 2.00:  CWLS LOG ASCII STANDARD - VERSION 2.00
WRAP .                   NO:  One line per depth step
~Well Information Block
#MNEM.UNIT        Data Type   Information
#---------- ----------------  -----------
STRT .M              0.0000:  START DEPTH
STOP .M           2731.4652:  STOP DEPTH
STEP .M              0.1524:  STEP
NULL .              -999.25:  NULL VALUE
COMP .                     :  COMPANY
WELL .              GABO-19:  WELL
FLD  .                     :  FIELD
LOC  .   6.687920, 5.237424:  LOCATION
CTRY .                     :  COUNTRY
STAT .                     :  STATE
CNTY .                     :  COUNTY
API  .                     :  API NUMBER
UWI  .                     :  UNIQUE WELL ID
SRVC .                     :  SERVICE COMPANY
DATE .                     :  LOG DATE
~Curve Information Block
#MNEM.UNIT         API CODE   Curve Description
#---------- ----------------  -----------------
DEPTH.M                    :  Reference TVD log.
BS_COMP.INCHES             :  BIT SIZE
DRHO_COMP.G/C3            0:  Density Correction
GR_COMP.GAPI              0:  Gamma Ray
LLS_COMP.OHMM             0:  Deep Laterolog resistivity
NPHI_COMP.V/V              :  Neutron Porosity
PEF_COMP.B/E              0:  Photo Electric Facotr
RHOB_COMP.G/C3            0:  Bulk Density
RT_COMP.OHMM              0:  True Resistivity
RXO_COMP.OHMM             0:  Invaded Zone Resistivity
SP_COMP.MV                0:  Spontaneous Potential
TVDSS_COMP.M               :  Reference TVD sub-sea log.
TVD_COMP.M                 :  Reference TVD log.
~Parameter Information Block
#MNEM.UNIT            Value   Description
#---------- ----------------  -----------
SET  .                  LCS:  
~Other Information Block
#        DEPTH        BS_COMP      DRHO_COMP        GR_COMP       LLS_COMP      NPHI_COMP       PEF_COMP      RHOB_COMP        RT_COMP       RXO_COMP        SP_COMP     TVDSS_COMP       TVD_COMP 
~A
# ...
     2612.4408         9.8750       0.068033       114.8126         2.3979       0.220529         3.4818         2.5146         2.6946         2.0773        69.5353      2369.2331      2387.2331
     2612.5932         9.8750       0.049621       114.6435         2.5706       0.191861         3.5264         2.5437         2.8841         2.1646        68.9638      2369.3739      2387.3739
     2612.7456         9.8750       0.036659       113.0061         2.7685       0.177343         3.5705         2.5591         3.0778         2.3253        68.4373      2369.5147      2387.5147
     2612.8980         9.8750       0.035368       110.9701         2.9891       0.174616         3.6097         2.5613         3.2872         2.5045        68.0885      2369.6555      2387.6555
     2613.0504         9.8750       0.042308       109.6060         3.2794       0.181344         3.6850         2.5544         3.5840         2.7451        67.9645      2369.7963      2387.7963
     2613.2028         9.8750       0.047105       108.4909         3.6640       0.191939         3.7964         2.5464         3.9992         3.1548        67.9006      2369.9371      2387.9371
     2613.3552         9.8750       0.048122       105.8278         4.1571       0.203549         3.8730         2.5447         4.5490         3.9413        67.6903      2370.0779      2388.0779
     2613.5076         9.8750       0.051116       101.5386         4.6529       0.213841         3.9319         2.5563         5.1046         5.0796        67.1955      2370.2187      2388.2187
     2613.6600         9.8750       0.053412        97.4372         4.9660       0.223326         4.1384         2.5853         5.4573         6.1915        66.2740      2370.3595      2388.3595
     2613.8124         9.8750       0.047037        95.4993         5.0225       0.235402         4.5434         2.6132         5.5223         6.6861        65.0158      2370.5003      2388.5003
     2613.9648         9.8750       0.037529        96.7236         4.9247       0.252133         4.9128         2.6134         5.4296         6.7602        63.5983      2370.6411      2388.6411
     2614.1172         9.8750       0.039386       100.2655         4.9284       0.267909         4.8804         2.5839         5.4970         7.2643        62.4559      2370.7819      2388.7819
     2614.2696         9.8750       0.051247       103.8890         5.1865       0.272976         4.4221         2.5468         5.9501         8.8991        62.0671      2370.9227      2388.9227
     2614.4220         9.8750       0.053657       103.7516         5.6241       0.262809         3.9334         2.5239         6.6927        11.6765        62.5271      2371.0634      2389.0634
     2614.5744         9.8750       0.036066        97.7882         5.7752       0.244465         3.6499         2.5118         7.0328        12.2788        63.5513      2371.2042      2389.2042
     2614.7268         9.8750       0.010402        89.5087         5.1663       0.234267         3.5147         2.4924         6.2576         8.0964        64.6526      2371.3450      2389.3450
     2614.8792         9.8750    -999.250000        85.6256         4.3562       0.241542         3.3729         2.4571         5.1458         4.7211        65.5559      2371.4858      2389.4858
     2615.0316         9.8750    -999.250000        89.7470         3.9166       0.264579         3.1826         2.4129         4.5545         3.4262        66.2049      2371.6266      2389.6266
     2615.1840         9.8750    -999.250000        97.1609         3.8566       0.291253         3.0478         2.3722         4.5245         3.2050        66.6304      2371.7674      2389.7674
     2615.3364         9.8750       0.022541       101.4203         4.1128       0.308676         3.0394         2.3439         4.9225         3.7578        66.7434      2371.9082      2389.9082
     2615.4888         9.8750       0.028969       102.2967         4.4557       0.315213         3.0706         2.3277         5.3742         4.8869        66.4315      2372.0490      2390.0490
     2615.6412         9.8750       0.029261       103.6935         4.4848       0.315030         3.0867         2.3223         5.3664         5.9732        65.3457      2372.1898      2390.1898
     2615.7936         9.8750       0.029286       107.7668         4.1799       0.313369         3.1021         2.3237         4.9486         6.3112        63.3370      2372.3306      2390.3306
     2615.9460         9.8750       0.033243       113.3596         3.7448       0.312387         3.1272         2.3312         4.4073         5.9635        60.3980      2372.4714      2390.4714
     2616.0984         9.8750       0.039011       118.2272         3.3433       0.313273         3.1438         2.3425         3.9326         5.4233        57.2820      2372.6122      2390.6122
     2616.2508         9.8750       0.040419       122.2374         3.0567       0.316742         3.1365         2.3544         3.6141         4.9728        54.8400      2372.7530      2390.7530
     2616.4032         9.8750       0.035600       126.0009         2.8841       0.320408         3.1217         2.3618         3.4439         4.6936        53.2905      2372.8938      2390.8938
     2616.5556         9.8750       0.027715       129.1498         2.8291       0.321220         3.1129         2.3603         3.4271         4.6496        52.6395      2373.0346      2391.0346
     2616.7080         9.8750       0.022930       130.7961         2.8287       0.318043         3.1091         2.3531         3.4817         4.7641        52.4587      2373.1754      2391.1754
     2616.8604         9.8750       0.023513       130.2419         2.8342       0.312764         3.1106         2.3461         3.5344         4.9519        52.6946      2373.3162      2391.3162
     2617.0128         9.8750       0.027056       129.0578         2.8122       0.310688         3.1182         2.3445         3.5318         5.0286        53.2674      2373.4570      2391.4570
     2617.1652         9.8750       0.031086       129.7482         2.7689       0.314154         3.1288         2.3497         3.4786         4.8887        54.0075      2373.5978      2391.5978
     2617.3176         9.8750       0.033919       133.3869         2.7371       0.318829         3.1371         2.3579         3.4376         4.6896        54.4627      2373.7386      2391.7386
     2617.4700         9.8750       0.034955       138.3147         2.7429       0.320261         3.1409         2.3658         3.4572         4.6203        54.2968      2373.8794      2391.8794
     2617.6224         9.8750       0.035308       140.2491         2.7856       0.317794         3.1410         2.3715         3.5363         4.7020        53.7798      2374.0202      2392.0202
     2617.7748         9.8750       0.036532       136.9977         2.8397       0.312312         3.1399         2.3747         3.6331         4.7839        53.5841      2374.1610      2392.1610
     2617.9272         9.8750       0.037528       130.6112         2.8646       0.306338         3.1402         2.3757         3.6851         4.6958        54.2935      2374.3018      2392.3018
     2618.0796         9.8750       0.035772       124.6705         2.8401       0.304498         3.1421         2.3746         3.6655         4.4492        55.8162      2374.4426      2392.4426
     2618.2320         9.8750       0.033432       121.4640         2.7832       0.311822         3.1457         2.3720         3.5990         4.1700        57.4893      2374.5834      2392.5834
     2618.3844         9.8750       0.034920       120.3372         2.7340       0.328341         3.1517         2.3694         3.5425         3.9787        58.7190      2374.7242      2392.7242
     2618.5368         9.8750       0.041361       119.7676         2.7259       0.349620         3.1603         2.3705         3.5416         3.9479        59.3834      2374.8650      2392.8650
     2618.6892         9.8750       0.049382       119.0687         2.7592       0.368409         3.1692         2.3766         3.5983         4.0447        59.9450      2375.0058      2393.0058
