~Version Information Block
VERS .                 2.00:  CWLS LOG ASCII STANDARD - VERSION 2.00
WRAP .                   NO:  One line per depth step
~Well Information Block
#MNEM.UNIT        Data Type   Information
#---------- ----------------  -----------
STRT .M              0.0000:  START DEPTH
STOP .M           2950.4637:  STOP DEPTH
STEP .M              0.1524:  STEP
NULL .              -999.25:  NULL VALUE
COMP .                     :  COMPANY
WELL .               GABO15:  WELL
FLD  .                     :  FIELD
LOC  .   6.656416, 5.257802:  LOCATION
CTRY .                     :  COUNTRY
STAT .                     :  STATE
CNTY .                     :  COUNTY
API  .                     :  API NUMBER
UWI  .                     :  UNIQUE WELL ID
SRVC .                     :  SERVICE COMPANY
DATE .                     :  LOG DATE
~Curve Information Block
#MNEM.UNIT         API CODE   Curve Description
#---------- ----------------  -----------------
DEPTH.M                    :  Reference Depth.
BS_COMP.INCHES             :  Bit Size
CALI_COMP.INCHES          0:  Caliper
DRHO_COMP.G/C3            0:  Density Correction
DT_COMP.US/F              0:  Compressional Sonic
ECART_COMP.                :  Neutron Density Seperation
GR_COMP.GAPI               :  Gamma Ray
NPHI_COMP.V/V             0:  Neutron Porosity
PEF_COMP.B/E              0:  Photo Electric Factor
RHOB_COMP.G/C3            0:  Bulk Density
RT_COMP.OHMM              0:  True or Deep Resistivity
RXO_COMP.OHMM             0:  Invaded Zone Resistivity
SP_COMP.MV                 :  Values changed using TEXT_EDIT
TVDSS_COMP.M               :  Reference TVD sub-sea log.
TVD_COMP.M                 :  Reference TVD log.
~Parameter Information Block
#MNEM.UNIT            Value   Description
#---------- ----------------  -----------
SET  .                  LCS:  
MFST .DEGF               80:  Mud filtrate sample temperature
RMFS .OHMM              1.9:  Resistivity of Filtrate sample
SP_SH.MV                  0:  Shale baseline value for SP
~Other Information Block
COMMENT:
$$MUX      Data from LAS tape
$$MUX      fevsbd 09/10/97 ng95603  ASCII:      GABO15.fod
$$MUX
$$MUX
#        DEPTH        BS_COMP      CALI_COMP      DRHO_COMP        DT_COMP     ECART_COMP        GR_COMP      NPHI_COMP       PEF_COMP      RHOB_COMP        RT_COMP       RXO_COMP        SP_COMP     TVDSS_COMP       TVD_COMP 
~A
# ...
     2060.2954         9.8750        11.2809    -999.250000       110.9689        -1.5737        40.5579       0.265992         1.7728         2.1780        17.1782         3.0741       -56.0029      1922.0153      1942.0153
     2060.4478         9.8750        11.2323    -999.250000       110.4059        -1.7138        38.7231       0.262978         1.7179         2.1760        17.7746         3.6751       -55.5084      1922.1431      1942.1431
     2060.6002         9.8750        11.3419       0.003011       109.8439        -1.9000        37.3256       0.254983         1.6880         2.1800        18.1022         3.8780       -55.0245      1922.2708      1942.2708
     2060.7526         9.8750        11.2905       0.007005       109.2499        -1.8993        36.4444       0.249000         1.7061         2.1900        18.3584         3.5929       -55.6543      1922.3985      1942.3985
     2060.9050         9.8750        11.0957       0.009005       108.6879        -1.6390        36.2185       0.249003         1.7491         2.2030        18.5829         3.1942       -55.9942      1922.5262      1942.5262
     2061.0574         9.8750        10.9898       0.011005       107.9689        -1.2861        36.0474       0.249992         1.7881         2.2190        18.7947         3.4883       -56.4687      1922.6539      1942.6539
     2061.2098         9.8750        10.9201       0.013005       107.3749        -1.0660        36.1998       0.247000         1.8221         2.2350        18.8996         3.7005       -56.4309      1922.7816      1942.7816
     2061.3622         9.8750        10.9452       0.014994       107.0940        -0.8061        37.9377       0.247008         1.8671         2.2480        18.9361         3.5002       -56.1928      1922.9093      1942.9093
     2061.5146         9.8750        11.0118       0.012986       107.0310        -0.6064        40.7332       0.250011         1.9090         2.2530        18.9888         3.4217       -56.1128      1923.0371      1943.0371
     2061.6670         9.8750        10.9568       0.007981       107.2812        -0.5132        42.9922       0.254016         1.9129         2.2510        19.0354         3.2698       -56.8738      1923.1648      1943.1648
     2061.8194         9.8750        10.8984    -999.250000       108.3753        -0.4530        43.0635       0.260022         1.8880         2.2440        19.1389         3.7175       -55.9497      1923.2925      1943.2925
     2061.9718         9.8750        11.0274    -999.250000       109.9381        -0.3262        40.6876       0.268028         1.8730         2.2370        19.3330         4.0235       -54.5377      1923.4202      1943.4202
     2062.1242         9.8750        11.1618    -999.250000       110.6251        -0.1535        37.9889       0.278019         1.8629         2.2290        19.6031         4.1035       -53.2318      1923.5478      1943.5478
     2062.2766         9.8750        11.0854       0.003003       111.1883        -0.2008        36.8586       0.285008         1.8258         2.2149        20.0880         3.8274       -52.5705      1923.6755      1943.6755
     2062.4290         9.8750        10.8704    -999.250000       112.5631        -0.4814        36.6906       0.287989         1.7518         2.1959        20.8836         3.8759       -51.7335      1923.8032      1943.8032
     2062.5814         9.8750        10.6369    -999.250000       113.2810        -0.9951        35.0807       0.283975         1.6829         2.1770        21.7105         4.3216       -51.1947      1923.9309      1943.9309
     2062.7338         9.8750        10.5861    -999.250000       113.2190        -1.6347        31.7076       0.274981         1.6430         2.1600        22.2072         4.8819       -51.0688      1924.0586      1944.0586
     2062.8862         9.8750        10.6087    -999.250000       113.1879        -2.1472        29.0217       0.267989         1.6260         2.1460        22.4340         5.3337       -50.6837      1924.1863      1944.1863
     2063.0386         9.8750        10.4978    -999.250000       112.4377        -2.3398        28.5399       0.263997         1.6391         2.1430        22.6656         4.8260       -50.9015      1924.3139      1944.3139
     2063.1910         9.8750        10.4301    -999.250000       110.7187        -2.2731        28.8657       0.263000         1.6661         2.1480        22.8571         4.7172       -50.8070      1924.4416      1944.4416
     2063.3434         9.8750        10.4691    -999.250000       109.1249        -2.1732        28.3995       0.263005         1.6880         2.1530        22.9422         5.5085       -50.9471      1924.5693      1944.5693
     2063.4958         9.8750        10.5161    -999.250000       108.7811        -2.1268        27.5026       0.265005         1.6950         2.1520        23.0467         5.8605       -50.0369      1924.6969      1944.6969
     2063.6482         9.8750        10.5611    -999.250000       109.5942        -2.1804        27.0078       0.267000         1.6860         2.1460        22.6574         6.3167       -49.3011      1924.8246      1944.8246
     2063.8006         9.8750        10.5858    -999.250000       110.5942        -2.3204        28.3897       0.266997         1.6953         2.1390        21.6327         6.4484       -48.9490      1924.9523      1944.9523
     2063.9530         9.8750        10.5115    -999.250000       111.5941        -2.4737        33.7590       0.265992         1.8048         2.1330        20.5874         6.2109       -50.6195      1925.0799      1945.0799
     2064.1054         9.8750        10.3124    -999.250000       112.3747        -2.5930        44.3155       0.262997         2.1084         2.1320        20.1116         6.1315       -51.4620      1925.2076      1945.2076
     2064.2578         9.8750        10.1107       0.002014       110.8435        -2.4649        62.3406       0.262030         2.6084         2.1400        20.7240         6.2413       -53.0453      1925.3352      1945.3352
     2064.4102         9.8750         9.9939       0.007011       108.1557        -1.8168        89.4884       0.273069         3.1168         2.1540        21.6765         6.6330       -54.6455      1925.4629      1945.4629
     2064.5626         9.8750         9.9651       0.011005       106.7188        -0.6634       122.3761       0.298071         3.4021         2.1700        22.2927         6.8173       -55.8013      1925.5905      1945.5905
     2064.7150         9.8750         9.9941       0.013016       105.4378         0.5226       151.1332       0.324044         3.4529         2.1861        21.8804         6.9923       -57.4692      1925.7182      1945.7182
     2064.8674         9.8750        10.0271       0.019052       104.4377         1.4759       165.3689       0.340014         3.4010         2.2071        20.0101         7.1676       -59.7424      1925.8458      1945.8458
     2065.0198         9.8750        10.0612       0.038091       102.9374         2.4228       163.1189       0.344986         3.3851         2.2462        17.6278         7.3432       -59.6881      1925.9734      1945.9734
     2065.1722         9.8750        10.1212       0.071066        99.6245         3.4349       149.6067       0.339950         3.4321         2.3052        15.7854         7.7085       -59.2943      1926.1011      1946.1011
     2065.3246         9.8750        10.2093       0.094983        97.0938         3.9938       131.6691       0.321950         3.4721         2.3631        14.4609         7.5549       -58.3808      1926.2287      1946.2287
     2065.4770         9.8750        10.3133       0.088907        96.1557         4.1739       113.5036       0.303994         3.5104         2.4020        13.4647         7.0410       -58.3204      1926.3563      1946.3563
     2065.6294         9.8750        10.4143       0.054898        94.5627         4.3879        97.7347       0.302030         3.6509         2.4160        12.8477         6.2528       -57.7799      1926.4840      1946.4840
