~Version Information Block
VERS .                 2.00:  CWLS LOG ASCII STANDARD - VERSION 2.00
WRAP .                   NO:  One line per depth step
~Well Information Block
#MNEM.UNIT        Data Type   Information
#---------- ----------------  -----------
STRT .M              0.0000:  START DEPTH
STOP .M           2748.9912:  STOP DEPTH
STEP .M              0.1524:  STEP
NULL .              -999.25:  NULL VALUE
COMP .                     :  COMPANY
WELL .               GABO13:  LOCATION
FLD  .                     :  FIELD
LOC  .   6.617986, 5.233868:  LOCATION
CTRY .                     :  COUNTRY
STAT .                     :  STATE
CNTY .                     :  COUNTY
API  .                     :  API NUMBER
UWI  .                     :  UNIQUE WELL ID
SRVC .                     :  SERVICE COMPANY
DATE .                     :  LOG DATE
~Curve Information Block
#MNEM.UNIT         API CODE   Curve Description
#---------- ----------------  -----------------
DEPTH.M                    :  Depth
BS_COMP.INCHES             :  Bit Size
CALI_COMP.INCHES          0:  Caliper
DRHO_COMP.G/C3             :  Density Correction Log
DT_COMP.US/F              0:  Compressional Sonic
ECART_COMP.                :  Neutron Density Seperation
GR_COMP.GAPI              0:  Gamma Ray
NPHI_COMP.V/V              :  Neutron Porosity
PEF_COMP.B/E              0:  Photo Electric Factor
RHOB_COMP.G/C3            0:  Bulk Density
RDeep_COMP.OHMM           0:  Deep Resistivity
RShal_COMP.OHMM           0:  Shallow Resistivity
SP_COMP.MV                0:  Spontaneous Potential
TVDSS_COMP.M               :  Reference TVD sub-sea log.
TVD_COMP.M                 :  Reference TVD log.
~Parameter Information Block
#MNEM.UNIT            Value   Description
#---------- ----------------  -----------
SET  .                  LCS:  
~Other Information Block
#        DEPTH        BS_COMP      CALI_COMP      DRHO_COMP        DT_COMP     ECART_COMP        GR_COMP      NPHI_COMP       PEF_COMP      RHOB_COMP      RDeep_COMP     RShal_COMP        SP_COMP     TVDSS_COMP       TVD_COMP 
~A
# ...
     2290.2672        12.2500        12.6370       0.016029       107.6808         0.7383       100.4005       0.343538         2.7726         2.1644         9.5180         5.4060       -11.7195      2276.1637      2289.9637
     2290.4196        12.2500        12.8027       0.019400       108.0305         0.1882       112.6930       0.343439         2.3016         2.1370         9.4593         5.4212       -12.1304      2276.3161      2290.1161
     2290.5720        12.2500        13.0555       0.020442       106.5506         0.6919       122.1873       0.352272         2.1476         2.1475         9.2432         5.5693       -12.1841      2276.4684      2290.2684
     2290.7244        12.2500        13.3207       0.020735       103.5621         1.9997       123.3875       0.368567         2.3023         2.1857         9.0178         5.7683       -12.0242      2276.6208      2290.4208
     2290.8768        12.2500        13.5348       0.019905       100.3383         3.6615       121.2914       0.384495         2.6463         2.2422         8.8337         6.0138       -11.6284      2276.7731      2290.5731
     2291.0292        12.2500        13.6975       0.017622        97.1226         4.8799       119.3319       0.378209         3.0909         2.3137         8.6630         6.3093       -10.8545      2276.9255      2290.7255
     2291.1816        12.2500        13.8388       0.014686        93.0695         5.4697       117.9261       0.345889         3.6110         2.3970         8.4627         6.5629        -9.7470      2277.0778      2290.8778
     2291.3340        12.2500        14.0591       0.012484        87.4831         6.2122       115.8483       0.318304         4.1496         2.4801         8.1741         6.4219        -8.5028      2277.2302      2291.0302
     2291.4864        12.2500        14.2654       0.010736        82.1312         7.2663       115.9557       0.317427         4.5004         2.5343         7.7514         5.4276        -7.1315      2277.3825      2291.1825
     2291.6388        12.2500        14.4704       0.008645        79.8248         8.0595       117.3176       0.338553         4.5583         2.5387         7.1795         4.0200        -5.7677      2277.5349      2291.3349
     2291.7912        12.2500        14.6311       0.008121        80.8171         9.0327       118.1881       0.392345         4.3421         2.4976         6.4773         2.8515        -4.6053      2277.6873      2291.4873
     2291.9436        12.2500        14.5138       0.014012        83.6416        11.4955       117.1728       0.507270         3.9588         2.4291         5.7160         2.1713        -3.6884      2277.8396      2291.6396
     2292.0960        12.2500        14.7930       0.028058        88.6462        13.9834       111.1624       0.636232         3.6364         2.3386         5.0115         1.8479        -2.8689      2277.9920      2291.7920
     2292.2484        12.2500        15.2721       0.045521        93.4561        12.7599       105.6821       0.657000         3.4534         2.2430         4.4249         1.6844        -2.1058      2278.1443      2291.9443
     2292.4008        12.2500        15.6467       0.062025        97.1069         8.9416       104.0594       0.582948         3.3638         2.1756         3.9733         1.5852        -1.4645      2278.2967      2292.0967
     2292.5532        12.2500        15.7704       0.077645       100.5532         7.4648       106.6839       0.547283         3.2990         2.1611         3.6609         1.5216        -0.9836      2278.4490      2292.2490
     2292.7056        12.2500        15.4987       0.097269       102.3729         8.7597       109.4982       0.578065         3.2145         2.1745         3.4565         1.4956        -0.5667      2278.6014      2292.4014
     2292.8580        12.2500        15.1588       0.121914       103.8822         9.4108       110.2779       0.594719         3.1788         2.1793         3.3120         1.5005        -0.0947      2278.7537      2292.5537
     2293.0104        12.2500        14.8815       0.147986       106.3428         8.5214       110.4896       0.569500         3.2064         2.1769         3.1995         1.5196         0.2873      2278.9061      2292.7061
     2293.1628        12.2500        14.6470       0.165244       108.7978         7.9974       112.3291       0.548303         3.2216         2.1860         3.1076         1.5341         0.3925      2279.0584      2292.8584
     2293.3152        12.2500        14.6366       0.160055       109.1495         9.9845       110.1505       0.596223         3.1687         2.2054         3.0325         1.5255         0.3887      2279.2107      2293.0107
     2293.4676        12.2500        14.7078       0.148805       106.6155        13.7873       106.8824       0.701147         3.1014         2.2206         2.9778         1.4967         0.4321      2279.3631      2293.1631
     2293.6200        12.2500        14.8097       0.150434       103.3118        17.4494       104.9235       0.806087         3.0542         2.2289         2.9545         1.4607         0.5025      2279.5154      2293.3154
     2293.7724        12.2500        14.9513       0.157944       101.5683        18.8957       104.3417       0.845580         3.0277         2.2356         2.9718         1.4231         0.5621      2279.6678      2293.4678
     2293.9248        12.2500        14.9485       0.144625       101.3514        16.5219       102.3793       0.770506         3.0364         2.2421         3.0213         1.3845         0.6295      2279.8201      2293.6201
     2294.0772        12.2500        14.9821       0.125086       101.3154        12.4458       101.0150       0.648034         3.0708         2.2424         3.0676         1.3628         0.6631      2279.9725      2293.7725
     2294.2296        12.2500        14.9859       0.123521       100.2840         9.2814       103.1211       0.559401         3.1347         2.2318         3.0857         1.3728         0.5803      2280.1248      2293.9248
     2294.3820        12.2500        14.8862       0.137314        98.7704         8.5233       108.2277       0.547489         3.2385         2.2136         3.0693         1.4048         0.4853      2280.2772      2294.0772
     2294.5344        12.2500        14.8991       0.139859        98.8574        10.3577       108.0540       0.610564         3.3425         2.2001         3.0195         1.4251         0.6488      2280.4295      2294.2295
     2294.6868        12.2500        14.9895       0.118966       100.4745        11.7104       105.2618       0.649953         3.3470         2.2022         2.9408         1.4182         0.9460      2280.5819      2294.3819
     2294.8392        12.2500        15.1545       0.088947       102.9643        10.6877       102.9797       0.608580         3.2500         2.2202         2.8438         1.4099         1.1909      2280.7342      2294.5342
     2294.9916        12.2500        15.2841       0.076699       105.2333         8.7882       101.2541       0.539552         3.1229         2.2402         2.7494         1.4267         1.3493      2280.8866      2294.6866
     2295.1440        12.2500        14.9861       0.104523       105.5993         8.5937        98.5682       0.531135         3.0400         2.2444         2.6895         1.4665         1.4181      2281.0389      2294.8389
     2295.2964        12.2500        14.8089       0.153644       104.5944         9.1936       101.7099       0.551005         3.0221         2.2413         2.6837         1.4948         1.3392      2281.1913      2294.9913
     2295.4488        12.2500        14.7637       0.192060       103.7849         9.3891       105.9943       0.555981         3.0338         2.2428         2.7150         1.4998         1.1012      2281.3436      2295.1436
     2295.6012        12.2500        14.7486       0.201283       103.4582         9.0253       108.0006       0.541289         3.0421         2.2492         2.7583         1.5042         0.8642      2281.4959      2295.2959
