~Version Information Block
VERS .                 2.00:  CWLS LOG ASCII STANDARD - VERSION 2.00
WRAP .                   NO:  One line per depth step
~Well Information Block
#MNEM.UNIT        Data Type   Information
#---------- ----------------  -----------
STRT .M              0.0000:  START DEPTH
STOP .M           2757.2208:  STOP DEPTH
STEP .M              0.1524:  STEP
NULL .              -999.25:  NULL VALUE
COMP .                     :  COMPANY
WELL .               GABO14:  WELL
FLD  .                     :  FIELD
LOC  .   6.639036, 5.241653:  LOCATION
CTRY .                     :  COUNTRY
STAT .                     :  STATE
CNTY .                     :  COUNTY
API  .                     :  API NUMBER
UWI  .                     :  UNIQUE WELL ID
SRVC .                     :  SERVICE COMPANY
DATE .                     :  LOG DATE
~Curve Information Block
#MNEM.UNIT         API CODE   Curve Description
#---------- ----------------  -----------------
DEPTH.M                    :  Reference Depth
BS_COMP.INCHES             :  Bit Size
CALI_COMP.INCHES          0:  Caliper
DRHO_COMP.G/C3            0:  Density Correction 
DT_COMP.US/F              0:  Compressional Sonic
ECART_COMP.                :  Neutron Density Seperation
GR_COMP.GAPI              0:  Gamma Ray
NPHI_COMP.V/V             0:  Neutron Porosity
PEF_COMP.B/E              0:  Photo Electric Factor
RHOB_COMP.G/C3            0:  Bulk Density
RT_COMP.OHMM              0:  True or Deep Resistivity
RXO_COMP.OHMM             0:  Invaded Zone Resistivity
SP_COMP.MV                0:  Spontaneous Potential
TVDSS_COMP.M               :  Reference TVD sub-sea log.
TVD_COMP.M                 :  Reference TVD log.
~Parameter Information Block
#MNEM.UNIT            Value   Description
#---------- ----------------  -----------
SET  .                  LCS:  
~Other Information Block
#        DEPTH        BS_COMP      CALI_COMP      DRHO_COMP        DT_COMP     ECART_COMP        GR_COMP      NPHI_COMP       PEF_COMP      RHOB_COMP        RT_COMP       RXO_COMP        SP_COMP     TVDSS_COMP       TVD_COMP 
~A
# ...
     2123.5416        12.2500        14.9818       0.012989       114.2731         4.3368        96.3339       0.372755         2.9440         2.2956         2.6137         1.8730        75.7448      2041.4551      2057.4551
     2123.6940        12.2500        14.9452       0.009996       115.7828         5.8802        94.1893       0.408515         2.9826         2.3132         2.5395         1.6854        76.0020      2041.6038      2057.6038
     2123.8464        12.2500        14.9775       0.007014       116.1713         6.6353        94.4801       0.427075         2.9674         2.3200         2.4245         1.6164        75.7759      2041.7525      2057.7525
     2123.9988        12.2500        15.1017       0.008015       116.0299         6.7402        96.8561       0.425273         2.9033         2.3282         2.3197         1.6522        75.3718      2041.9012      2057.9012
     2124.1512        12.2500        15.1286       0.012001       115.7932         6.6028        99.4463       0.415609         2.8448         2.3375         2.2489         1.7300        75.2337      2042.0500      2058.0500
     2124.3036        12.2500        15.0629       0.014981       114.9793         6.6181       101.2293       0.413923         2.8510         2.3410         2.2201         1.7958        75.0732      2042.1987      2058.1987
     2124.4560        12.2500        14.9941       0.013002       113.9798         6.4265       103.4316       0.413259         2.9180         2.3326         2.2393         1.8038        74.7735      2042.3474      2058.3474
     2124.6084        12.2500        14.9757       0.011999       113.0765         5.8573       105.4839       0.405199         2.9789         2.3175         2.2943         1.7583        74.6459      2042.4962      2058.4962
     2124.7608        12.2500        15.0960       0.010998       112.7524         5.3427       105.4650       0.393377         2.9815         2.3115         2.3694         1.7834        74.7307      2042.6449      2058.6449
     2124.9132        12.2500        15.1716       0.009994       113.2657         5.4653       104.6042       0.389300         2.9645         2.3244         2.4545         1.8936        74.9572      2042.7937      2058.7937
     2125.0656        12.2500        15.1331       0.007988       113.1987         6.3347       103.5776       0.406066         2.9996         2.3400         2.5608         2.0993        75.1791      2042.9424      2058.9424
     2125.2180        12.2500        15.1313       0.004003       112.2707         7.2355       103.4977       0.431795         3.0715         2.3421         2.7333         2.3302        75.1502      2043.0911      2059.0911
     2125.3704        12.2500        15.1931       0.002011       110.0599         7.2232       102.9695       0.429580         3.0904         2.3452         3.0200         2.3380        74.7490      2043.2399      2059.2399
     2125.5228        12.2500        15.2540       0.003015       106.1829         5.3520        96.3829       0.370997         2.9725         2.3493         3.4447         2.3433        74.2180      2043.3886      2059.3886
     2125.6752        12.2500        15.2890       0.007001       101.8745         1.8558        81.3282       0.283622         2.6840         2.3201         4.0275         3.6932        73.5882      2043.5374      2059.5374
     2125.8276        12.2500        15.3158       0.009990        98.3588        -1.6409        61.2148       0.215784         2.2790         2.2583         4.7900         6.9205        72.7220      2043.6861      2059.6861
     2125.9800        12.2500        15.2950       0.010005        98.3306        -3.1662        43.6230       0.199228         1.9387         2.2096         5.8565         9.1009        71.8285      2043.8349      2059.8349
     2126.1324        12.2500        15.2770       0.011001       102.0986        -2.8741        35.7436       0.218885         1.8333         2.1915         7.6773         8.1962        71.2388      2043.9836      2059.9836
     2126.2848        12.2500        15.2539       0.011992       106.5190        -2.0930        39.3249       0.247887         1.9355         2.1822        10.9697         6.0346        70.9409      2044.1324      2060.1324
     2126.4372        12.2500        15.2205       0.010989       110.5894        -1.5909        47.8732       0.270667         2.0422         2.1693        16.0477         4.2698        70.6880      2044.2812      2060.2812
     2126.5896        12.2500        15.5281       0.008028       113.0192        -1.6222        52.3784       0.278948         2.0338         2.1540        21.7637         3.7148        70.4957      2044.4299      2060.4299
     2126.7420        12.2500        16.4121       0.012029       113.7074        -1.9969        49.6692       0.273866         1.9473         2.1437        25.5427         4.1011        70.2733      2044.5787      2060.5787
     2126.8944        12.2500        17.8991       0.020985       114.6430        -2.3314        45.6498       0.264157         1.8850         2.1432        26.3192         4.4275        70.1577      2044.7274      2060.7274
     2127.0468        12.2500        19.7991       0.023949       115.0604        -2.4517        44.3239       0.256272         1.8949         2.1503        25.2923         5.0047        70.4217      2044.8762      2060.8762
     2127.1992        12.2500        20.6836       0.014987       114.4963        -2.4934        43.4308       0.249528         1.9532         2.1594        23.4319         5.6073        70.5614      2045.0250      2061.0250
     2127.3516        12.2500        19.7129       0.006010       113.6989        -2.6482        41.8746       0.242162         2.0073         2.1640        21.4811         5.9271        70.3362      2045.1737      2061.1737
     2127.5040        12.2500        18.6093    -999.250000       112.8112        -2.9234        40.0748       0.234069         2.0084         2.1637        19.9943         6.4189        70.2121      2045.3225      2061.3225
     2127.6564        12.2500        17.8997    -999.250000       112.4223        -3.1302        39.3875       0.229022         1.9532         2.1618        18.7708         6.9844        70.3551      2045.4713      2061.4713
     2127.8088        12.2500        16.9234    -999.250000       112.4831        -3.2093        38.6315       0.230019         1.8844         2.1562        17.4381         7.2864        70.4956      2045.6201      2061.6201
     2127.9612        12.2500        16.5392    -999.250000       112.2938        -3.2658        36.5957       0.233313         1.8323         2.1479        15.9666         6.9648        70.5192      2045.7688      2061.7688
     2128.1136        12.2500        16.3304    -999.250000       111.6037        -3.5316        33.7474       0.228842         1.8101         2.1420        14.5863         6.2508        70.3615      2045.9176      2061.9176
     2128.2660        12.2500        15.8298    -999.250000       110.4666        -3.7880        30.6197       0.220937         1.8067         2.1424        13.3686         5.6601        69.9265      2046.0664      2062.0664
     2128.4184        12.2500        15.8828    -999.250000       109.9575        -3.7190        28.6348       0.220835         1.7957         2.1460        12.4238         5.2277        69.6898      2046.2152      2062.2152
     2128.5708        12.2500        15.8764    -999.250000       110.9280        -3.2404        27.3064       0.235295         1.7652         2.1458        11.9590         5.0526        69.8870      2046.3639      2062.3639
     2128.7232        12.2500        15.3117    -999.250000       112.2052        -2.8241        25.8952       0.253514         1.7154         2.1363        11.9497         5.2497        70.0383      2046.5127      2062.5127
     2128.8756        12.2500        15.0683    -999.250000       112.6696        -2.6063        25.9386       0.259595         1.6674         2.1370        12.1095         5.5551        70.0121      2046.6615      2062.6615
