~Version Information Block
VERS .                 2.00:  CWLS LOG ASCII STANDARD - VERSION 2.00
WRAP .                   NO:  One line per depth step
~Well Information Block
#MNEM.UNIT        Data Type   Information
#---------- ----------------  -----------
STRT .M              0.0000:  START DEPTH
STOP .M           2954.7312:  STOP DEPTH
STEP .M              0.1524:  STEP
NULL .              -999.25:  NULL VALUE
COMP .                     :  COMPANY
WELL .               GABO16:  WELL
FLD  .                     :  FIELD
LOC  .   6.656374, 5.257763:  LOCATION
CTRY .                     :  COUNTRY
STAT .                     :  STATE
CNTY .                     :  COUNTY
API  .                     :  API NUMBER
UWI  .                     :  UNIQUE WELL ID
SRVC .                     :  SERVICE COMPANY
DATE .                     :  LOG DATE
~Curve Information Block
#MNEM.UNIT         API CODE   Curve Description
#---------- ----------------  -----------------
DEPTH.M                    :  Reference Depth
BS_COMP.INCHES             :  Bit Size
CALI_COMP.INCHES           :  Caliper
DRHO_COMP.G/C3             :  Density Neutron Seperation
DT_COMP.US/F              0:  Compressional Sonic
GR_COMP.GAPI              0:  Gamma Ray
NPHI_COMP.V/V              :  Neutron Porosity
PEF_COMP.B/E              0:  Photo Electric Factor
RHOB_COMP.G/C3            0:  Bulk Density
RT_COMP.OHMM              0:  True or Deep Resistivity
RXO_COMP.OHMM             0:  Invaded Zone Resistivity
SP_COMP.MV                0:  Spontanuous Potential
TVDSS_COMP.M               :  Reference TVD sub-sea log.
TVD_COMP.M                 :  Reference TVD log.
~Parameter Information Block
#MNEM.UNIT            Value   Description
#---------- ----------------  -----------
SET  .                  LCS:  
~Other Information Block
COMMENT:
COMMENT:
$$MUX      Data from LAS tape
$$MUX      fevsbd 09/10/97 ng95603  ASCII:      GABO-16
$$MUX
$$MUX

#        DEPTH        BS_COMP      CALI_COMP      DRHO_COMP        DT_COMP        GR_COMP      NPHI_COMP       PEF_COMP      RHOB_COMP        RT_COMP       RXO_COMP        SP_COMP     TVDSS_COMP       TVD_COMP 
~A
# ...
     2457.2976        12.2500        14.9156       0.000703        91.9834        83.4012       0.366682         5.4893         2.5624         2.4321         3.3430        85.8031      2257.2009      2277.7009
     2457.4500        12.2500        14.8399      -0.002189        90.2122        83.6280       0.346735         5.4312         2.5678         2.4426         4.1479        85.4693      2257.3308      2277.8308
     2457.6024        12.2500        14.7812      -0.003381        92.3945        84.0882       0.334961         4.8991         2.5444         2.4488         4.4433        85.4155      2257.4607      2277.9607
     2457.7548        12.2500        14.7263      -0.001672        98.6039        82.2263       0.351016         4.5737         2.4969         2.4559         3.6340        85.8470      2257.5908      2278.0908
     2457.9072        12.2500        14.6266       0.004191       105.3416        78.2577       0.390848         4.8900         2.4554         2.4466         2.8823        86.3666      2257.7207      2278.2207
     2458.0596        12.2500        14.4612       0.008756       110.1947        74.7622       0.426945         5.5353         2.4461         2.3990         2.8487        86.7810      2257.8503      2278.3503
     2458.2120        12.2500        14.3452       0.006683       111.6591        73.3753       0.437134         6.0768         2.4665         2.3282         2.9632        86.9170      2257.9802      2278.4802
     2458.3644        12.2500        14.4373       0.002044       109.4642        73.9665       0.424698         6.5670         2.4959         2.2672         2.9795        86.4998      2258.1101      2278.6101
     2458.5168        12.2500        14.5031       0.004062       104.9567        76.8288       0.407234         7.2117         2.5245         2.2106         3.3809        86.1529      2258.2400      2278.7400
     2458.6692        12.2500        14.4484       0.015374       100.7079        81.2509       0.399021         7.3733         2.5541         2.1308         4.0943        86.1672      2258.3701      2278.8701
     2458.8216        12.2500        14.5512       0.022699        99.6820        83.6206       0.402182         6.4286         2.5758         2.0328         4.3963        86.0479      2258.5000      2279.0000
     2458.9740        12.2500        14.7204       0.014871       102.8215        82.3428       0.415663         5.0037         2.5689         1.9434         3.8177        85.5051      2258.6299      2279.1299
     2459.1264        12.2500        14.8516       0.002634       108.1925        80.1301       0.441044         3.9234         2.5251         1.8683         2.8306        85.1515      2258.7598      2279.2598
     2459.2788        12.2500        14.9837      -0.004470       112.4116        79.7256       0.474102         3.3625         2.4659         1.7871         2.3777        85.5198      2258.8896      2279.3896
     2459.4312        12.2500        15.0111      -0.007080       114.5801        80.6673       0.493957         3.1772         2.4234         1.6956         2.4162        86.0833      2259.0195      2279.5195
     2459.5836        12.2500        14.9436      -0.006599       115.4573        82.2988       0.487378         3.1723         2.4042         1.6280         2.4765        86.4433      2259.1494      2279.6494
     2459.7360        12.2500        14.8987      -0.006002       115.4787        85.3094       0.468305         3.1980         2.3964         1.6098         2.4967        86.6441      2259.2795      2279.7795
     2459.8884        12.2500        14.8924      -0.005698       115.1883        88.0076       0.459928         3.1837         2.3917         1.6265         2.4990        86.6281      2259.4094      2279.9094
     2460.0408        12.2500        14.8615      -0.005093       114.0913        88.1656       0.470940         3.1547         2.3896         1.6545         2.4821        86.4606      2259.5393      2280.0393
     2460.1932        12.2500        14.8637      -0.003403       112.1734        87.2811       0.491313         3.1803         2.3932         1.6877         2.4990        86.3550      2259.6692      2280.1692
     2460.3456        12.2500        14.9273      -0.002116       110.1097        88.1226       0.499494         3.2810         2.4012         1.7359         2.6057        86.2726      2259.7993      2280.2993
     2460.4980        12.2500        14.9315      -0.003306       109.2529        90.7411       0.483824         3.3542         2.4096         1.8154         2.7602        86.1681      2259.9292      2280.4292
     2460.6504        12.2500        14.9183      -0.005382       110.3770        92.5344       0.463518         3.3457         2.4124         1.9366         2.8622        86.2052      2260.0591      2280.5591
     2460.8028        12.2500        14.9451      -0.004781       110.4939        91.9025       0.462400         3.3661         2.4094         2.0839         2.8601        86.5926      2260.1892      2280.6892
     2460.9552        12.2500        14.9349      -0.001300       107.8515        89.6057       0.472888         3.6399         2.4092         2.2151         2.8063        87.2199      2260.3191      2280.8191
     2461.1076        12.2500        14.8415       0.002197       104.5312        85.9310       0.466780         4.2503         2.4249         2.3000         2.7673        87.5622      2260.4490      2280.9490
     2461.2600        12.2500        14.7019       0.005205       101.4749        81.6250       0.439872         4.8199         2.4535         2.3493         2.9092        87.4824      2260.5791      2281.0791
     2461.4124        12.2500        14.6645       0.008886        99.1949        78.5485       0.415920         4.8520         2.4771         2.3908         3.2990        87.1347      2260.7090      2281.2090
     2461.5648        12.2500        14.6814       0.010361        99.6027        78.6623       0.407002         4.4122         2.4815         2.4396         3.6155        86.6124      2260.8389      2281.3389
     2461.7172        12.2500        14.6703       0.005975       102.2496        81.9432       0.407314         3.9276         2.4722         2.4800         3.5177        86.2918      2260.9690      2281.4690
     2461.8696        12.2500        14.7249      -0.002180       104.3015        85.8342       0.408002         3.6301         2.4618         2.4732         3.1878        86.1307      2261.0989      2281.5989
     2462.0220        12.2500        14.8245      -0.007258       104.3719        88.9679       0.408312         3.5009         2.4554         2.4141         3.0761        85.6782      2261.2290      2281.7290
     2462.1744        12.2500        14.9747      -0.006081       104.0799        91.7574       0.408680         3.4327         2.4495         2.3402         3.1659        85.2515      2261.3589      2281.8589
     2462.3268        12.2500        15.1364      -0.002007       105.0197        93.9323       0.407050         3.3753         2.4421         2.2873         3.1932        85.4284      2261.4890      2281.9890
     2462.4792        12.2500        15.2540       0.001080       105.8327        94.0769       0.403734         3.3204         2.4380         2.2613         3.1259        85.9704      2261.6189      2282.1189
     2462.6316        12.2500        15.3784       0.001185       105.9138        92.2174       0.399429         3.2870         2.4386         2.2482         3.0385        86.3910      2261.7488      2282.2488
     2462.7840        12.2500        15.4210      -0.000909       105.9508        90.2528       0.395694         3.3232         2.4413         2.2401         3.0228        86.5789      2261.8789      2282.3789
     2462.9364        12.2500        15.3313      -0.004402       105.7962        90.0036       0.396278         3.4347         2.4449         2.2338         3.1265        86.5788      2262.0088      2282.5088
     2463.0888        12.2500        15.1330      -0.008182       105.8461        91.0984       0.402479         3.5632         2.4467         2.2256         3.2255        86.4332      2262.1389      2282.6389
