~Version Information Block
VERS .                 2.00:  CWLS LOG ASCII STANDARD - VERSION 2.00
WRAP .                   NO:  One line per depth step
~Well Information Block
#MNEM.UNIT        Data Type   Information
#---------- ----------------  -----------
STRT .M           1084.4784:  START DEPTH
STOP .M           2540.6604:  STOP DEPTH
STEP .M              0.1524:  STEP
NULL .              -999.25:  NULL VALUE
COMP .                     :  COMPANY
WELL .               GABA17:  WELL
FLD  .                     :  FIELD
LOC  .   6.675366, 5.270403:  LOCATION
CTRY .                     :  COUNTRY
STAT .                     :  STATE
CNTY .                     :  COUNTY
API  .                     :  API NUMBER
UWI  .                     :  UNIQUE WELL ID
SRVC .                     :  SERVICE COMPANY
DATE .                     :  LOG DATE
~Curve Information Block
#MNEM.UNIT         API CODE   Curve Description
#---------- ----------------  -----------------
DEPTH.M                    :  Reference Depth
BS_COMP.INCHES             :  Bit Size
DRHO_COMP.G/C3             :  Density Correction
GR_COMP.GAPI               :  Gamma Ray
LLS_COMP.OHMM             0:  Resistivity
NPHI_COMP.V/V              :  Neutron Porosity
PEF_COMP.B/E               :  Photo Electric Factor
RHOB_COMP.G/C3             :  Bulk Density
RT_COMP.OHMM               :  True Resistivity
RXO_COMP.OHMM              :  Invaded Zone Resistivity
TVDSS_COMP.M               :  Reference TVD sub-sea log.
TVD_COMP.M                 :  Reference TVD log.
~Parameter Information Block
#MNEM.UNIT            Value   Description
#---------- ----------------  -----------
SET  .                  LCS:  
DEPTH_BOTTOM.M         2530:  Downhole depth
DEPTH_TOP.M            1787:  Downhole depth
UNDER_SAMPLING_RATE.      1:  Full sampling rate if equal to 1
~Other Information Block
#        DEPTH        BS_COMP      DRHO_COMP        GR_COMP       LLS_COMP      NPHI_COMP       PEF_COMP      RHOB_COMP        RT_COMP       RXO_COMP     TVDSS_COMP       TVD_COMP 
~A
# ...
     1934.8704         9.8750       0.091224        75.4768         8.7579       0.454655         2.4487         2.2332         9.1501         9.6535      1914.2780      1932.2780
     1935.0228         9.8750       0.104961        83.5474         8.5767       0.451946         2.5200         2.2517         8.4416         8.8954      1914.4294      1932.4294
     1935.1752         9.8750       0.113755        88.3838         9.2462       0.435929         2.5755         2.2663         9.9255        10.8444      1914.5807      1932.5807
     1935.3276         9.8750       0.106335        87.2520        11.1313       0.407669         2.5784         2.2724        11.4094        12.7934      1914.7321      1932.7321
     1935.4800         9.8750       0.082050        79.8935        14.3873       0.374154         2.4841         2.2654        12.8933        14.7423      1914.8834      1932.8834
     1935.6324         9.8750       0.052013        66.9161        19.0417       0.342775         2.2613         2.2403        15.5540        18.4934      1915.0347      1933.0347
     1935.7848         9.8750       0.029806        51.6763        23.8792       0.315726         1.9603         2.2074        18.3925        22.5168      1915.1860      1933.1860
     1935.9372         9.8750       0.021811        38.7206        27.4090       0.295437         1.6717         2.1801        21.2311        26.5402      1915.3374      1933.3374
     1936.0896         9.8750       0.020619        30.1800        29.3240       0.281449         1.4802         2.1614        22.6943        28.8518      1915.4887      1933.4887
     1936.2420         9.8750       0.019077        26.1511        30.4086       0.270777         1.4211         2.1498        23.1936        29.9636      1915.6400      1933.6400
     1936.3944         9.8750       0.014365        24.3669        31.2764       0.261554         1.4238         2.1427        23.6928        31.0754      1915.7914      1933.7914
     1936.5468         9.8750       0.008102        23.4582        32.0982       0.255893         1.4308         2.1401        24.0978        32.0659      1915.9427      1933.9427
     1936.6992         9.8750       0.003566        23.1842        32.9037       0.255455         1.4233         2.1423        24.2902        32.7826      1916.0940      1934.0940
     1936.8516         9.8750       0.000976        23.6630        33.6673       0.258634         1.4195         2.1467        24.4825        33.4994      1916.2454      1934.2454
     1937.0040         9.8750      -0.002243        24.8014        34.2116       0.264097         1.4373         2.1475        24.6684        34.2015      1916.3967      1934.3967
     1937.1564         9.8750      -0.005431        26.0357        34.4377       0.272629         1.4627         2.1416        24.6148        34.3640      1916.5480      1934.5480
     1937.3088         9.8750      -0.000233        26.6282        34.4405       0.284538         1.4655         2.1292        24.5611        34.5264      1916.6993      1934.6993
     1937.4612         9.8750       0.016816        26.4619        34.5697       0.293772         1.4520         2.1152        24.5075        34.6888      1916.8507      1934.8507
     1937.6136         9.8750       0.037174        25.7911        35.2000       0.292386         1.4417         2.1066        25.1430        35.7239      1917.0020      1935.0020
     1937.7660         9.8750       0.046306        25.0681        36.4381       0.281335         1.4401         2.1079        26.0138        37.0569      1917.1533      1935.1533
     1937.9184         9.8750       0.037989        24.6718        38.1346       0.267506         1.4462         2.1190        26.8845        38.3900      1917.3046      1935.3046
     1938.0708         9.8750       0.020973        24.7899        39.9446       0.256874         1.4561         2.1345        27.7014        39.5597      1917.4560      1935.4560
     1938.2232         9.8750       0.007194        25.3370        41.4680       0.249492         1.4655         2.1495        28.4562        40.5411      1917.6073      1935.6073
     1938.3756         9.8750       0.001273        25.6516        42.3156       0.242482         1.4730         2.1600        29.2109        41.5226      1917.7586      1935.7586
     1938.5280         9.8750       0.002206        25.0594        42.3256       0.237289         1.4778         2.1629        29.7378        42.1818      1917.9099      1935.9099
     1938.6804         9.8750       0.010545        23.6838        41.6079       0.242357         1.4784         2.1562        29.2524        41.4094      1918.0612      1936.0612
     1938.8328         9.8750       0.026345        22.4320        40.5835       0.259799         1.4753         2.1433        28.7670        40.6371      1918.2125      1936.2125
     1938.9852         9.8750       0.045146        22.1063        39.8134       0.276827         1.4778         2.1328        28.2816        39.8647      1918.3639      1936.3639
     1939.1376         9.8750       0.058990        22.6385        39.5695       0.280832         1.4932         2.1319        28.4712        39.9368      1918.5152      1936.5152
     1939.2900         9.8750       0.061187        23.5265        39.7943       0.273302         1.5140         2.1420        28.7333        40.0998      1918.6665      1936.6665
     1939.4424         9.8750       0.052064        24.4392        40.2177       0.264996         1.5318         2.1562        28.9955        40.2628      1918.8178      1936.8178
     1939.5948         9.8750       0.038904        25.1051        40.5001       0.264657         1.5508         2.1633        29.1781        40.2501      1918.9691      1936.9691
     1939.7472         9.8750       0.033413        25.3548        40.4810       0.275300         1.5748         2.1563        29.3124        40.1307      1919.1204      1937.1204
     1939.8996         9.8750       0.045977        25.5102        40.1930       0.295564         1.5994         2.1362        29.4466        40.0113      1919.2718      1937.2718
     1940.0520         9.8750       0.078108        26.3035        39.7978       0.319101         1.6208         2.1097        29.5038        39.8789      1919.4231      1937.4231
     1940.2044         9.8750       0.119668        27.8530        39.4938       0.336131         1.6427         2.0849        29.4121        39.7215      1919.5744      1937.5744
     1940.3568         9.8750       0.149424        29.1101        39.3844       0.338039         1.6708         2.0743        29.3204        39.5641      1919.7257      1937.7257
     1940.5092         9.8750       0.151897        29.0877        39.4182       0.326187         1.7009         2.0866        29.2394        39.3948      1919.8770      1937.8770
     1940.6616         9.8750       0.130869        27.9161        39.3859       0.312572         1.7202         2.1152        29.3241        39.0407      1920.0283      1938.0283
     1940.8140         9.8750       0.103861        26.4255        39.0763       0.306466         1.7261         2.1454        29.4088        38.6865      1920.1796      1938.1796
     1940.9664         9.8750       0.092069        25.4543        38.4459       0.310828         1.7307         2.1611        29.4935        38.3324      1920.3309      1938.3309
     1941.1188         9.8750       0.101612        25.2908        37.5771       0.320984         1.7332         2.1571        29.1216        37.5498      1920.4822      1938.4822
     1941.2712         9.8750       0.124867        25.9282        36.6773       0.327911         1.7145         2.1418        28.6205        36.6460      1920.6335      1938.6335
     1941.4236         9.8750       0.148245        27.1057        35.8109       0.326059         1.6869         2.1295        28.1195        35.7422      1920.7848      1938.7848
     1941.5760         9.8750       0.158401        28.4427        34.7700       0.316217         1.7087         2.1316        27.0816        34.0203      1920.9361      1938.9361
