~Version Information Block
VERS .                 2.00:  CWLS LOG ASCII STANDARD - VERSION 2.00
WRAP .                   NO:  One line per depth step
~Well Information Block
#MNEM.UNIT        Data Type   Information
#---------- ----------------  -----------
STRT .M              0.0000:  START DEPTH
STOP .M           2950.4637:  STOP DEPTH
STEP .M              0.1524:  STEP
NULL .              -999.25:  NULL VALUE
COMP .                     :  COMPANY
WELL .               GABO15:  WELL
FLD  .                     :  FIELD
LOC  .   6.656416, 5.257802:  LOCATION
CTRY .                     :  COUNTRY
STAT .                     :  STATE
CNTY .                     :  COUNTY
API  .                     :  API NUMBER
UWI  .                     :  UNIQUE WELL ID
SRVC .                     :  SERVICE COMPANY
DATE .                     :  LOG DATE
~Curve Information Block
#MNEM.UNIT         API CODE   Curve Description
#---------- ----------------  -----------------
DEPTH.M                    :  Reference Depth.
BS_COMP.INCHES             :  Bit Size
CALI_COMP.INCHES          0:  Caliper
DRHO_COMP.G/C3            0:  Density Correction
DT_COMP.US/F              0:  Compressional Sonic
ECART_COMP.                :  Neutron Density Seperation
GR_COMP.GAPI               :  Gamma Ray
NPHI_COMP.V/V             0:  Neutron Porosity
PEF_COMP.B/E              0:  Photo Electric Factor
RHOB_COMP.G/C3            0:  Bulk Density
RT_COMP.OHMM              0:  True or Deep Resistivity
RXO_COMP.OHMM             0:  Invaded Zone Resistivity
SP_COMP.MV                 :  Values changed using TEXT_EDIT
TVDSS_COMP.M               :  Reference TVD sub-sea log.
TVD_COMP.M                 :  Reference TVD log.
~Parameter Information Block
#MNEM.UNIT            Value   Description
#---------- ----------------  -----------
SET  .                  LCS:  
MFST .DEGF               80:  Mud filtrate sample temperature
RMFS .OHMM              1.9:  Resistivity of Filtrate sample
SP_SH.MV                  0:  Shale baseline value for SP
~Other Information Block
COMMENT:
$$MUX      Data from LAS tape
$$MUX      fevsbd 09/10/97 ng95603  ASCII:      GABO15.fod
$$MUX
$$MUX
#        DEPTH        BS_COMP      CALI_COMP      DRHO_COMP        DT_COMP     ECART_COMP        GR_COMP      NPHI_COMP       PEF_COMP      RHOB_COMP        RT_COMP       RXO_COMP        SP_COMP     TVDSS_COMP       TVD_COMP 
~A
# ...
     2921.6602         9.8750        10.6499       0.044995      -999.2500         5.7148       145.7443       0.334039         3.1389         2.4290         2.9772         4.0381       -93.5646      2677.5772      2697.5772
     2921.8126         9.8750        10.6169       0.042980      -999.2500         6.3402       143.2494       0.351014         3.0820         2.4320         2.9398         3.6233       -94.4986      2677.7127      2697.7127
     2921.9650         9.8750        10.5737       0.033982      -999.2500         6.4389       143.0028       0.356984         3.0850         2.4270         2.8640         2.8623       -93.8720      2677.8481      2697.8481
     2922.1174         9.8750        10.4629       0.026016      -999.2500         5.9455       144.2555       0.349975         3.0759         2.4140         2.7205         3.2865       -92.5690      2677.9836      2697.9836
     2922.2698         9.8750        10.4060       0.033023      -999.2500         5.4396       146.6964       0.338991         3.0219         2.4070         2.6119         3.0219       -95.4375      2678.1191      2698.1191
     2922.4222         9.8750        10.4180       0.042991      -999.2500         5.2463       150.3821       0.335000         2.9620         2.4040         2.7341         2.3390       -95.4304      2678.2545      2698.2545
     2922.5746         9.8750        10.4120       0.038964      -999.2500         5.0654       153.5028       0.334989         2.9670         2.3950         2.7141         2.8456       -92.3182      2678.3900      2698.3900
     2922.7270         9.8750        10.3909       0.022970      -999.2500         4.4983       154.7165       0.329970         2.9800         2.3750         2.6870         2.8079       -94.8136      2678.5254      2698.5254
     2922.8794         9.8750        10.3298       0.009995      -999.2500         3.7452       153.6225       0.316964         2.9599         2.3590         2.7960         3.3564       -95.3114      2678.6609      2698.6609
     2923.0318         9.8750        10.2439       0.008018      -999.2500         3.0928       152.5355       0.300977         2.9079         2.3530         2.7926         2.0440       -94.8122      2678.7964      2698.7964
     2923.1842         9.8750        10.2171       0.016027      -999.2500         2.8399       154.5110       0.290991         2.8519         2.3570         2.7369         2.4799       -94.6875      2678.9318      2698.9318
     2923.3366         9.8750        10.2460       0.028020      -999.2500         2.7871       159.3556       0.287023         2.8148         2.3610         2.8252         3.0973       -94.6875      2679.0673      2699.0673
     2923.4890         9.8750        10.2420       0.037020      -999.2500         2.9611       164.4733       0.297088         2.7427         2.3529         2.9798         2.0782       -94.6876      2679.2027      2699.2027
     2923.6414         9.8750        10.2232       0.046016      -999.2500         3.4599       166.3710       0.336113         2.6157         2.3128         2.9135         3.8409       -94.7500      2679.3382      2699.3382
     2923.7938         9.8750        10.3114       0.052984      -999.2500         3.4244       164.5895       0.386048         2.4970         2.2278         3.0023         3.4448       -94.7500      2679.4737      2699.4737
     2923.9462         9.8750        10.4733       0.045957      -999.2500         2.4445       162.6241       0.406957         2.4803         2.1440         3.0316         2.3477       -94.7500      2679.6091      2699.6091
     2924.0986         9.8750        10.6091       0.026964      -999.2500         1.4941       162.2500       0.387930         2.6044         2.1282         3.0032         3.2514       -94.7500      2679.7446      2699.7446
     2924.2510         9.8750        10.6387       0.010991      -999.2500         1.8427       162.2490       0.356952         2.7631         2.1972         2.6123         3.8532       -94.7500      2679.8801      2699.8801
     2924.4033         9.8750        10.5267       0.007007      -999.2500         3.0207       161.8133       0.335955         2.7869         2.2911         2.2345         3.6925       -94.7500      2680.0155      2700.0155
     2924.5557         9.8750        10.4019       0.010020      -999.2500         3.3124       161.9411       0.315955         2.7440         2.3390         2.0800         2.4540       -94.7500      2680.1510      2700.1510
     2924.7081         9.8750        10.3610       0.019048      -999.2500         2.8869       163.3142       0.295984         2.7581         2.3510         2.0872         1.1210       -94.7500      2680.2864      2700.2864
     2924.8605         9.8750        10.3791       0.040057      -999.2500         2.9751       163.8414       0.289014         2.8142         2.3671         2.3124         2.3810       -94.7500      2680.4219      2700.4219
     2925.0129         9.8750        10.4393       0.065038      -999.2500         3.7354       162.7168       0.295023         2.9122         2.3951         2.9218         2.4293       -94.7499      2680.5574      2700.5574
     2925.1653         9.8750        10.5551       0.081982      -999.2500         4.6269       161.7504       0.305002         2.9790         2.4230         3.0326         3.1039       -94.6875      2680.6928      2700.6928
     2925.3177         9.8750        10.5998       0.073955      -999.2500         4.7188       161.9081       0.305991         2.9951         2.4260         2.9535         3.2744       -94.6875      2680.8283      2700.8283
     2925.4701         9.8750        10.5159       0.053995      -999.2500         4.1864       162.8437       0.302004         3.0341         2.4060         2.7872         2.8282       -94.6876      2680.9638      2700.9638
     2925.6225         9.8750        10.4802       0.052052      -999.2500         4.0549       162.7162       0.304023         3.0922         2.3960         2.7444         2.8744       -94.7500      2681.0992      2701.0992
     2925.7749         9.8750        10.5571       0.075050      -999.2500         4.7289       161.4994       0.314029         3.1843         2.4131         2.7113         1.7423       -94.7500      2681.2347      2701.2347
     2925.9273         9.8750        10.6089       0.097005      -999.2500         5.7011       161.2536       0.327013         3.3012         2.4400         2.7191         2.2111       -94.7500      2681.3701      2701.3701
     2926.0797         9.8750        10.5819       0.098984      -999.2500         6.2002       162.8504       0.333004         3.3880         2.4550         2.5210         2.2745       -94.7500      2681.5056      2701.5056
     2926.2321         9.8750        10.5408       0.091980      -999.2500         6.2861      -999.2500       0.335002         3.3878         2.4560         2.4027         2.7371       -94.7500      2681.6411      2701.6411
     2926.3845         9.8750        10.4446       0.082971      -999.2500         6.0587      -999.2500       0.335993         3.3138         2.4429         2.3753         2.2030       -94.7500      2681.7765      2701.7765
     2926.5369         9.8750        10.2868       0.069973      -999.2500         5.4985      -999.2500       0.332986         3.2399         2.4199         2.3390         2.1597       -94.7500      2681.9120      2701.9120
     2926.6893         9.8750        10.1818       0.058002      -999.2500         4.8394      -999.2500       0.326984         3.1769         2.3970         2.3173         1.9651       -94.7499      2682.0474      2702.0474
     2926.8417         9.8750        10.0898       0.059036      -999.2500         4.5680      -999.2500       0.320007         3.1129         2.3951         2.5321         2.0903       -94.6876      2682.1829      2702.1829
     2926.9941         9.8750        10.0140       0.075032      -999.2500         5.1686      -999.2500       0.323032         3.0529         2.4200         2.6889         2.2706       -94.7500      2682.3184      2702.3184
