~Version Information Block
VERS .                 2.00:  CWLS LOG ASCII STANDARD - VERSION 2.00
WRAP .                   NO:  One line per depth step
~Well Information Block
#MNEM.UNIT        Data Type   Information
#---------- ----------------  -----------
STRT .M              0.0000:  START DEPTH
STOP .M           2799.8928:  STOP DEPTH
STEP .M              0.1524:  STEP
NULL .              -999.25:  NULL VALUE
COMP .                     :  COMPANY
WELL .              GABO-18:  WELL
FLD  .                     :  FIELD
LOC  .   6.635779, 5.238893:  LOCATION
CTRY .                     :  COUNTRY
STAT .                     :  STATE
CNTY .                     :  COUNTY
API  .                     :  API NUMBER
UWI  .                     :  UNIQUE WELL ID
SRVC .                     :  SERVICE COMPANY
DATE .                     :  LOG DATE
~Curve Information Block
#MNEM.UNIT         API CODE   Curve Description
#---------- ----------------  -----------------
DEPTH.M                    :  Reference Depth
BS_COMP.INCHES             :  Bit Size
CALI_COMP.INCHES          0:  Caliper
DRHO_COMP.G/C3            0:  Density Correction Log
ECART_COMP.                :  Neutron Density Seperation
GR   .GAPI                0:  Gamma Ray
GR_COMP.GAPI              0:  Gamma Ray Composite
NPHI .V/V                  :  Neutron Porosity
NPHI_COMP.V/V              :  Neutron Porosity Composite
PEF_COMP.B/E              0:  Photo Electric Factor
RHOB_COMP.G/C3            0:  Bulk Density
RT   .OHMM                0:  True or Deep Resistivity
RT_COMP.OHMM              0:  True or Deep Resistivity Composite
RXO  .OHMM                0:  Invaded Zone Resistivity
RXO_COMP.OHMM             0:  Invaded Zone Resistivity composite
SP_COMP.MV                0:  Spontaneous Potential
TVDSS_COMP.M               :  Reference tvdss log.
TVD_COMP.M                 :  Reference tvd log.
~Parameter Information Block
#MNEM.UNIT            Value   Description
#---------- ----------------  -----------
SET  .                  LCS:  
~Other Information Block
#        DEPTH        BS_COMP      CALI_COMP      DRHO_COMP     ECART_COMP             GR        GR_COMP           NPHI      NPHI_COMP       PEF_COMP      RHOB_COMP             RT        RT_COMP            RXO       RXO_COMP        SP_COMP     TVDSS_COMP       TVD_COMP 
~A
# ...
     2492.3496        12.2500        13.0414       0.012247         2.1983       101.4576       101.4576         0.2402       0.240169         2.7902         2.4096        14.4697        14.4697        11.9555        11.9555       -20.8914      2285.3467      2303.4467
     2492.5020        12.2500        13.0614       0.017087         1.2952       102.4491       102.4491         0.2526       0.252613         2.6876         2.3437        11.2203        11.2203         8.9257         8.9257       -22.4035      2285.4786      2303.5786
     2492.6544        12.2500        13.0881       0.025912         0.7543       101.1037       101.1037         0.2585       0.258527         2.6148         2.3068         9.5598         9.5598         7.6298         7.6298       -23.6176      2285.6106      2303.7106
     2492.8068        12.2500        13.0626       0.039165         0.8709       100.0042       100.0042         0.2657       0.265655         2.5914         2.3008         9.7803         9.7803         7.3826         7.3826       -24.4380      2285.7425      2303.8425
     2492.9592        12.2500        13.0394       0.042982         1.0256        97.8714        97.8714         0.2730       0.273039         2.6219         2.2962        10.6751        10.6751         7.6055         7.6055       -24.4759      2285.8745      2303.9745
     2493.1116        12.2500        13.0308       0.045116         0.8180        95.0829        95.0829         0.2719       0.271899         2.6227         2.2877        11.9258        11.9258         8.0383         8.0383       -25.3886      2286.0065      2304.1065
     2493.2640        12.2500        13.0247       0.047926         0.3936        92.5312        92.5312         0.2622       0.262219         2.6315         2.2826        13.4953        13.4953         8.7276         8.7276       -26.4322      2286.1385      2304.2385
     2493.4164        12.2500        13.0414       0.053495        -0.0867        90.6680        90.6680         0.2448       0.244801         2.6701         2.2877        15.1203        15.1203         9.6762         9.6762       -27.0917      2286.2706      2304.3706
     2493.5688        12.2500        13.0435       0.067205        -0.0677        89.1148        89.1148         0.2253       0.225264         2.7448         2.3212        15.0743        15.0743        10.7201        10.7201       -26.7016      2286.4026      2304.5026
     2493.7212        12.2500        13.0463       0.088810         0.5633        88.8174        88.8174         0.2230       0.222986         2.7412         2.3565        13.8731        13.8731        10.5909        10.5909       -27.2284      2286.5347      2304.6347
     2493.8736        12.2500        13.0905       0.106155         1.2584        91.7824        91.7824         0.2328       0.232758         2.7364         2.3750        12.1716        12.1716         9.7012         9.7012       -27.8494      2286.6667      2304.7667
     2494.0260        12.2500        13.2094       0.114730         1.8276        98.5842        98.5842         0.2497       0.249671         2.7783         2.3753        10.3957        10.3957         8.4015         8.4015       -28.4142      2286.7988      2304.8988
     2494.1784        12.2500        13.3343       0.113213         2.2621       108.7863       108.7863         0.2618       0.261792         2.9481         2.3768         9.3153         9.3153         7.4913         7.4913       -29.4220      2286.9309      2305.0309
     2494.3308        12.2500        13.4547       0.104487         2.9352       119.6617       119.6617         0.2693       0.269279         3.1423         2.3980         9.1149         9.1149         7.2336         7.2336       -30.7143      2287.0630      2305.1630
     2494.4832        12.2500        13.5631       0.083323         3.3899       125.9133       125.9133         0.2763       0.276300         3.3308         2.4090         9.2283         9.2283         7.2597         7.2597       -31.9671      2287.1951      2305.2951
     2494.6356        12.2500        13.5852       0.054108         3.6558       127.4139       127.4139         0.2853       0.285350         3.5512         2.4072         9.5145         9.5145         7.4433         7.4433       -32.6769      2287.3273      2305.4273
     2494.7880        12.2500        13.5957       0.028958         3.9988       126.1810       126.1810         0.3002       0.300211         3.9008         2.3996         9.9046         9.9046         7.6620         7.6620       -31.8523      2287.4595      2305.5595
     2494.9404        12.2500        13.6037       0.015760         4.9943       125.3307       125.3307         0.3283       0.328318         4.2787         2.4025         9.9145         9.9145         7.7225         7.7225       -30.9582      2287.5916      2305.6916
     2495.0928        12.2500        13.6227       0.008680         6.2222       126.5065       126.5065         0.3573       0.357290         4.5552         2.4156         9.5154         9.5154         7.6294         7.6294       -29.7319      2287.7238      2305.8238
     2495.2452        12.2500        13.7301       0.006684         7.3581       128.3354       128.3354         0.3801       0.380077         4.5907         2.4344         8.7941         8.7941         7.2942         7.2942       -27.5325      2287.8560      2305.9560
     2495.3976        12.2500        13.8659       0.008966         8.0104       128.7088       128.7088         0.3887       0.388671         4.2145         2.4527         7.8807         7.8807         6.6004         6.6004       -23.5339      2287.9882      2306.0882
     2495.5500        12.2500        13.9514       0.006747         7.4512       125.1281       125.1281         0.3812       0.381200         3.7803         2.4372         7.0391         7.0391         5.7005         5.7005       -21.1851      2288.1204      2306.2204
     2495.7024        12.2500        13.9546       0.008053         6.7074       124.8737       124.8737         0.3673       0.367250         3.5001         2.4233         6.4469         6.4469         5.0038         5.0038       -18.2569      2288.2527      2306.3527
     2495.8548        12.2500        13.8998       0.011099         5.9721       125.5080       125.5080         0.3495       0.349497         3.3782         2.4161         6.1178         6.1178         4.5368         4.5368       -15.4842      2288.3849      2306.4849
     2496.0072        12.2500        13.9020       0.013886         5.4339       124.6377       124.6377         0.3316       0.331571         3.4043         2.4191         6.0429         6.0429         4.3089         4.3089       -13.5244      2288.5172      2306.6172
     2496.1596        12.2500        13.9156       0.011603         5.6436       120.3004       120.3004         0.3369       0.336949         3.4523         2.4206         5.9987         5.9987         4.2607         4.2607       -11.9849      2288.6495      2306.7495
     2496.3120        12.2500        13.9222       0.010440         6.0472       118.5855       118.5855         0.3492       0.349154         3.4437         2.4204         5.9646         5.9646         4.2727         4.2727       -11.4911      2288.7818      2306.8818
     2496.4644        12.2500        13.9031       0.010323         6.3934       116.9754       116.9754         0.3596       0.359607         3.3979         2.4203         5.9496         5.9496         4.2858         4.2858       -11.1778      2288.9141      2307.0141
     2496.6168        12.2500        13.8307       0.011596         6.6177       114.1390       114.1390         0.3660       0.365982         3.3396         2.4209         5.9604         5.9604         4.2764         4.2764       -10.5589      2289.0464      2307.1464
     2496.7692        12.2500        13.7773       0.016927         7.2414       110.5385       110.5385         0.3852       0.385151         3.3624         2.4202         6.0083         6.0083         4.3069         4.3069        -9.5976      2289.1787      2307.2787
