~Version Information Block
VERS .                 2.00:  CWLS LOG ASCII STANDARD - VERSION 2.00
WRAP .                   NO:  One line per depth step
~Well Information Block
#MNEM.UNIT        Data Type   Information
#---------- ----------------  -----------
STRT .M              0.0000:  START DEPTH
STOP .M           2954.7312:  STOP DEPTH
STEP .M              0.1524:  STEP
NULL .              -999.25:  NULL VALUE
COMP .                     :  COMPANY
WELL .               GABO16:  WELL
FLD  .                     :  FIELD
LOC  .   6.656374, 5.257763:  LOCATION
CTRY .                     :  COUNTRY
STAT .                     :  STATE
CNTY .                     :  COUNTY
API  .                     :  API NUMBER
UWI  .                     :  UNIQUE WELL ID
SRVC .                     :  SERVICE COMPANY
DATE .                     :  LOG DATE
~Curve Information Block
#MNEM.UNIT         API CODE   Curve Description
#---------- ----------------  -----------------
DEPTH.M                    :  Reference Depth
BS_COMP.INCHES             :  Bit Size
CALI_COMP.INCHES           :  Caliper
DRHO_COMP.G/C3             :  Density Neutron Seperation
DT_COMP.US/F              0:  Compressional Sonic
GR_COMP.GAPI              0:  Gamma Ray
NPHI_COMP.V/V              :  Neutron Porosity
PEF_COMP.B/E              0:  Photo Electric Factor
RHOB_COMP.G/C3            0:  Bulk Density
RT_COMP.OHMM              0:  True or Deep Resistivity
RXO_COMP.OHMM             0:  Invaded Zone Resistivity
SP_COMP.MV                0:  Spontanuous Potential
TVDSS_COMP.M               :  Reference TVD sub-sea log.
TVD_COMP.M                 :  Reference TVD log.
~Parameter Information Block
#MNEM.UNIT            Value   Description
#---------- ----------------  -----------
SET  .                  LCS:  
~Other Information Block
COMMENT:
COMMENT:
$$MUX      Data from LAS tape
$$MUX      fevsbd 09/10/97 ng95603  ASCII:      GABO-16
$$MUX
$$MUX

#        DEPTH        BS_COMP      CALI_COMP      DRHO_COMP        DT_COMP        GR_COMP      NPHI_COMP       PEF_COMP      RHOB_COMP        RT_COMP       RXO_COMP        SP_COMP     TVDSS_COMP       TVD_COMP 
~A
# ...
     1488.4908        12.2500        12.7009      -0.016207       131.9177        79.9941       0.412697         2.4009         2.1947         5.6399         4.5034        75.8772      1420.5868      1441.0868
     1488.6432        12.2500        12.6989      -0.014810       134.6503        80.8935       0.427091         2.4138         2.2044         5.2815         4.1617        76.9171      1420.7263      1441.2263
     1488.7956        12.2500        12.6345      -0.015898       135.6203        81.9978       0.441638         2.3985         2.2014         4.9964         3.9846        77.7377      1420.8657      1441.3657
     1488.9480        12.2500        12.4999      -0.016493       134.2297        83.5122       0.462179         2.3593         2.1971         4.8211         3.9689        78.2740      1421.0052      1441.5052
     1489.1004        12.2500        12.3445      -0.015392       132.0163        83.8847       0.486294         2.3187         2.1960         4.7285         3.9474        78.2796      1421.1447      1441.6447
     1489.2528        12.2500        12.3525      -0.012293       130.0141        82.8085       0.503109         2.3283         2.2024         4.7066         4.0303        77.4629      1421.2841      1441.7841
     1489.4052        12.2500        12.5919      -0.007400       128.4777        81.1690       0.513444         2.3997         2.2183         4.7643         4.2084        76.7803      1421.4235      1441.9235
     1489.5576        12.2500        12.8587      -0.002617       127.4186        79.3835       0.522523         2.4718         2.2367         4.8616         4.4634        76.5250      1421.5629      1442.0629
     1489.7100        12.2500        12.9606      -0.002126       126.4533        77.9839       0.522196         2.4665         2.2454         4.9669         4.7108        76.3388      1421.7024      1442.2024
     1489.8624        12.2500        12.9982      -0.008094       126.1900        77.3739       0.506462         2.3930         2.2369         5.1037         4.8367        75.9542      1421.8418      1442.3418
     1490.0148        12.2500        13.0738      -0.012458       127.0233        77.4624       0.484389         2.3197         2.2225         5.2760         4.8474        75.2900      1421.9812      1442.4812
     1490.1672        12.2500        13.0386      -0.006476       127.5483        78.4213       0.470437         2.2641         2.2150         5.4318         4.7155        75.0241      1422.1206      1442.6206
     1490.3196        12.2500        12.8868       0.005376       127.3169        79.9009       0.466690         2.2277         2.2159         5.5379         4.7382        75.3513      1422.2601      1442.7601
     1490.4720        12.2500        12.7659       0.011365       127.2077        80.7441       0.463476         2.2185         2.2167         5.6051         5.0041        75.7170      1422.3995      1442.8995
     1490.6244        12.2500        12.7132       0.008694       127.3485        79.4078       0.455159         2.2397         2.2118         5.6270         5.0123        75.8327      1422.5389      1443.0389
     1490.7768        12.2500        12.7246       0.004409       127.8373        76.3857       0.444599         2.2754         2.2045         5.6120         4.7342        75.9343      1422.6783      1443.1783
     1490.9292        12.2500        12.7322       0.002398       128.7695        74.1493       0.429993         2.3107         2.1962         5.6099         4.6353        76.0787      1422.8177      1443.3177
     1491.0816        12.2500        12.6935       0.000000       129.5554        74.0643       0.418127         2.3506         2.1891         5.6281         4.6171        76.1836      1422.9572      1443.4572
     1491.2340        12.2500        12.6896      -0.002290       129.3343        74.9955       0.421015         2.3833         2.1889         5.6228         4.4525        76.4015      1423.0966      1443.5966
     1491.3864        12.2500        12.7184      -0.002110       128.2282        74.9194       0.437260         2.3912         2.1949         5.5757         4.5931        76.4664      1423.2358      1443.7358
     1491.5388        12.2500        12.6580      -0.004315       127.3632        73.9087       0.447699         2.3764         2.2006         5.5082         5.2539        76.2919      1423.3752      1443.8752
     1491.6912        12.2500        12.5433      -0.010296       127.0234        73.6547       0.440304         2.3563         2.2037         5.4349         5.7100        76.3012      1423.5146      1444.0146
     1491.8436        12.2500        12.4962      -0.015382       127.1133        75.1211       0.427544         2.3443         2.1998         5.3624         5.3871        76.7663      1423.6541      1444.1541
     1491.9960        12.2500        12.4862      -0.015893       127.5191        77.4114       0.424217         2.3532         2.1883         5.2928         4.9087        77.5125      1423.7935      1444.2935
     1492.1484        12.2500        12.4629      -0.014614       127.3481        79.0888       0.431821         2.3811         2.1745         5.2265         4.7920        78.1087      1423.9329      1444.4329
     1492.3008        12.2500        12.4337      -0.016702       126.8574        80.0850       0.437350         2.4017         2.1689         5.1752         4.6421        78.6118      1424.0723      1444.5723
     1492.4532        12.2500        12.4317      -0.019191       127.2432        81.3229       0.433797         2.3914         2.1777         5.1295         4.3179        78.7433      1424.2117      1444.7117
     1492.6056        12.2500        12.4609      -0.019395       128.8304        82.7397       0.428679         2.3731         2.1921         5.0720         4.0972        78.2648      1424.3511      1444.8511
     1492.7580        12.2500        12.4783      -0.018300       130.3475        83.3558       0.429574         2.3766         2.2038         5.0144         4.0952        77.9081      1424.4905      1444.9905
     1492.9104        12.2500        12.4353      -0.017297       130.2294        83.0120       0.433631         2.4101         2.2128         4.9635         4.1814        77.9443      1424.6298      1445.1298
     1493.0628        12.2500        12.3479      -0.015596       129.2257        82.3355       0.435006         2.4593         2.2215         4.9139         4.2229        77.9575      1424.7692      1445.2692
     1493.2152        12.2500        12.3186      -0.012797       128.4490        81.2674       0.438144         2.4844         2.2292         4.8882         4.2558        77.3303      1424.9086      1445.4086
     1493.3676        12.2500        12.3320      -0.009203       128.0632        79.3468       0.450002         2.4747         2.2359         4.9090         4.3323        76.5110      1425.0480      1445.5480
     1493.5200        12.2500        12.3537      -0.006313       128.0216        77.8297       0.465385         2.4610         2.2400         4.9493         4.3327        76.5264      1425.1873      1445.6873
     1493.6724        12.2500        12.4140      -0.006607       127.5659        78.1827       0.475305         2.4606         2.2387         4.9706         4.2384        77.0183      1425.3267      1445.8267
     1493.8248        12.2500        12.4453      -0.008701       126.3988        79.6197       0.470328         2.4502         2.2344         4.9670         4.2244        77.3280      1425.4661      1445.9661
     1493.9772        12.2500        12.4769      -0.011091       125.7616        80.6562       0.451431         2.4180         2.2313         4.9495         4.2159        77.3845      1425.6053      1446.1053
     1494.1296        12.2500        12.5800      -0.011200       126.6501        80.9222       0.435177         2.3969         2.2326         4.9407         4.1921        77.3911      1425.7448      1446.2448
     1494.2820        12.2500        12.6618      -0.011409       128.6053        80.9672       0.431305         2.4090         2.2324         4.9787         4.2795        77.3757      1425.8842      1446.3842
