~Version Information Block
VERS .                 2.00:  CWLS LOG ASCII STANDARD - VERSION 2.00
WRAP .                   NO:  One line per depth step
~Well Information Block
#MNEM.UNIT        Data Type   Information
#---------- ----------------  -----------
STRT .M           1550.0604:  START DEPTH
STOP .M           3909.9744:  STOP DEPTH
STEP .M              0.1524:  STEP
NULL .              -999.25:  NULL VALUE
COMP .                     :  COMPANY
WELL .               GABO52:  WELL
FLD  .                     :  FIELD
LOC  .   6.643655, 5.227736:  LOCATION
CTRY .                     :  COUNTRY
STAT .                     :  STATE
CNTY .                     :  COUNTY
API  .                     :  API NUMBER
UWI  .                     :  UNIQUE WELL ID
SRVC .                     :  SERVICE COMPANY
DATE .                     :  LOG DATE
~Curve Information Block
#MNEM.UNIT         API CODE   Curve Description
#---------- ----------------  -----------------
DEPTH.M                    :  Depth
DRHO .G/C3                 :  Density Correction Log
DTS_COMP.US/F              :  Shear Sonic 
DT_COMP.US/F               :  Compressional Sonic
GR_COMP.GAPI               :  Gamma Ray
HCAL .INCHES               :  Caliper
NPHI_COMP.V/V              :  Neutron Porosity
PEF_COMP.B/E               :  Photo Electric Factor
RDEEP_COMP.OHMM            :  Deep Resistivity
RHOB_COMP.G/C3             :  Bulk Density
RSHAL_COMP.OHMM            :  Shallow Resistivity
TVD  .M                    :  Reference TVD
TVDSS.M                    :  Reference TVDss
~Parameter Information Block
#MNEM.UNIT            Value   Description
#---------- ----------------  -----------
SET  .                  LCS:  
~Other Information Block
#        DEPTH           DRHO       DTS_COMP        DT_COMP        GR_COMP           HCAL      NPHI_COMP       PEF_COMP     RDEEP_COMP      RHOB_COMP     RSHAL_COMP            TVD          TVDSS 
~A
# ...
     2904.7440       0.007230       187.2707        91.8654       128.1022         8.8492       0.418994         5.0358         2.5680         2.5639         2.7740      2617.0166      2596.8965
     2904.8964      -0.001317       190.5409        91.4422       127.3393         8.8379       0.392778         5.0976         2.7224         2.5629         2.9984      2617.1277      2597.0076
     2905.0488      -0.000923       187.4330        90.8217       126.5916         8.8155       0.383139         4.8751         2.8237         2.5480         3.0170      2617.2388      2597.1187
     2905.2012       0.002895       179.4267        90.8405       125.8050         8.8379       0.402150         4.4491         2.9119         2.5103         3.0302      2617.3499      2597.2297
     2905.3536       0.006693       171.7695        90.4501       126.8915         8.8604       0.395851         4.0021         3.0858         2.4589         3.3423      2617.4609      2597.3408
     2905.5060       0.007873       169.4071        91.9850       129.4226         8.9053       0.362787         3.6392         3.2678         2.3998         3.6974      2617.5720      2597.4519
     2905.6584       0.003941       167.2662        89.7014       129.7015         8.9502       0.292098         3.4088         3.4463         2.3400         4.1078      2617.6831      2597.5630
     2905.8108       0.000819       162.3759        90.1620       123.1235         8.9726       0.234523         3.2665         3.6195         2.3159         4.5594      2617.7939      2597.6738
     2905.9632       0.010451       155.3754        85.9000       110.9954         8.5462       0.223588         3.2687         3.8059         2.3662         5.1509      2617.9050      2597.7849
     2906.1156       0.025779       151.4818        83.8540       101.7944         8.5911       0.232694         3.3423         4.2387         2.4602         6.0237      2618.0161      2597.8960
     2906.2680       0.026383       148.3579        82.3043        99.6980         8.6584       0.232139         3.4300         4.5603         2.5054         6.8573      2618.1272      2598.0071
     2906.4204       0.014357       148.0824        81.1390       103.4604         8.6808       0.235710         3.5018         4.3026         2.4660         6.2909      2618.2383      2598.1182
     2906.5728      -0.001211       147.8830        82.6586       105.3185         8.6359       0.239327         3.4536         4.0041         2.3993         5.6234      2618.3494      2598.2292
     2906.7252      -0.002548       148.3574        83.9359       104.5132         8.6135       0.246058         3.3865         3.8469         2.3721         5.2175      2618.4604      2598.3403
     2906.8776      -0.000405       159.2934        87.8535       103.8728         8.4788       0.250775         3.3141         3.7170         2.3819         5.0389      2618.5718      2598.4517
     2907.0300       0.004294       161.8184        85.9556       103.7730         8.4676       0.254796         3.3627         3.6533         2.4080         4.7646      2618.6829      2598.5627
     2907.1824       0.006370       166.6955        85.6084       104.1287         8.5237       0.267430         3.4036         3.5847         2.4399         4.6672      2618.7937      2598.6736
     2907.3348       0.006355       165.7954        88.1441       104.5255         8.7257       0.292701         3.4303         3.4167         2.4701         4.2249      2618.9048      2598.7847
     2907.4872       0.003551       162.7711        86.8772       113.2277         8.8492       0.316179         3.4536         3.2824         2.4969         3.9540      2619.0159      2598.8958
     2907.6396       0.000588       162.0739        85.8931       118.5076         8.9502       0.331218         3.5947         3.2952         2.5090         3.6369      2619.1270      2599.0068
     2907.7920      -0.000994       164.6881        85.0237       124.3086         8.7257       0.333577         3.7466         3.3694         2.5131         3.6420      2619.2380      2599.1179
     2907.9444      -0.003175       163.1401        83.7374       122.6185         8.5686       0.352339         3.7915         3.4612         2.5016         3.6100      2619.3491      2599.2290
     2908.0968      -0.001837       163.4476        84.1269       124.4233         8.5686       0.367842         3.6849         3.3262         2.4930         3.4286      2619.4602      2599.3401
     2908.2492       0.002405       165.9720        84.4102       128.2354         8.5911       0.389155         3.5925         3.1954         2.4934         3.2258      2619.5713      2599.4512
     2908.4016       0.005031       172.7041        86.7943       134.7365         8.6135       0.392678         3.5446         3.1217         2.4955         3.1120      2619.6821      2599.5620
     2908.5540       0.004435       176.5545        88.7254       139.0109         8.6584       0.430949         3.5961         3.0766         2.4935         2.9829      2619.7932      2599.6731
     2908.7064       0.001777       178.5713        90.5937       139.9439         8.7033       0.446902         3.6119         3.0458         2.4934         2.9065      2619.9043      2599.7842
     2908.8588       0.002602       178.2285        91.6125       138.9897         8.7706       0.472782         3.6508         3.0158         2.5044         2.8554      2620.0154      2599.8953
     2909.0112       0.002059       176.6112        91.7506       138.4142         8.7706       0.461263         3.6848         2.9662         2.5083         2.8358      2620.1265      2600.0063
     2909.1636       0.001930       174.5052        90.7515       140.3259         8.7257       0.442133         3.7214         2.9542         2.5020         2.8993      2620.2378      2600.1177
     2909.3160       0.017190       173.9525        90.3078       139.7700         8.7033       0.427691         3.7867         2.9450         2.5101         2.8963      2620.3489      2600.2288
     2909.4684       0.032016       175.6828        91.5017       139.7210         8.6921       0.392306         3.7938         2.9869         2.4930         2.9589      2620.4600      2600.3398
     2909.6208       0.050808       176.9620        92.3256       138.1388         8.5911       0.354560         3.7812         3.0569         2.4817         3.0474      2620.5708      2600.4507
     2909.7732       0.065868       179.3242        92.7267       139.3288         8.8492       0.324625         3.6989         2.9695         2.4879         2.9397      2620.6819      2600.5618
     2909.9256       0.061102       181.3600        93.6077       140.6345         8.8828       0.364831         3.5801         2.8594         2.5043         2.8347      2620.7930      2600.6729
     2910.0780       0.048021       181.8880        94.3823       140.0052         8.7033       0.393433         3.4769         2.8747         2.5153         2.7958      2620.9041      2600.7839
     2910.2304       0.027552       180.3640        93.0611       142.7558         8.7706       0.423404         3.4074         2.8625         2.4993         2.7857      2621.0151      2600.8950
     2910.3828       0.034639       178.6200        91.3257       142.4786         8.7931       0.375611         3.4027         2.8869         2.5099         2.8296      2621.1262      2601.0061
     2910.5352       0.048665       176.5880        89.2913       144.1209         8.8155       0.343148         3.4248         2.9337         2.5310         2.8631      2621.2373      2601.1172
     2910.6876       0.054259       174.5863        88.9299       140.4371         8.7931       0.322635         3.4519         2.8987         2.5392         2.8711      2621.3484      2601.2283
     2910.8400       0.045103       173.4138        89.6665       138.1623         8.8155       0.333365         3.4675         2.8657         2.5403         2.8139      2621.4595      2601.3394
     2910.9924       0.026884       173.9589        88.4544       137.5818         8.8155       0.355470         3.4614         2.8377         2.5345         2.7830      2621.5706      2601.4504
