~Version Information Block
VERS .                 2.00:  CWLS LOG ASCII STANDARD - VERSION 2.00
WRAP .                   NO:  One line per depth step
~Well Information Block
#MNEM.UNIT        Data Type   Information
#---------- ----------------  -----------
STRT .M            800.1000:  START DEPTH
STOP .M           4245.4068:  STOP DEPTH
STEP .M              0.1524:  STEP
NULL .              -999.25:  NULL VALUE
COMP .                     :  COMPANY
WELL .               GABO51:  WELL
FLD  .                     :  FIELD
LOC  .   6.643728, 5.227344:  LOCATION
CTRY .                     :  COUNTRY
STAT .                     :  STATE
CNTY .                     :  COUNTY
API  .                     :  API NUMBER
UWI  .                     :  UNIQUE WELL ID
SRVC .                     :  SERVICE COMPANY
DATE .                     :  LOG DATE
~Curve Information Block
#MNEM.UNIT         API CODE   Curve Description
#---------- ----------------  -----------------
DEPTH.M                    :  Depth
DRHO_COMP.G/C3             :  Density Correction
DTSM_COMP.US/F             :  Shear Sonic
DT_COMP.US/F               :  Compressional Sonic
GR_COMP.GAPI               :  Gamma Ray
HCAL_COMP.INCHES           :  Caliper
NPHI_COMP.V/V              :  Neutron Porosity
PEF_COMP.B/E               :  Pho Electric Factor
RDEEP_COMP.OHMM            :  Deep Resistivity
RHOB_COMP.G/C3             :  Bulk Density
RSHAL_COMP.OHMM            :  Shallow Resistivity
TVDSS_COMP.M               :  Reference TVD sub-sea log.
TVD_COMP.M                 :  Reference TVD log.
~Parameter Information Block
#MNEM.UNIT            Value   Description
#---------- ----------------  -----------
SET  .                  LCS:  
~Other Information Block
#        DEPTH      DRHO_COMP      DTSM_COMP        DT_COMP        GR_COMP      HCAL_COMP      NPHI_COMP       PEF_COMP     RDEEP_COMP      RHOB_COMP     RSHAL_COMP     TVDSS_COMP       TVD_COMP 
~A
# ...
     4218.7368      -0.000400       138.2611       127.7410        35.6749        12.7951       0.182800         1.7493         3.0954         2.2504         3.4862      -999.2500      -999.2500
     4218.8892      -0.000800       139.1816       128.1716        37.2890        12.7988       0.184700         1.7806         3.1296         2.2496         3.4595      -999.2500      -999.2500
     4219.0416      -0.001400       140.2352       128.1185        35.8169        12.7914       0.191700         1.8248         3.2366         2.2440         3.5283      -999.2500      -999.2500
     4219.1940      -0.001200       141.0055       131.5503        30.7293        12.7914       0.192200         1.8460         3.1947         2.2449         3.3392      -999.2500      -999.2500
     4219.3464      -0.001500       141.8551       131.0360        29.3121        12.7839       0.189300         1.8432         3.1529         2.2491         3.0842      -999.2500      -999.2500
     4219.4988      -0.002700       142.7949       132.2714        34.0931        12.7914       0.195200         1.8240         2.7598         2.2532         2.7149      -999.2500      -999.2500
     4219.6512      -0.004900       143.4899       133.9308        38.4834        12.7839       0.192500         1.8311         2.2461         2.2473         2.5383      -999.2500      -999.2500
     4219.8036      -0.005300       143.8659       136.6068        38.2510        12.7839       0.193400         1.8260         2.0437         2.2495         2.3871      -999.2500      -999.2500
     4219.9560      -0.003500       143.6340       138.4351        33.6508        12.7728       0.190000         1.8198         1.8809         2.2581         2.2707      -999.2500      -999.2500
     4220.1084      -0.003100       143.0026       138.7952        30.3193        12.7616       0.188900         1.8196         1.7480         2.2563         1.9389      -999.2500      -999.2500
     4220.2608      -0.003800       142.6110       139.1146        27.5301        12.7691       0.175100         1.8430         2.4957         2.2480         2.4079      -999.2500      -999.2500
     4220.4132      -0.003700       142.5607       141.1055        26.2647      -999.2500       0.181700         1.8582         3.1678         2.2452         2.3279      -999.2500      -999.2500
     4220.5656      -0.003200       142.9198       142.1004        26.8199      -999.2500       0.186300         1.8729         2.2558         2.2489         2.3913      -999.2500      -999.2500
     4220.7180      -0.002900       143.3440       140.7412        31.5460      -999.2500       0.195000         1.8627         2.5171         2.2530         3.0852      -999.2500      -999.2500
     4220.8704      -0.004500       143.7229       138.7515        41.6180      -999.2500       0.197900         1.8657         3.3130         2.2472         2.8382      -999.2500      -999.2500
     4221.0228      -0.004200       144.4830       139.1340        50.4375      -999.2500       0.196800         1.8511         3.7590         2.2501         3.9269      -999.2500      -999.2500
     4221.1752      -0.003200       145.1490       138.8624        57.8171      -999.2500       0.193200         1.8469         3.2340         2.2528         2.9772      -999.2500      -999.2500
     4221.3276      -0.002700       145.3950       137.2525        69.3612      -999.2500       0.191600         1.8446         2.5649         2.2532         2.6612      -999.2500      -999.2500
     4221.4800      -0.004600       144.9428       136.0952        85.0115      -999.2500       0.186900         1.8319      -999.2500         2.2462      -999.2500      -999.2500      -999.2500
     4221.6324      -0.005900       143.9161       134.7012        94.7768      -999.2500       0.186000         1.8255      -999.2500         2.2419      -999.2500      -999.2500      -999.2500
     4221.7848      -0.004900       143.4902       132.0796        88.5012      -999.2500       0.186300         1.8128      -999.2500         2.2468      -999.2500      -999.2500      -999.2500
     4221.9372      -0.002900       144.0889       129.2470        67.0982      -999.2500       0.186700         1.8077      -999.2500         2.2564      -999.2500      -999.2500      -999.2500
     4222.0896      -0.002300       145.2135       128.7404        46.6217      -999.2500       0.190100         1.7820      -999.2500         2.2640      -999.2500      -999.2500      -999.2500
     4222.2420    -999.250000       146.3647       132.3953        33.0310      -999.2500    -999.250000      -999.2500      -999.2500      -999.2500      -999.2500      -999.2500      -999.2500
     4222.3944    -999.250000       147.1569       136.1789        30.4936      -999.2500    -999.250000      -999.2500      -999.2500      -999.2500      -999.2500      -999.2500      -999.2500
     4222.5468    -999.250000       146.8599       137.5177        35.5554      -999.2500    -999.250000      -999.2500      -999.2500      -999.2500      -999.2500      -999.2500      -999.2500
     4222.6992    -999.250000       145.4430       136.7512        41.0886      -999.2500    -999.250000      -999.2500      -999.2500      -999.2500      -999.2500      -999.2500      -999.2500
     4222.8516    -999.250000       144.0733       136.7728        43.3354      -999.2500    -999.250000      -999.2500      -999.2500      -999.2500      -999.2500      -999.2500      -999.2500
     4223.0040    -999.250000       143.2059       137.3340        39.5907      -999.2500    -999.250000      -999.2500      -999.2500      -999.2500      -999.2500      -999.2500      -999.2500
     4223.1564    -999.250000       142.0667       135.7117        32.4435      -999.2500    -999.250000      -999.2500      -999.2500      -999.2500      -999.2500      -999.2500      -999.2500
     4223.3088    -999.250000       140.5795       130.6137        29.3444      -999.2500    -999.250000      -999.2500      -999.2500      -999.2500      -999.2500      -999.2500      -999.2500
     4223.4612    -999.250000       139.3777       130.2610        30.1837      -999.2500    -999.250000      -999.2500      -999.2500      -999.2500      -999.2500      -999.2500      -999.2500
     4223.6136    -999.250000       138.6083       134.5922        35.6265      -999.2500    -999.250000      -999.2500      -999.2500      -999.2500      -999.2500      -999.2500      -999.2500
     4223.7660    -999.250000       138.1331       129.9032        40.2267      -999.2500    -999.250000      -999.2500      -999.2500      -999.2500      -999.2500      -999.2500      -999.2500
     4223.9184    -999.250000       137.9000       129.6636        40.0846      -999.2500    -999.250000      -999.2500      -999.2500      -999.2500      -999.2500      -999.2500      -999.2500
     4224.0708    -999.250000       137.9171       128.8643        40.2912      -999.2500    -999.250000      -999.2500      -999.2500      -999.2500      -999.2500      -999.2500      -999.2500
     4224.2232    -999.250000       138.2223       128.6324        38.9999      -999.2500    -999.250000      -999.2500      -999.2500      -999.2500      -999.2500      -999.2500      -999.2500
     4224.3756    -999.250000       138.7543       129.0946        38.2252      -999.2500    -999.250000      -999.2500      -999.2500      -999.2500      -999.2500      -999.2500      -999.2500
     4224.5280    -999.250000       139.5517       132.0626        34.9970      -999.2500    -999.250000      -999.2500      -999.2500      -999.2500      -999.2500      -999.2500      -999.2500
     4224.6804    -999.250000       140.5915       133.7724        32.3337      -999.2500    -999.250000      -999.2500      -999.2500      -999.2500      -999.2500      -999.2500      -999.2500
     4224.8328    -999.250000       141.8506       135.2826        31.6364      -999.2500    -999.250000      -999.2500      -999.2500      -999.2500      -999.2500      -999.2500      -999.2500
     4224.9852    -999.250000      -999.2500       136.9998        34.4611      -999.2500    -999.250000      -999.2500      -999.2500      -999.2500      -999.2500      -999.2500      -999.2500
