~Version Information Block
VERS .                 2.00:  CWLS LOG ASCII STANDARD - VERSION 2.00
WRAP .                   NO:  One line per depth step
~Well Information Block
#MNEM.UNIT        Data Type   Information
#---------- ----------------  -----------
STRT .M           1084.4784:  START DEPTH
STOP .M           2540.6604:  STOP DEPTH
STEP .M              0.1524:  STEP
NULL .              -999.25:  NULL VALUE
COMP .                     :  COMPANY
WELL .               GABA17:  WELL
FLD  .                     :  FIELD
LOC  .   6.675366, 5.270403:  LOCATION
CTRY .                     :  COUNTRY
STAT .                     :  STATE
CNTY .                     :  COUNTY
API  .                     :  API NUMBER
UWI  .                     :  UNIQUE WELL ID
SRVC .                     :  SERVICE COMPANY
DATE .                     :  LOG DATE
~Curve Information Block
#MNEM.UNIT         API CODE   Curve Description
#---------- ----------------  -----------------
DEPTH.M                    :  Reference Depth
BS_COMP.INCHES             :  Bit Size
DRHO_COMP.G/C3             :  Density Correction
GR_COMP.GAPI               :  Gamma Ray
LLS_COMP.OHMM             0:  Resistivity
NPHI_COMP.V/V              :  Neutron Porosity
PEF_COMP.B/E               :  Photo Electric Factor
RHOB_COMP.G/C3             :  Bulk Density
RT_COMP.OHMM               :  True Resistivity
RXO_COMP.OHMM              :  Invaded Zone Resistivity
TVDSS_COMP.M               :  Reference TVD sub-sea log.
TVD_COMP.M                 :  Reference TVD log.
~Parameter Information Block
#MNEM.UNIT            Value   Description
#---------- ----------------  -----------
SET  .                  LCS:  
DEPTH_BOTTOM.M         2530:  Downhole depth
DEPTH_TOP.M            1787:  Downhole depth
UNDER_SAMPLING_RATE.      1:  Full sampling rate if equal to 1
~Other Information Block
#        DEPTH        BS_COMP      DRHO_COMP        GR_COMP       LLS_COMP      NPHI_COMP       PEF_COMP      RHOB_COMP        RT_COMP       RXO_COMP     TVDSS_COMP       TVD_COMP 
~A
# ...
     1886.8644         9.8750       0.024521        34.4870        24.6183       0.284575         1.8545         2.1675        20.3557        24.6778      1866.5867      1884.5867
     1887.0168         9.8750       0.036756        34.3144        23.7507       0.299896         1.8598         2.1682        19.7311        23.7573      1866.7381      1884.7381
     1887.1692         9.8750       0.048594        34.2999        22.8817       0.310906         1.8600         2.1691        19.2051        22.9500      1866.8896      1884.8896
     1887.3216         9.8750       0.057906        34.6826        22.0474       0.320224         1.8556         2.1665        18.6791        22.1427      1867.0410      1885.0410
     1887.4740         9.8750       0.070204        34.8702        21.3153       0.329779         1.8358         2.1589        18.1530        21.3354      1867.1924      1885.1924
     1887.6264         9.8750       0.085096        34.7940        20.6259       0.338327         1.8001         2.1475        17.2588        20.0723      1867.3439      1885.3439
     1887.7788         9.8750       0.097383        35.5690        19.6023       0.344497         1.7955         2.1365        16.2888        18.7154      1867.4953      1885.4953
     1887.9312         9.8750       0.105728        39.5396        17.8338       0.350599         1.8784         2.1327        15.3189        17.3586      1867.6468      1885.6468
     1888.0836         9.8750       0.110665        48.5661        15.4242       0.361318         2.0290         2.1423        13.9776        15.6843      1867.7982      1885.7982
     1888.2360         9.8750       0.111603        63.3847        12.9904       0.377394         2.2078         2.1715        12.3307        13.7489      1867.9496      1885.9496
     1888.3884         9.8750       0.106889        81.4408        11.1801       0.394771         2.3933         2.2165        10.6838        11.8135      1868.1011      1886.1011
     1888.5408         9.8750       0.094980        98.5584        10.1097       0.411237         2.5500         2.2638         9.4387        10.3635      1868.2525      1886.2525
     1888.6932         9.8750       0.081016       110.8732         9.7683       0.424556         2.6436         2.2954         9.2927        10.2411      1868.4039      1886.4039
     1888.8456         9.8750       0.069315       114.8979         9.8353       0.431982         2.6799         2.2989         9.1466        10.1187      1868.5554      1886.5554
     1888.9980         9.8750       0.059399       113.0235         9.9954       0.435938         2.7113         2.2868         9.0006         9.9964      1868.7073      1886.7073
     1889.1504         9.8750       0.055024       108.6560         9.9485       0.438655         2.7514         2.2752         8.9289         9.8745      1868.8582      1886.8582
     1889.3028         9.8750       0.055448       106.2173         9.6956       0.441720         2.7867         2.2721         8.8583         9.7527      1869.0096      1887.0096
     1889.4552         9.8750       0.056308       106.9259         9.5405       0.444681         2.7970         2.2750         8.7876         9.6309      1869.1611      1887.1611
     1889.6076         9.8750       0.052201       107.8379         9.7261       0.446213         2.7987         2.2734         8.9724         9.8287      1869.3125      1887.3125
     1889.7600         9.8750       0.042831       105.5708        10.2072       0.445266         2.8075         2.2595         9.2636        10.1596      1869.4639      1887.4639
     1889.9124         9.8750       0.034660       100.1974        10.6763       0.443754         2.8260         2.2390         9.5548        10.4905      1869.6153      1887.6153
     1890.0648         9.8750       0.033080        94.8920        10.6840       0.445713         2.8411         2.2248         9.5127        10.4453      1869.7668      1887.7668
     1890.2172         9.8750       0.035922        93.9839        10.1781       0.453773         2.8476         2.2261         9.0202         9.8916      1869.9182      1887.9182
     1890.3696         9.8750       0.039008        98.9686         9.4533       0.467304         2.8556         2.2431         8.5276         9.3380      1870.0696      1888.0696
     1890.5220         9.8750       0.040573       106.3736         8.7649       0.483036         2.8787         2.2634         8.0656         8.8263      1870.2210      1888.2210
     1890.6744         9.8750       0.042021       111.8512         8.2293       0.498821         2.9158         2.2766         7.7841         8.5634      1870.3724      1888.3724
     1890.8268         9.8750       0.044570       113.4786         7.8973       0.511122         2.9579         2.2804         7.5027         8.3006      1870.5239      1888.5239
     1890.9792         9.8750       0.047604       112.8848         7.9405       0.515335         2.9899         2.2774         7.2212         8.0377      1870.6753      1888.6753
     1891.1316         9.8750       0.047867       111.3005         8.3895       0.507336         3.0047         2.2668         7.8439         8.8252      1870.8267      1888.8267
     1891.2840         9.8750       0.042970       108.1376         9.3384       0.487440         3.0085         2.2470         8.6095         9.7788      1870.9781      1888.9781
     1891.4364         9.8750       0.034671       101.7136        10.6003       0.459723         2.9925         2.2204         9.3752        10.7324      1871.1295      1889.1295
     1891.5888         9.8750       0.027933        92.3252        11.8703       0.432794         2.9385         2.1942        10.1015        11.6050      1871.2810      1889.2810
     1891.7412         9.8750       0.026555        81.8135        12.8423       0.414284         2.8380         2.1756        10.7997        12.4197      1871.4324      1889.4324
     1891.8936         9.8750       0.028597        72.4180        13.4876       0.403361         2.7093         2.1636        11.4978        13.2343      1871.5838      1889.5838
     1892.0460         9.8750       0.029986        65.3608        13.9395       0.395645         2.5522         2.1545        11.9709        13.8044      1871.7352      1889.7352
     1892.1984         9.8750       0.029208        60.0510        14.1618       0.386949         2.3867         2.1450        11.9233        13.8088      1871.8866      1889.8866
     1892.3508         9.8750       0.028205        56.7844        14.1452       0.378664         2.2861         2.1373        11.8757        13.8131      1872.0381      1890.0381
     1892.5032         9.8750       0.028874        55.4326        13.8104       0.374013         2.2769         2.1356        11.8198        13.8075      1872.1895      1890.1895
     1892.6556         9.8750       0.031786        56.6132        13.1665       0.374943         2.3236         2.1432        11.3795        13.3375      1872.3409      1890.3409
     1892.8080         9.8750       0.034384        59.0461        12.4997       0.378450         2.3709         2.1574        10.9391        12.8675      1872.4923      1890.4923
     1892.9604         9.8750       0.033518        61.1145        12.2118       0.379532         2.4104         2.1748        10.4987        12.3975      1872.6437      1890.6437
     1893.1128         9.8750       0.029324        61.1207        12.4565       0.372776         2.4397         2.1901        10.6794        12.6009      1872.7952      1890.7952
     1893.2652         9.8750       0.022662        57.8153        13.2332       0.355710         2.4619         2.1988        11.0780        13.0405      1872.9466      1890.9466
     1893.4176         9.8750       0.017209        51.9542        13.9033       0.335244         2.4736         2.2021        11.4766        13.4802      1873.0980      1891.0980
     1893.5700         9.8750       0.015502        46.4773        13.5605       0.321936         2.4403         2.2063        11.2187        13.0811      1873.2494      1891.2494
