~Version Information Block
VERS .                 2.00:  CWLS LOG ASCII STANDARD - VERSION 2.00
WRAP .                   NO:  One line per depth step
~Well Information Block
#MNEM.UNIT        Data Type   Information
#---------- ----------------  -----------
STRT .M              0.0000:  START DEPTH
STOP .M           2731.4652:  STOP DEPTH
STEP .M              0.1524:  STEP
NULL .              -999.25:  NULL VALUE
COMP .                     :  COMPANY
WELL .              GABO-19:  WELL
FLD  .                     :  FIELD
LOC  .   6.687920, 5.237424:  LOCATION
CTRY .                     :  COUNTRY
STAT .                     :  STATE
CNTY .                     :  COUNTY
API  .                     :  API NUMBER
UWI  .                     :  UNIQUE WELL ID
SRVC .                     :  SERVICE COMPANY
DATE .                     :  LOG DATE
~Curve Information Block
#MNEM.UNIT         API CODE   Curve Description
#---------- ----------------  -----------------
DEPTH.M                    :  Reference TVD log.
BS_COMP.INCHES             :  BIT SIZE
DRHO_COMP.G/C3            0:  Density Correction
GR_COMP.GAPI              0:  Gamma Ray
LLS_COMP.OHMM             0:  Deep Laterolog resistivity
NPHI_COMP.V/V              :  Neutron Porosity
PEF_COMP.B/E              0:  Photo Electric Facotr
RHOB_COMP.G/C3            0:  Bulk Density
RT_COMP.OHMM              0:  True Resistivity
RXO_COMP.OHMM             0:  Invaded Zone Resistivity
SP_COMP.MV                0:  Spontaneous Potential
TVDSS_COMP.M               :  Reference TVD sub-sea log.
TVD_COMP.M                 :  Reference TVD log.
~Parameter Information Block
#MNEM.UNIT            Value   Description
#---------- ----------------  -----------
SET  .                  LCS:  
~Other Information Block
#        DEPTH        BS_COMP      DRHO_COMP        GR_COMP       LLS_COMP      NPHI_COMP       PEF_COMP      RHOB_COMP        RT_COMP       RXO_COMP        SP_COMP     TVDSS_COMP       TVD_COMP 
~A
# ...
     1799.5392         9.8750    -999.250000        49.2387        20.8338    -999.250000      -999.2500      -999.2500        27.4224        13.2254        60.1939      1680.3116      1698.3116
     1799.6916         9.8750    -999.250000        46.8917        20.9524    -999.250000      -999.2500      -999.2500        27.5814        13.1009        60.1913      1680.4386      1698.4386
     1799.8440         9.8750    -999.250000        45.0229        21.0960    -999.250000      -999.2500      -999.2500        27.7167        13.5990        60.2342      1680.5656      1698.5656
     1799.9964         9.8750    -999.250000        44.4307        21.1894    -999.250000      -999.2500      -999.2500        27.7431        14.3863        60.2743      1680.6925      1698.6925
     1800.1488         9.8750    -999.250000        45.0180        21.2472    -999.250000      -999.2500      -999.2500        27.7165        14.9816        60.2483      1680.8195      1698.8195
     1800.3012         9.8750    -999.250000        45.9491        21.3750    -999.250000      -999.2500      -999.2500        27.8156        15.2154        60.1247      1680.9464      1698.9464
     1800.4536         9.8750    -999.250000        46.7826        21.6774    -999.250000      -999.2500      -999.2500        28.1975        15.2655        59.9157      1681.0734      1699.0734
     1800.6060         9.8750    -999.250000        47.3086        22.0586    -999.250000      -999.2500      -999.2500        28.7090        15.3587        59.7387      1681.2003      1699.2003
     1800.7584         9.8750    -999.250000        47.6057        22.2541    -999.250000      -999.2500      -999.2500        28.9705        15.0869        59.7397      1681.3273      1699.3273
     1800.9108         9.8750    -999.250000        47.8614        21.9665    -999.250000      -999.2500      -999.2500        28.5758        14.2819        59.9374      1681.4542      1699.4542
     1801.0632         9.8750    -999.250000        48.2223        21.0434    -999.250000      -999.2500      -999.2500        27.3301        13.2882        60.2825      1681.5812      1699.5812
     1801.2156         9.8750    -999.250000        48.9842        19.8630    -999.250000      -999.2500      -999.2500        25.7532        12.4996        60.6187      1681.7081      1699.7081
     1801.3680         9.8750    -999.250000        50.1121        18.9039    -999.250000      -999.2500      -999.2500        24.4971        12.2381        60.8217      1681.8350      1699.8350
     1801.5204         9.8750    -999.250000        50.8703        18.5031    -999.250000      -999.2500      -999.2500        23.9999        12.6566        60.8680      1681.9620      1699.9620
     1801.6728         9.8750    -999.250000        50.8395        18.7487    -999.250000      -999.2500      -999.2500        24.3583        13.6769        60.8145      1682.0889      1700.0889
     1801.8252         9.8750    -999.250000        50.2271        19.4549    -999.250000      -999.2500      -999.2500        25.2948        14.8346        60.7283      1682.2158      1700.2158
     1801.9776         9.8750    -999.250000        49.1871        20.3134    -999.250000      -999.2500      -999.2500        26.3775        15.6400        60.6354      1682.3427      1700.3427
     1802.1300         9.8750    -999.250000        47.8520        20.9739    -999.250000      -999.2500      -999.2500        27.1486        16.2389        60.5561      1682.4696      1700.4696
     1802.2824         9.8750    -999.250000        46.3647        21.2921    -999.250000      -999.2500      -999.2500        27.4494        16.8179        60.5199      1682.5965      1700.5965
     1802.4348         9.8750    -999.250000        45.2205        21.1361    -999.250000      -999.2500      -999.2500        27.1237        16.5137        60.5845      1682.7234      1700.7234
     1802.5872         9.8750    -999.250000        44.7126        20.4356    -999.250000      -999.2500      -999.2500        26.0928        15.2745        60.7977      1682.8503      1700.8503
     1802.7396         9.8750    -999.250000        44.7427        19.3357    -999.250000      -999.2500      -999.2500        24.5605        13.9087        61.1776      1682.9772      1700.9772
     1802.8920         9.8750    -999.250000        44.9225        18.3154    -999.250000      -999.2500      -999.2500        23.1567        13.0457        61.5837      1683.1041      1701.1041
     1803.0444         9.8750    -999.250000        44.8343        17.8441    -999.250000      -999.2500      -999.2500        22.5066        13.0285        61.8101      1683.2310      1701.2310
     1803.1968         9.8750    -999.250000        43.9327        17.8657    -999.250000      -999.2500      -999.2500        22.4939        13.7381        61.8831      1683.3578      1701.3578
     1803.3492         9.8750    -999.250000        42.3933        17.9925    -999.250000      -999.2500      -999.2500        22.5234        15.0795        62.0156      1683.4847      1701.4847
     1803.5016         9.8750    -999.250000        41.6985        17.7503    -999.250000      -999.2500      -999.2500        22.0218        16.0695        62.3090      1683.6116      1701.6116
     1803.6540         9.8750    -999.250000        42.6549        17.0751    -999.250000      -999.2500      -999.2500        21.0413        14.8712        62.6509      1683.7384      1701.7384
     1803.8064         9.8750    -999.250000        43.5152        16.3569    -999.250000      -999.2500      -999.2500        20.1378        12.8110        62.8807      1683.8653      1701.8653
     1803.9588         9.8750    -999.250000        42.6074        15.6773    -999.250000      -999.2500      -999.2500        19.3955        11.4819        63.0380      1683.9922      1701.9922
     1804.1112         9.8750    -999.250000        40.9944        14.8977    -999.250000      -999.2500      -999.2500        18.5146        11.1455        63.2603      1684.1190      1702.1190
     1804.2636         9.8750    -999.250000        40.7251        14.1098    -999.250000      -999.2500      -999.2500        17.5407        11.3466        63.4611      1684.2459      1702.2459
     1804.4160         9.8750    -999.250000        41.6195        13.7868    -999.250000      -999.2500      -999.2500        17.1326        11.2901        63.3776      1684.3727      1702.3727
     1804.5684         9.8750    -999.250000        41.1796        14.4645    -999.250000      -999.2500      -999.2500        18.0853        11.2028        62.8652      1684.4995      1702.4995
     1804.7208         9.8750    -999.250000        37.4785        16.4467    -999.250000      -999.2500      -999.2500        20.8319        11.9139        62.1083      1684.6264      1702.6264
     1804.8732         9.8750    -999.250000        31.2810        19.8376    -999.250000      -999.2500      -999.2500        25.4432        13.7496        61.3600      1684.7532      1702.7532
     1805.0256         9.8750    -999.250000        25.2632        23.7210    -999.250000      -999.2500      -999.2500        30.6048        16.1073        60.8026      1684.8800      1702.8800
     1805.1780         9.8750    -999.250000        21.2055        26.6373    -999.250000      -999.2500      -999.2500        34.3965        17.7449        60.4788      1685.0069      1703.0069
     1805.3304         9.8750    -999.250000        19.2137        28.0344    -999.250000      -999.2500      -999.2500        36.1875        18.2314        60.3855      1685.1337      1703.1337
     1805.4828         9.8750    -999.250000        18.3552        28.4115    -999.250000      -999.2500      -999.2500        36.6736        18.3555        60.4675      1685.2605      1703.2605
     1805.6352         9.8750    -999.250000        18.2366        27.9254    -999.250000      -999.2500      -999.2500        36.0204        17.8692        60.6165      1685.3873      1703.3873
     1805.7876         9.8750    -999.250000        19.1654        26.7511    -999.250000      -999.2500      -999.2500        34.4448        16.8693        60.7243      1685.5141      1703.5141
