~Version Information Block
VERS .                 2.00:  CWLS LOG ASCII STANDARD - VERSION 2.00
WRAP .                   NO:  One line per depth step
~Well Information Block
#MNEM.UNIT        Data Type   Information
#---------- ----------------  -----------
STRT .M              0.0000:  START DEPTH
STOP .M           2757.2208:  STOP DEPTH
STEP .M              0.1524:  STEP
NULL .              -999.25:  NULL VALUE
COMP .                     :  COMPANY
WELL .               GABO14:  WELL
FLD  .                     :  FIELD
LOC  .   6.639036, 5.241653:  LOCATION
CTRY .                     :  COUNTRY
STAT .                     :  STATE
CNTY .                     :  COUNTY
API  .                     :  API NUMBER
UWI  .                     :  UNIQUE WELL ID
SRVC .                     :  SERVICE COMPANY
DATE .                     :  LOG DATE
~Curve Information Block
#MNEM.UNIT         API CODE   Curve Description
#---------- ----------------  -----------------
DEPTH.M                    :  Reference Depth
BS_COMP.INCHES             :  Bit Size
CALI_COMP.INCHES          0:  Caliper
DRHO_COMP.G/C3            0:  Density Correction 
DT_COMP.US/F              0:  Compressional Sonic
ECART_COMP.                :  Neutron Density Seperation
GR_COMP.GAPI              0:  Gamma Ray
NPHI_COMP.V/V             0:  Neutron Porosity
PEF_COMP.B/E              0:  Photo Electric Factor
RHOB_COMP.G/C3            0:  Bulk Density
RT_COMP.OHMM              0:  True or Deep Resistivity
RXO_COMP.OHMM             0:  Invaded Zone Resistivity
SP_COMP.MV                0:  Spontaneous Potential
TVDSS_COMP.M               :  Reference TVD sub-sea log.
TVD_COMP.M                 :  Reference TVD log.
~Parameter Information Block
#MNEM.UNIT            Value   Description
#---------- ----------------  -----------
SET  .                  LCS:  
~Other Information Block
#        DEPTH        BS_COMP      CALI_COMP      DRHO_COMP        DT_COMP     ECART_COMP        GR_COMP      NPHI_COMP       PEF_COMP      RHOB_COMP        RT_COMP       RXO_COMP        SP_COMP     TVDSS_COMP       TVD_COMP 
~A
# ...
     1953.4632        12.2500        17.3407    -999.250000       114.6869      -999.2500        31.9435       0.221975         1.6450         2.1490        29.3323         5.4442        86.4947      1877.5049      1893.5049
     1953.6156        12.2500        17.5645    -999.250000       114.4534      -999.2500        33.0727       0.215016         1.6430         2.1460        34.1206         5.4602        86.4976      1877.6487      1893.6487
     1953.7680        12.2500        17.4032    -999.250000       111.2322      -999.2500        33.6379       0.214061         1.6421         2.1420        37.9298         5.5216        86.4232      1877.7925      1893.7925
     1953.9204        12.2500        16.7213    -999.250000       104.2717      -999.2500        36.2911       0.226003         1.6643         2.1391        37.8723         5.2849        86.5996      1877.9362      1893.9362
     1954.0728        12.2500        15.5209    -999.250000        95.8050      -999.2500        40.0080       0.233855         1.7335         2.1603        35.6812         4.6440        87.0993      1878.0800      1894.0800
     1954.2252        12.2500        14.3595       0.004973        91.1031      -999.2500        41.6493       0.208862         1.8754         2.2273        34.2906         5.0693        87.4278      1878.2238      1894.2238
     1954.3776        12.2500        13.7453    -999.250000        92.9776      -999.2500        41.9126       0.165061         2.0356         2.3229        34.6329         9.8221        87.2808      1878.3676      1894.3676
     1954.5300        12.2500        13.6268    -999.250000        98.0368      -999.2500        43.2780       0.150216         2.0584         2.3656        36.2448        13.7272        87.0957      1878.5114      1894.5114
     1954.6824        12.2500        13.5036    -999.250000       105.6024      -999.2500        45.7291       0.185132         1.9467         2.3007        36.8111        10.1071        87.2701      1878.6553      1894.6553
     1954.8348        12.2500        13.3404    -999.250000       113.6732      -999.2500        46.1470       0.233973         1.8230         2.1880        34.9863         5.6560        87.4465      1878.7991      1894.7991
     1954.9872        12.2500        13.3272    -999.250000       117.1901      -999.2500        44.2888       0.259017         1.7501         2.1081        32.1637         4.7134        87.1002      1878.9429      1894.9429
     1955.1396        12.2500        13.5797    -999.250000       117.6264      -999.2500        42.6137       0.278083         1.7261         2.0791        29.6425         4.5247        85.9954      1879.0867      1895.0867
     1955.2920        12.2500        14.0923       0.024926       117.9073      -999.2500        41.9327       0.306980         1.7270         2.0710        27.6972         4.2890        84.8213      1879.2305      1895.2305
     1955.4444        12.2500        14.4879       0.018955       118.1715      -999.2500        42.4827       0.320928         1.7289         2.0620        26.5067         3.8570        84.3832      1879.3743      1895.3743
     1955.5968        12.2500        14.7113       0.006020       118.0742      -999.2500        43.6523       0.314979         1.7170         2.0600        26.2361         3.4447        84.4174      1879.5181      1895.5181
     1955.7492        12.2500        14.9267       0.002007       117.2926      -999.2500        44.5355       0.307000         1.7020         2.0680        26.6730         3.4032        84.3243      1879.6619      1895.6619
     1955.9016        12.2500        15.2111       0.001008       116.3906      -999.2500        43.8101       0.301996         1.6910         2.0770        26.8690         3.3983        84.2985      1879.8057      1895.8057
     1956.0540        12.2500        15.4039       0.002021       116.3163      -999.2500        40.1344       0.298007         1.6881         2.0739        26.4646         3.4584        84.5738      1879.9495      1895.9495
     1956.2064        12.2500        15.0842       0.007072       117.0050      -999.2500        35.7016       0.297056         1.7041         2.0560        26.3899         3.8080        84.7939      1880.0933      1896.0933
     1956.3588        12.2500        14.5084       0.025091       118.0318      -999.2500        33.7916       0.308064         1.7320         2.0380        26.9970         3.7322        84.7845      1880.2371      1896.2371
     1956.5112        12.2500        14.2126       0.055021       118.2010      -999.2500        34.3294       0.327983         1.7489         2.0350        28.0291         3.0926        84.6653      1880.3810      1896.3810
     1956.6636        12.2500        13.9411       0.077911       117.7828      -999.2500        36.2562       0.336930         1.7480         2.0430        29.2784         2.6068        84.4166      1880.5248      1896.5248
     1956.8160        12.2500        13.3784       0.073886       118.1585      -999.2500        37.5265       0.327969         1.7501         2.0490        29.5685         2.5258        83.8894      1880.6686      1896.6686
     1956.9684        12.2500        12.9148       0.047953       118.6766      -999.2500        38.2428       0.316046         1.7741         2.0460        28.4437         3.0251        83.4749      1880.8124      1896.8124
     1957.1208        12.2500        12.7877       0.022040       119.6143      -999.2500        40.0583       0.318062         1.8019         2.0380        27.3609         3.9299        83.4649      1880.9562      1896.9562
     1957.2732        12.2500        12.8473       0.014087       120.6906      -999.2500        44.0416       0.332049         1.8029         2.0320        26.9414         4.1476        83.4328      1881.1001      1897.1001
     1957.4256        12.2500        13.1618       0.027058       121.2167      -999.2500        49.2885       0.350991         1.7840         2.0361        27.0292         3.6652        83.1639      1881.2439      1897.2439
     1957.5780        12.2500        13.7377       0.046968       120.7435      -999.2500        50.8022       0.360912         1.7680         2.0531        28.3051         3.2504        82.8837      1881.3877      1897.3877
     1957.7304        12.2500        14.0495       0.052914       119.4029      -999.2500        47.1283       0.348852         1.7549         2.0781        29.9617         2.9366        82.7629      1881.5315      1897.5315
     1957.8828        12.2500        13.9452       0.038926       118.7637      -999.2500        41.4345       0.310907         1.7229         2.1050        30.0969         3.3720        82.8281      1881.6753      1897.6753
     1958.0352        12.2500        13.9165    -999.250000       118.2957      -999.2500        37.6320       0.268033         1.6740         2.1210        29.0403         4.6008        82.9097      1881.8192      1897.8192
     1958.1876        12.2500        14.0055    -999.250000       118.0313      -999.2500        35.7695       0.248095         1.6431         2.1210        27.6568         5.3047        82.9181      1881.9630      1897.9630
     1958.3400        12.2500        13.9561    -999.250000       118.0919      -999.2500        33.3960       0.255023         1.6461         2.1140        26.1809         5.2892        82.9410      1882.1068      1898.1068
     1958.4924        12.2500        13.7559    -999.250000       117.6529      -999.2500        31.3467       0.263954         1.6629         2.1080        25.5403         5.0995        82.9636      1882.2507      1898.2507
     1958.6448        12.2500        13.6055    -999.250000       117.0139      -999.2500        31.9178       0.259963         1.6619         2.1140        25.8013         5.0194        82.7048      1882.3945      1898.3945
     1958.7972        12.2500        13.6167    -999.250000       116.5957      -999.2500        34.3326       0.250025         1.6480         2.1250        25.8569         5.2394        82.0113      1882.5383      1898.5383
