~Version Section
VERS.   2.0:  CWLS Log ASCII Standard - Version 2.0
WRAP.    NO:  One data record per depth sample.
~Well Information Section
#MNEM.UNIT      VALUE                    DESCRIPTION
#---------      ----------               -----------
STRT.M                   0               :START DEPTH
STOP.M          3180.43555               :STOP DEPTH
STEP.M               .1524               :STEP
NULL.          -999.250000               :NULL VALUE
COMP.                                    :Oil Company
WELL.         GABO-21                    :Non unique well name
FLD.              FNG00147               :Field name
LOC.  6.610748, 5.225944                 :Location
PROV.                                    :Province
SRVC.                                    :Service
DATE.           2013-08-16               :Date unloaded
UWI.          			               :Unique well id
~Curve Information Section
#MNEM.UNIT                   API CODE                 Curve Description
#---------                   ----------               -----------------
BOREHOLE-DEPTH.M                                   :DEPTH
GR.GAPI                                   :
RT.OHMM                                   :
RXO.OHMM                                   :
TVD.M                                   :
TVDSS.M                                   :
~A
# ...
3155.5945    37.0135      626.3439     186.3438     2501.8269    2482.5068    
3155.7468    39.0901      363.2860     214.3386     2501.8267    2482.5066    
3155.8992    41.6846      764.2122     148.1658     2501.8264    2482.5066    
3156.0518    44.4543      694.4174     202.3698     2501.8264    2482.5063    
3156.2041    48.9501      999.6796     84.7396      2501.8262    2482.5061    
3156.3564    53.7073      165.9823     53.9354      2501.8257    2482.5059    
3156.5088    60.1959      151.1242     36.7891      2501.8257    2482.5056    
3156.6611    72.8259      130.7490     29.4848      2501.8252    2482.5054    
3156.8137    82.2448      123.0062     29.3780      2501.8250    2482.5049    
3156.9661    80.0783      97.6404      29.5408      2501.8247    2482.5046    
3157.1184    66.4955      159.6732     35.2808      2501.8245    2482.5044    
3157.2708    51.1941      376.3338     44.4350      2501.8242    2482.5042    
3157.4233    45.5737      999.9824     64.9066      2501.8237    2482.5039    
3157.5757    42.5482      954.0377     53.3236      2501.8235    2482.5034    
3157.7280    42.8082      542.2321     75.7900      2501.8230    2482.5032    
3157.8804    41.8580      386.4054     66.0570      2501.8228    2482.5027    
3158.0330    42.1185      390.0015     60.6722      2501.8225    2482.5024    
3158.1853    40.8222      510.8273     54.5901      2501.8220    2482.5020    
3158.3376    42.2055      345.2027     78.8906      2501.8215    2482.5017    
3158.4900    43.6739      326.3065     81.5448      2501.8213    2482.5012    
3158.6423    44.8856      254.6969     77.9181      2501.8208    2482.5007    
3158.7949    47.0465      158.4457     33.1659      2501.8203    2482.5005    
3158.9473    46.1823      716.4201     72.3822      2501.8201    2482.5000    
3159.0996    46.9611      999.6814     71.0318      2501.8196    2482.4995    
3159.2520    47.3846      172.0527     31.6590      2501.8191    2482.4990    
3159.4045    -999.2500    72.6877      16.4963      2501.8186    2482.4985    
3159.5569    -999.2500    164.5594     29.0137      2501.8181    2482.4983    
3159.7092    -999.2500    256.3736     40.6071      2501.8176    2482.4978    
3159.8616    -999.2500    258.0734     62.3035      2501.8174    2482.4973    
3160.0142    -999.2500    386.3852     61.2729      2501.8169    2482.4968    
3160.1665    -999.2500    311.6607     49.9726      2501.8164    2482.4963    
3160.3188    -999.2500    256.3469     54.5854      2501.8159    2482.4958    
3160.4712    -999.2500    191.2485     66.5416      2501.8154    2482.4956    
3160.6235    -999.2500    153.6415     97.9626      2501.8149    2482.4951    
3160.7761    -999.2500    152.3845     124.5675     2501.8145    2482.4944    
3160.9285    -999.2500    174.5488     157.0586     2501.8142    2482.4941    
3161.0808    -999.2500    345.1575     148.1374     2501.8137    2482.4937    
3161.2332    -999.2500    182.9605     128.4958     2501.8132    2482.4932    
3161.3857    -999.2500    202.3819     140.9560     2501.8127    2482.4927    
3161.5381    -999.2500    178.6206     125.3014     2501.8123    2482.4922    
3161.6904    -999.2500    -999.2500    -999.2500    2501.8118    2482.4917    
3161.8428    -999.2500    -999.2500    -999.2500    2501.8113    2482.4912    
3161.9951    -999.2500    -999.2500    -999.2500    2501.8108    2482.4910    
3162.1477    -999.2500    -999.2500    -999.2500    2501.8103    2482.4905    
3162.3000    -999.2500    -999.2500    -999.2500    2501.8098    2482.4900    
3162.4524    -999.2500    -999.2500    -999.2500    2501.8096    2482.4895    
3162.6047    -999.2500    -999.2500    -999.2500    2501.8091    2482.4890    
3162.7573    -999.2500    -999.2500    -999.2500    2501.8086    2482.4885    
3162.9097    -999.2500    -999.2500    -999.2500    2501.8081    2482.4880    
3163.0620    -999.2500    -999.2500    -999.2500    2501.8076    2482.4875    
3163.2144    -999.2500    -999.2500    -999.2500    2501.8071    2482.4871    
3163.3669    -999.2500    -999.2500    -999.2500    2501.8066    2482.4868    
3163.5193    -999.2500    -999.2500    -999.2500    2501.8062    2482.4861    
3163.6716    -999.2500    -999.2500    -999.2500    2501.8057    2482.4856    
3163.8240    -999.2500    -999.2500    -999.2500    2501.8054    2482.4854    
3163.9763    -999.2500    -999.2500    -999.2500    2501.8047    2482.4849    
3164.1289    -999.2500    -999.2500    -999.2500    2501.8042    2482.4844    
3164.2812    -999.2500    -999.2500    -999.2500    2501.8037    2482.4839    
3164.4336    -999.2500    -999.2500    -999.2500    2501.8035    2482.4834    
3164.5859    -999.2500    -999.2500    -999.2500    2501.8030    2482.4829    
3164.7385    -999.2500    -999.2500    -999.2500    2501.8025    2482.4824    
3164.8909    -999.2500    -999.2500    -999.2500    2501.8020    2482.4819    
3165.0432    -999.2500    -999.2500    -999.2500    2501.8015    2482.4814    
3165.1956    -999.2500    -999.2500    -999.2500    2501.8010    2482.4810    
3165.3481    -999.2500    -999.2500    -999.2500    2501.8005    2482.4805    
3165.5005    -999.2500    -999.2500    -999.2500    2501.8000    2482.4800    
3165.6528    -999.2500    -999.2500    -999.2500    2501.7996    2482.4795    
3165.8052    -999.2500    -999.2500    -999.2500    2501.7991    2482.4790    
3165.9575    -999.2500    -999.2500    -999.2500    2501.7986    2482.4785    
3166.1101    -999.2500    -999.2500    -999.2500    2501.7981    2482.4780    
3166.2625    -999.2500    -999.2500    -999.2500    2501.7976    2482.4778    
3166.4148    -999.2500    -999.2500    -999.2500    2501.7971    2482.4773    
3166.5671    -999.2500    -999.2500    -999.2500    2501.7966    2482.4768    
3166.7197    -999.2500    -999.2500    -999.2500    2501.7961    2482.4763    
3166.8721    -999.2500    -999.2500    -999.2500    2501.7957    2482.4756    
3167.0244    -999.2500    -999.2500    -999.2500    2501.7954    2482.4753    
3167.1768    -999.2500    -999.2500    -999.2500    2501.7949    2482.4749    
3167.3293    -999.2500    -999.2500    -999.2500    2501.7942    2482.4744    
3167.4817    -999.2500    -999.2500    -999.2500    2501.7937    2482.4739    
3167.6340    -999.2500    -999.2500    -999.2500    2501.7932    2482.4734    
3167.7864    -999.2500    -999.2500    -999.2500    2501.7927    2482.4729    
3167.9387    -999.2500    -999.2500    -999.2500    2501.7925    2482.4724    
3168.0913    -999.2500    -999.2500    -999.2500    2501.7920    2482.4719    
3168.2437    -999.2500    -999.2500    -999.2500    2501.7915    2482.4714    
3168.3960    -999.2500    -999.2500    -999.2500    2501.7910    2482.4709    
3168.5483    -999.2500    -999.2500    -999.2500    2501.7903    2482.4705    
3168.7009    -999.2500    -999.2500    -999.2500    2501.7898    2482.4700    
3168.8533    -999.2500    -999.2500    -999.2500    2501.7893    2482.4695    
3169.0056    -999.2500    -999.2500    -999.2500    2501.7888    2482.4690    
3169.1580    -999.2500    -999.2500    -999.2500    2501.7886    2482.4685    
3169.3105    -999.2500    -999.2500    -999.2500    2501.7881    2482.4680    
3169.4629    -999.2500    -999.2500    -999.2500    2501.7876    2482.4675    
3169.6152    -999.2500    -999.2500    -999.2500    2501.7871    2482.4670    
3169.7676    -999.2500    -999.2500    -999.2500    2501.7866    2482.4666    
3169.9199    -999.2500    -999.2500    -999.2500    2501.7859    2482.4661    
3170.0725    -999.2500    -999.2500    -999.2500    2501.7854    2482.4656    
3170.2249    -999.2500    -999.2500    -999.2500    2501.7849    2482.4651    
3170.3772    -999.2500    -999.2500    -999.2500    2501.7844    2482.4646    
3170.5295    -999.2500    -999.2500    -999.2500    2501.7839    2482.4641    
3170.6821    -999.2500    -999.2500    -999.2500    2501.7834    2482.4634    
3170.8345    -999.2500    -999.2500    -999.2500    2501.7830    2482.4629    
3170.9868    -999.2500    -999.2500    -999.2500    2501.7825    2482.4624    
