~Version Information Block
VERS .                 2.00:  CWLS LOG ASCII STANDARD - VERSION 2.00
WRAP .                   NO:  One line per depth step
~Well Information Block
#MNEM.UNIT        Data Type   Information
#---------- ----------------  -----------
STRT .M              0.0000:  START DEPTH
STOP .M           2731.4652:  STOP DEPTH
STEP .M              0.1524:  STEP
NULL .              -999.25:  NULL VALUE
COMP .                     :  COMPANY
WELL .              GABO-19:  WELL
FLD  .                     :  FIELD
LOC  .   6.687920, 5.237424:  LOCATION
CTRY .                     :  COUNTRY
STAT .                     :  STATE
CNTY .                     :  COUNTY
API  .                     :  API NUMBER
UWI  .                     :  UNIQUE WELL ID
SRVC .                     :  SERVICE COMPANY
DATE .                     :  LOG DATE
~Curve Information Block
#MNEM.UNIT         API CODE   Curve Description
#---------- ----------------  -----------------
DEPTH.M                    :  Reference TVD log.
BS_COMP.INCHES             :  BIT SIZE
DRHO_COMP.G/C3            0:  Density Correction
GR_COMP.GAPI              0:  Gamma Ray
LLS_COMP.OHMM             0:  Deep Laterolog resistivity
NPHI_COMP.V/V              :  Neutron Porosity
PEF_COMP.B/E              0:  Photo Electric Facotr
RHOB_COMP.G/C3            0:  Bulk Density
RT_COMP.OHMM              0:  True Resistivity
RXO_COMP.OHMM             0:  Invaded Zone Resistivity
SP_COMP.MV                0:  Spontaneous Potential
TVDSS_COMP.M               :  Reference TVD sub-sea log.
TVD_COMP.M                 :  Reference TVD log.
~Parameter Information Block
#MNEM.UNIT            Value   Description
#---------- ----------------  -----------
SET  .                  LCS:  
~Other Information Block
#        DEPTH        BS_COMP      DRHO_COMP        GR_COMP       LLS_COMP      NPHI_COMP       PEF_COMP      RHOB_COMP        RT_COMP       RXO_COMP        SP_COMP     TVDSS_COMP       TVD_COMP 
~A
# ...
     2305.2024         9.8750       0.077103        35.0910         8.0988       0.495198         2.8916         2.1544        11.5152         7.0377        62.7104      2090.7803      2108.7803
     2305.3548         9.8750       0.058803        49.0905         5.5377       0.487106         2.8897         2.1520         7.9503         5.7096        64.5070      2090.9119      2108.9119
     2305.5072         9.8750       0.047020        66.8531         3.9609       0.475028         2.8184         2.1531         5.7107         4.1924        65.7928      2091.0434      2109.0434
     2305.6596         9.8750       0.050100        83.4918         3.2054       0.458175         2.6433         2.1628         4.6529         3.2376        66.2041      2091.1750      2109.1750
     2305.8120         9.8750       0.063332        93.9676         2.8878       0.436597         2.4177         2.1784         4.2579         2.8067        65.9385      2091.3066      2109.3066
     2305.9644         9.8750       0.081609        94.8240         2.9421       0.411853         2.2345         2.1972         4.4276         2.7693        65.0466      2091.4383      2109.4383
     2306.1168         9.8750       0.100574        87.8269         3.3033       0.392673         2.1610         2.2191         5.0416         2.9167        63.6080      2091.5699      2109.5699
     2306.2692         9.8750       0.117358        75.9415         3.9746       0.390466         2.2299         2.2457         6.0867         3.1548        61.7270      2091.7015      2109.7015
     2306.4216         9.8750       0.126499        64.2028         4.8639       0.407033         2.4341         2.2705         7.4002         3.4666        59.8975      2091.8332      2109.8332
     2306.5740         9.8750       0.122231        56.6284         5.7861       0.434953         2.7190         2.2836         8.6417         3.8127        58.7199      2091.9649      2109.9649
     2306.7264         9.8750       0.112166        54.8356         6.2948       0.459556         2.9505         2.2877         9.0895         4.0621        58.6677      2092.0966      2110.0966
     2306.8788         9.8750       0.105462        57.4259         5.8833       0.469910         3.0553         2.3016         8.1586         4.0634        59.8376      2092.2283      2110.2283
     2307.0312         9.8750       0.092486        61.8898         4.6838       0.464982         3.1149         2.3406         6.3338         3.6490        61.9215      2092.3600      2110.3600
     2307.1836         9.8750       0.063189        66.7768         3.4639       0.452935         3.2357         2.3893         4.6541         2.9152        64.2711      2092.4917      2110.4917
     2307.3360         9.8750       0.027221        71.4796         2.6650       0.441217         3.3368         2.4085         3.6005         2.2197        66.1913      2092.6234      2110.6234
     2307.4884         9.8750       0.013658        75.1405         2.2398       0.431698         3.2031         2.3848         3.0696         1.7496        67.4520      2092.7552      2110.7552
     2307.6408         9.8750       0.044090        76.5077         2.1215       0.421516         2.7983         2.3374         2.9854         1.5428        68.1483      2092.8870      2110.8870
     2307.7932         9.8750       0.090316        76.0680         2.2198       0.406422         2.3942         2.2946         3.2334         1.5513        68.5798      2093.0187      2111.0187
     2307.9456         9.8750       0.121319        75.8096         2.5381       0.380739         2.2159         2.2679         3.8139         1.8388        68.7527      2093.1505      2111.1505
     2308.0980         9.8750       0.132665        77.4676         2.9532       0.344598         2.1915         2.2491         4.4979         2.3924        68.6417      2093.2823      2111.2823
     2308.2504         9.8750       0.120719        81.6526         3.2332       0.301551         2.1749         2.2303         4.8869         2.9545        68.1785      2093.4142      2111.4142
     2308.4028         9.8750       0.091277        86.5655         3.3482       0.263141         2.0848         2.2104         4.9667         3.0034        67.4642      2093.5460      2111.5460
     2308.5552         9.8750       0.053733        90.0144         3.4859       0.240179         1.8851         2.1925         5.0624         2.6853        66.4052      2093.6778      2111.6778
     2308.7076         9.8750       0.025471        89.7754         3.8411       0.230898         1.6836         2.1798         5.4995         2.5597        65.0059      2093.8097      2111.8097
     2308.8600         9.8750       0.017215        82.6602         4.6198       0.231817         1.5694         2.1737         6.5951         2.7860        63.3275      2093.9416      2111.9416
     2309.0124         9.8750       0.022078        68.9885         5.9160       0.235215         1.5239         2.1698         8.4706         3.3107        61.6785      2094.0734      2112.0734
     2309.1648         9.8750       0.030319        51.3717         7.8443       0.237798         1.5162         2.1678        11.2840         4.2081        60.3334      2094.2054      2112.2054
     2309.3172         9.8750       0.034441        35.5987        10.0342       0.241605         1.5330         2.1725        14.4838         5.5829        59.3857      2094.3373      2112.3373
     2309.4696         9.8750       0.033885        25.3114        11.7797       0.251770         1.5578         2.1873        16.9763         7.5186        58.8381      2094.4692      2112.4692
     2309.6220         9.8750       0.032411        20.3473        12.6166       0.270362         1.5966         2.2043        18.0077         9.3299        58.6131      2094.6011      2112.6011
     2309.7744         9.8750       0.034534        19.3650        12.7082       0.294432         1.7117         2.2105        17.8969         9.9443        58.7113      2094.7331      2112.7331
     2309.9268         9.8750       0.039140        21.2341        12.4954       0.314581         1.7976         2.2007        17.4192         9.3260        59.1004      2094.8651      2112.8651
     2310.0792         9.8750       0.039578        25.3401        12.1874       0.320387         1.8080         2.1832        16.8940         8.4529        59.6957      2094.9971      2112.9971
     2310.2316         9.8750       0.033839        30.6913        11.8124       0.306135         1.8370         2.1704        16.3258         7.6418        60.3863      2095.1291      2113.1291
     2310.3840         9.8750       0.028921        36.4804        11.3797       0.278487         1.8411         2.1654        15.6856         6.7205        61.0430      2095.2611      2113.2611
     2310.5364         9.8750       0.031154        42.6034        10.9922       0.249905         1.7737         2.1646        15.0942         5.9054        61.4983      2095.3931      2113.3931
     2310.6888         9.8750       0.037137        48.7103        10.8110       0.229232         1.7127         2.1639        14.7792         5.4593        61.6430      2095.5252      2113.5252
     2310.8412         9.8750       0.037332        53.0792        11.0117       0.220217         1.6738         2.1635        14.9969         5.6220        61.3875      2095.6573      2113.6573
     2310.9936         9.8750       0.029171        54.2314        11.5741       0.219244         1.6344         2.1644        15.7139         6.2928        60.8763      2095.7894      2113.7894
     2311.1460         9.8750       0.017846        50.9069        12.5015       0.223292         1.5926         2.1655        16.9046         7.2807        60.2602      2095.9215      2113.9215
     2311.2984         9.8750       0.012113        44.6767        13.6335       0.228997         1.5555         2.1650        18.3227         8.2905        59.6756      2096.0537      2114.0537
     2311.4508         9.8750       0.018149        36.9728        14.8096       0.232553         1.5275         2.1635        19.7223         9.5147        59.2432      2096.1858      2114.1858
