~Version Information Block
VERS .                 2.00:  CWLS LOG ASCII STANDARD - VERSION 2.00
WRAP .                   NO:  One line per depth step
~Well Information Block
#MNEM.UNIT        Data Type   Information
#---------- ----------------  -----------
STRT .M              0.0000:  START DEPTH
STOP .M           2950.4637:  STOP DEPTH
STEP .M              0.1524:  STEP
NULL .              -999.25:  NULL VALUE
COMP .                     :  COMPANY
WELL .               GABO15:  WELL
FLD  .                     :  FIELD
LOC  .   6.656416, 5.257802:  LOCATION
CTRY .                     :  COUNTRY
STAT .                     :  STATE
CNTY .                     :  COUNTY
API  .                     :  API NUMBER
UWI  .                     :  UNIQUE WELL ID
SRVC .                     :  SERVICE COMPANY
DATE .                     :  LOG DATE
~Curve Information Block
#MNEM.UNIT         API CODE   Curve Description
#---------- ----------------  -----------------
DEPTH.M                    :  Reference Depth.
BS_COMP.INCHES             :  Bit Size
CALI_COMP.INCHES          0:  Caliper
DRHO_COMP.G/C3            0:  Density Correction
DT_COMP.US/F              0:  Compressional Sonic
ECART_COMP.                :  Neutron Density Seperation
GR_COMP.GAPI               :  Gamma Ray
NPHI_COMP.V/V             0:  Neutron Porosity
PEF_COMP.B/E              0:  Photo Electric Factor
RHOB_COMP.G/C3            0:  Bulk Density
RT_COMP.OHMM              0:  True or Deep Resistivity
RXO_COMP.OHMM             0:  Invaded Zone Resistivity
SP_COMP.MV                 :  Values changed using TEXT_EDIT
TVDSS_COMP.M               :  Reference TVD sub-sea log.
TVD_COMP.M                 :  Reference TVD log.
~Parameter Information Block
#MNEM.UNIT            Value   Description
#---------- ----------------  -----------
SET  .                  LCS:  
MFST .DEGF               80:  Mud filtrate sample temperature
RMFS .OHMM              1.9:  Resistivity of Filtrate sample
SP_SH.MV                  0:  Shale baseline value for SP
~Other Information Block
COMMENT:
$$MUX      Data from LAS tape
$$MUX      fevsbd 09/10/97 ng95603  ASCII:      GABO15.fod
$$MUX
$$MUX
#        DEPTH        BS_COMP      CALI_COMP      DRHO_COMP        DT_COMP     ECART_COMP        GR_COMP      NPHI_COMP       PEF_COMP      RHOB_COMP        RT_COMP       RXO_COMP        SP_COMP     TVDSS_COMP       TVD_COMP 
~A
# ...
     2861.3098         9.8750        10.0331       0.045011      -999.2500         7.4874       109.1423       0.419007         3.1771         2.3760         1.3943         1.1962       -58.2524      2623.9343      2643.9343
     2861.4622         9.8750        10.0820       0.050000      -999.2500         7.7872       109.7190       0.422007         3.2210         2.3860         1.4036         1.2180       -58.3774      2624.0698      2644.0698
     2861.6146         9.8750        10.0860       0.049995      -999.2500         8.0073       109.7168       0.425023         3.2360         2.3920         1.3898         1.2098       -58.5000      2624.2052      2644.2052
     2861.7670         9.8750        10.0681       0.047993      -999.2500         8.2808       108.7583       0.435034         3.2240         2.3890         1.3918         1.2283       -58.4830      2624.3407      2644.3407
     2861.9194         9.8750        10.1021       0.044998      -999.2500         8.6400       105.4288       0.450009         3.2120         2.3820         1.3928         1.2326       -57.6123      2624.4762      2644.4762
     2862.0718         9.8750        10.1430       0.044000      -999.2500         8.6320       101.4357       0.453968         3.1971         2.3750         1.3978         1.2400       -56.9640      2624.6116      2644.6116
     2862.2242         9.8750        10.1370       0.044002      -999.2500         8.0649       100.4426       0.439949         3.2252         2.3700         1.3804         1.2607       -56.7308      2624.7471      2644.7471
     2862.3766         9.8750        10.1391       0.045007      -999.2500         7.3125       102.4641       0.417970         3.3011         2.3690         1.3769         1.1934       -57.3486      2624.8826      2644.8826
     2862.5290         9.8750        10.1699       0.048005      -999.2500         6.9405       107.3095       0.405014         3.3439         2.3720         1.3905         1.1891       -57.5985      2625.0180      2645.0180
     2862.6814         9.8750        10.1478       0.049995      -999.2500         7.1812       112.7268       0.411041         3.2988         2.3740         1.3961         1.2022       -57.8461      2625.1535      2645.1535
     2862.8338         9.8750        10.0700       0.047982      -999.2500         7.7003       116.1053       0.429021         3.1979         2.3700         1.3888         1.1843       -57.9640      2625.2889      2645.2889
     2862.9862         9.8750        10.0781       0.039979      -999.2500         7.8395       114.4701       0.437995         3.1541         2.3620         1.3444         1.1675       -57.7449      2625.4244      2645.4244
     2863.1386         9.8750        10.1350       0.030986      -999.2500         7.6327       108.4282       0.435986         3.2062         2.3550         1.3259         1.1763       -59.0842      2625.5599      2645.5599
     2863.2910         9.8750        10.1209       0.024991      -999.2500         7.3729       104.1707       0.429988         3.2922         2.3520         1.3234         1.2437       -58.5819      2625.6953      2645.6953
     2863.4434         9.8750        10.0900       0.020998      -999.2500         7.1663       103.6295       0.424991         3.3750         2.3500         1.3425         1.1348       -57.9498      2625.8308      2645.8308
     2863.5958         9.8750        10.0701       0.020011      -999.2500         7.0126       105.5657       0.420977         3.3899         2.3490         1.3213         1.1870       -56.9740      2625.9662      2645.9662
     2863.7482         9.8750        10.0922       0.025016      -999.2500         6.6797       106.7329       0.410991         3.3369         2.3490         1.3359         1.1475       -57.2406      2626.1017      2646.1017
     2863.9006         9.8750        10.1601       0.031998      -999.2500         6.5673       106.2504       0.407021         3.2970         2.3500         1.3004         1.1542       -56.7588      2626.2372      2646.2372
     2864.0530         9.8750        10.2251       0.030986      -999.2500         6.8474       106.4244       0.416028         3.3152         2.3490         1.3020         1.1564       -57.2117      2626.3726      2646.3726
     2864.2054         9.8750        10.2831       0.024991      -999.2500         7.1865       107.4547       0.427998         3.4032         2.3460         1.2798         1.1587       -56.8490      2626.5081      2646.5081
     2864.3578         9.8750        10.3221       0.021000      -999.2500         7.1326       108.1861       0.426975         3.4691         2.3450         1.2689         1.0957       -57.1250      2626.6436      2646.6436
     2864.5102         9.8750        10.3461       0.020995      -999.2500         6.8063       107.3426       0.415986         3.4943         2.3470         1.2521         1.1182       -57.1413      2626.7790      2646.7790
     2864.6626         9.8750        10.3770       0.018993      -999.2500         6.6466       106.7231       0.409988         3.6217         2.3490         1.2799         1.1310       -57.9884      2626.9145      2646.9145
     2864.8150         9.8750        10.3960       0.016016      -999.2500         6.6404       108.5223       0.404970         3.9358         2.3571         1.3134         1.1400       -57.3634      2627.0499      2647.0499
     2864.9674         9.8750        10.3910       0.023025      -999.2500         6.8280       111.2815       0.391984         4.2800         2.3881         1.3645         1.1574       -56.7592      2627.1854      2647.1854
     2865.1198         9.8750        10.3910       0.034000      -999.2500         7.4150       111.4750       0.385034         4.2842         2.4290         1.4013         1.3011       -57.2293      2627.3209      2647.3209
     2865.2722         9.8750        10.4121       0.033965      -999.2500         8.1340       107.5538       0.400067         3.9402         2.4399         1.5231         1.1911       -56.1457      2627.4563      2647.4563
     2865.4246         9.8750        10.4529       0.018975      -999.2500         8.4393       103.5622       0.429041         3.6015         2.4069         1.5671         1.2112       -57.2523      2627.5918      2647.5918
     2865.5770         9.8750        10.4278       0.008002      -999.2500         8.1389       103.2251       0.446998         3.3877         2.3619         1.5208         1.2270       -57.3864      2627.7273      2647.7273
     2865.7294         9.8750        10.3460       0.009011      -999.2500         7.6660       105.8960       0.445982         3.2689         2.3400         1.4794         1.1366       -57.9909      2627.8627      2647.8627
     2865.8818         9.8750        10.3400       0.014009      -999.2500         7.3799       108.0471       0.437982         3.2070         2.3390         1.3465         1.0631       -57.5137      2627.9982      2647.9982
     2866.0342         9.8750        10.3239       0.018004      -999.2500         7.3532       108.1093       0.429982         3.1931         2.3510         1.2231         1.0191       -58.2591      2628.1336      2648.1336
     2866.1866         9.8750        10.2620       0.019991      -999.2500         7.3064       108.2360       0.421991         3.2291         2.3620         1.1764         1.0425       -58.7449      2628.2691      2648.2691
     2866.3390         9.8750        10.2481       0.015988      -999.2500         7.1725       109.1107       0.417988         3.2661         2.3620         1.1963         1.0976       -58.4580      2628.4046      2648.4046
     2866.4914         9.8750        10.2932       0.010988      -999.2500         6.8058       109.8581       0.412991         3.3023         2.3520         1.2844         1.2039       -57.8727      2628.5400      2648.5400
     2866.6438         9.8750        10.3612       0.006007      -999.2500         6.4338       109.4651       0.409005         3.4146         2.3400         1.3378         1.2181       -57.7500      2628.6755      2648.6755
