~Version Information Block
VERS .                 2.00:  CWLS LOG ASCII STANDARD - VERSION 2.00
WRAP .                   NO:  One line per depth step
~Well Information Block
#MNEM.UNIT        Data Type   Information
#---------- ----------------  -----------
STRT .M           1084.4784:  START DEPTH
STOP .M           2540.6604:  STOP DEPTH
STEP .M              0.1524:  STEP
NULL .              -999.25:  NULL VALUE
COMP .                     :  COMPANY
WELL .               GABA17:  WELL
FLD  .                     :  FIELD
LOC  .   6.675366, 5.270403:  LOCATION
CTRY .                     :  COUNTRY
STAT .                     :  STATE
CNTY .                     :  COUNTY
API  .                     :  API NUMBER
UWI  .                     :  UNIQUE WELL ID
SRVC .                     :  SERVICE COMPANY
DATE .                     :  LOG DATE
~Curve Information Block
#MNEM.UNIT         API CODE   Curve Description
#---------- ----------------  -----------------
DEPTH.M                    :  Reference Depth
BS_COMP.INCHES             :  Bit Size
DRHO_COMP.G/C3             :  Density Correction
GR_COMP.GAPI               :  Gamma Ray
LLS_COMP.OHMM             0:  Resistivity
NPHI_COMP.V/V              :  Neutron Porosity
PEF_COMP.B/E               :  Photo Electric Factor
RHOB_COMP.G/C3             :  Bulk Density
RT_COMP.OHMM               :  True Resistivity
RXO_COMP.OHMM              :  Invaded Zone Resistivity
TVDSS_COMP.M               :  Reference TVD sub-sea log.
TVD_COMP.M                 :  Reference TVD log.
~Parameter Information Block
#MNEM.UNIT            Value   Description
#---------- ----------------  -----------
SET  .                  LCS:  
DEPTH_BOTTOM.M         2530:  Downhole depth
DEPTH_TOP.M            1787:  Downhole depth
UNDER_SAMPLING_RATE.      1:  Full sampling rate if equal to 1
~Other Information Block
#        DEPTH        BS_COMP      DRHO_COMP        GR_COMP       LLS_COMP      NPHI_COMP       PEF_COMP      RHOB_COMP        RT_COMP       RXO_COMP     TVDSS_COMP       TVD_COMP 
~A
# ...
     1982.8764         9.8750       0.062658        43.1493        18.7841       0.306156         2.1509         2.2027        16.9937        18.6306      1961.9556      1979.9556
     1983.0288         9.8750       0.061839        48.3671        16.0129       0.309931         2.2171         2.2480        15.1706        16.2315      1962.1071      1980.1071
     1983.1812         9.8750       0.063958        55.8410        13.9181       0.320859         2.3249         2.2839        13.7890        14.6171      1962.2586      1980.2586
     1983.3336         9.8750       0.065955        66.9086        12.4975       0.337950         2.4327         2.3037        12.4073        13.0028      1962.4101      1980.4101
     1983.4860         9.8750       0.066887        82.7740        11.3473       0.359943         2.5176         2.3097        11.0256        11.3885      1962.5616      1980.5616
     1983.6384         9.8750       0.069293       102.0698        10.1814       0.384526         2.5942         2.3080         9.9689        10.2416      1962.7131      1980.7131
     1983.7908         9.8750       0.074419       120.8233         8.9621       0.408059         2.6816         2.3025         8.9451         9.1419      1962.8646      1980.8646
     1983.9432         9.8750       0.080775       134.4421         7.8963       0.426234         2.7944         2.2949         7.9213         8.0423      1963.0160      1981.0160
     1984.0956         9.8750       0.085826       140.1745         7.1884       0.436372         2.9371         2.2852         7.4289         7.5462      1963.1675      1981.1675
     1984.2480         9.8750       0.089494       138.3296         6.9033       0.439798         3.0609         2.2725         7.2523         7.4087      1963.3190      1981.3190
     1984.4004         9.8750       0.094484       129.8393         6.9820       0.438520         3.1043         2.2570         7.0756         7.2712      1963.4705      1981.4705
     1984.5528         9.8750       0.103794       118.4079         7.2869       0.434925         3.0994         2.2428         7.0864         7.3197      1963.6220      1981.6220
     1984.7052         9.8750       0.116105       106.6825         7.6597       0.428424         3.0951         2.2320         7.4506         7.7192      1963.7735      1981.7735
     1984.8576         9.8750       0.122625        95.2681         8.0343       0.416926         3.0857         2.2206         7.8147         8.1187      1963.9250      1981.9250
     1985.0100         9.8750       0.114318        82.9814         8.5241       0.399139         3.0447         2.2029         8.2373         8.5912      1964.0765      1982.0765
     1985.1624         9.8750       0.091524        69.7677         9.3644       0.378032         2.9053         2.1791         9.4911        10.1045      1964.2280      1982.2280
     1985.3148         9.8750       0.064498        57.7853        10.8217       0.359375         2.6606         2.1549        10.7448        11.6177      1964.3795      1982.3795
     1985.4672         9.8750       0.045894        49.3414        12.8996       0.347670         2.4053         2.1367        11.9986        13.1310      1964.5310      1982.5310
     1985.6196         9.8750       0.039832        43.9200        15.4880       0.342265         2.2216         2.1261        13.8588        15.4186      1964.6825      1982.6825
     1985.7720         9.8750       0.041923        39.6482        18.1456       0.339657         2.1372         2.1221        15.8854        17.9186      1964.8340      1982.8340
     1985.9244         9.8750       0.044380        35.5193        20.5731       0.334850         2.1195         2.1223        17.9119        20.4187      1964.9855      1982.9855
     1986.0768         9.8750       0.043181        32.1026        22.7618       0.325212         2.1224         2.1259        19.5179        22.4248      1965.1370      1983.1370
     1986.2292         9.8750       0.037995        29.9095        24.6763       0.313944         2.1115         2.1311        20.7099        23.9448      1965.2885      1983.2885
     1986.3816         9.8750       0.030896        28.8040        26.0709       0.304144         2.0907         2.1361        21.9019        25.4647      1965.4400      1983.4400
     1986.5340         9.8750       0.025765        27.9804        26.8106       0.297548         2.0842         2.1379        22.7926        26.5987      1965.5915      1983.5915
     1986.6864         9.8750       0.025561        27.5535        26.9282       0.294015         2.0974         2.1357        22.6342        26.3882      1965.7431      1983.7431
     1986.8388         9.8750       0.030100        28.4178        26.5937       0.289661         2.1117         2.1344        22.4757        26.1778      1965.8946      1983.8946
     1986.9912         9.8750       0.036324        31.4134        25.9861       0.280306         2.1098         2.1423        22.3173        25.9674      1966.0461      1984.0461
     1987.1436         9.8750       0.041012        35.8381        25.4521       0.266858         2.1089         2.1630        22.3418        26.0711      1966.1976      1984.1976
     1987.2960         9.8750       0.047362        39.3528        25.3742       0.257161         2.1476         2.1889        22.3776        26.1942      1966.3491      1984.3491
     1987.4484         9.8750       0.056626        39.8555        25.9259       0.260319         2.2315         2.2068        22.4133        26.3172      1966.5006      1984.5006
     1987.6008         9.8750       0.062190        37.8857        27.2046       0.276248         2.3184         2.2110        23.1134        26.9732      1966.6521      1984.6521
     1987.7532         9.8750       0.060177        35.5632        28.6506       0.297835         2.3845         2.2035        24.1535        27.9020      1966.8036      1984.8036
     1987.9056         9.8750       0.057900        35.0037        29.4536       0.312327         2.4304         2.1950        25.1936        28.8308      1966.9551      1984.9551
     1988.0580         9.8750       0.063464        36.7884        29.3769       0.306094         2.4603         2.1993        25.9866        29.3805      1967.1066      1985.1066
     1988.2104         9.8750       0.070359        39.1497        29.1125       0.283226         2.4824         2.2236        26.3771        29.3131      1967.2581      1985.2581
     1988.3628         9.8750       0.066813        41.2429        29.3259       0.257748         2.4948         2.2654        26.7676        29.2458      1967.4096      1985.4096
     1988.5152         9.8750       0.055273        44.2695        29.1695       0.248294         2.4992         2.3004        26.6719        28.6542      1967.5612      1985.5612
     1988.6676         9.8750       0.049981        50.9313        25.7247       0.265039         2.5056         2.3103        22.1875        23.3313      1967.7127      1985.7127
     1988.8200         9.8750       0.058523        62.5677        18.8469       0.304562         2.5127         2.3041        17.7031        18.0084      1967.8642      1985.8642
     1988.9724         9.8750       0.075268        77.5462        12.4519       0.354310         2.5154         2.3005        13.2187        12.6855      1968.0157      1986.0157
     1989.1248         9.8750       0.089434        91.3375         8.4188       0.393734         2.5135         2.3059        10.8333        10.2650      1968.1672      1986.1672
     1989.2772         9.8750       0.098805       100.5443         6.5895       0.412465         2.5090         2.3107         8.9122         8.4865      1968.3187      1986.3187
     1989.4296         9.8750       0.103337       103.9723         5.8421       0.412690         2.5034         2.3060         6.9910         6.7080      1968.4702      1986.4702
     1989.5820         9.8750       0.103663       102.7716         5.9380       0.403338         2.4988         2.2926         6.4815         6.2836      1968.6218      1986.6218
