~Version Information Block
VERS .                 2.00:  CWLS LOG ASCII STANDARD - VERSION 2.00
WRAP .                   NO:  One line per depth step
~Well Information Block
#MNEM.UNIT        Data Type   Information
#---------- ----------------  -----------
STRT .M              0.0000:  START DEPTH
STOP .M           2954.7312:  STOP DEPTH
STEP .M              0.1524:  STEP
NULL .              -999.25:  NULL VALUE
COMP .                     :  COMPANY
WELL .               GABO16:  WELL
FLD  .                     :  FIELD
LOC  .   6.656374, 5.257763:  LOCATION
CTRY .                     :  COUNTRY
STAT .                     :  STATE
CNTY .                     :  COUNTY
API  .                     :  API NUMBER
UWI  .                     :  UNIQUE WELL ID
SRVC .                     :  SERVICE COMPANY
DATE .                     :  LOG DATE
~Curve Information Block
#MNEM.UNIT         API CODE   Curve Description
#---------- ----------------  -----------------
DEPTH.M                    :  Reference Depth
BS_COMP.INCHES             :  Bit Size
CALI_COMP.INCHES           :  Caliper
DRHO_COMP.G/C3             :  Density Neutron Seperation
DT_COMP.US/F              0:  Compressional Sonic
GR_COMP.GAPI              0:  Gamma Ray
NPHI_COMP.V/V              :  Neutron Porosity
PEF_COMP.B/E              0:  Photo Electric Factor
RHOB_COMP.G/C3            0:  Bulk Density
RT_COMP.OHMM              0:  True or Deep Resistivity
RXO_COMP.OHMM             0:  Invaded Zone Resistivity
SP_COMP.MV                0:  Spontanuous Potential
TVDSS_COMP.M               :  Reference TVD sub-sea log.
TVD_COMP.M                 :  Reference TVD log.
~Parameter Information Block
#MNEM.UNIT            Value   Description
#---------- ----------------  -----------
SET  .                  LCS:  
~Other Information Block
COMMENT:
COMMENT:
$$MUX      Data from LAS tape
$$MUX      fevsbd 09/10/97 ng95603  ASCII:      GABO-16
$$MUX
$$MUX

#        DEPTH        BS_COMP      CALI_COMP      DRHO_COMP        DT_COMP        GR_COMP      NPHI_COMP       PEF_COMP      RHOB_COMP        RT_COMP       RXO_COMP        SP_COMP     TVDSS_COMP       TVD_COMP 
~A
# ...
     2213.6100        12.2500        13.0548      -0.010883       103.4574        99.6393       0.311257         2.7971         2.3618         7.0787         5.6848        72.7466      2051.4587      2071.9587
     2213.7624        12.2500        13.0800      -0.015696       104.1431        96.9124       0.314316         2.7917         2.3538         7.0157         5.7096        73.2076      2051.5879      2072.0879
     2213.9148        12.2500        13.0895      -0.019803       104.9486        94.0706       0.315330         2.9751         2.3426         6.9992         6.0352        72.8541      2051.7168      2072.2168
     2214.0672        12.2500        13.0487      -0.024386       105.4237        93.5366       0.318857         3.3276         2.3289         7.1131         6.2842        72.5051      2051.8457      2072.3457
     2214.2196        12.2500        12.9919      -0.026678       104.5495        97.4104       0.330680         3.7216         2.3200         7.4285         6.1043        72.7567      2051.9749      2072.4749
     2214.3720        12.2500        12.8826      -0.025292       102.8264       105.4457       0.348346         3.9519         2.3257         7.8788         5.7265        72.9334      2052.1038      2072.6038
     2214.5244        12.2500        12.7390      -0.022601       100.8510       114.4564       0.361868         3.9042         2.3446         8.3472         6.3965        72.4824      2052.2329      2072.7329
     2214.6768        12.2500        12.7094      -0.020009        99.0179       118.9864       0.363454         3.6642         2.3593         8.7775         8.2753        71.5148      2052.3618      2072.8618
     2214.8292        12.2500        12.7478      -0.019025        98.2833       115.6323       0.351995         3.3489         2.3527         9.1980         9.4053        70.4666      2052.4910      2072.9910
     2214.9816        12.2500        12.7577      -0.022182        99.1311       105.7018       0.331747         3.0929         2.3272         9.6741         9.3469        69.5969      2052.6199      2073.1199
     2215.1340        12.2500        12.7577      -0.022282       100.4996        94.0431       0.310062         2.9153         2.2937        10.1389         9.2706        68.9271      2052.7488      2073.2488
     2215.2864        12.2500        12.7460      -0.019396       101.9257        85.9035       0.301113         2.7908         2.2638        10.4292         9.2141        68.4224      2052.8779      2073.3779
     2215.4388        12.2500        12.7109      -0.015918       103.4675        84.7644       0.315663         2.8541         2.2554        10.4797         8.8623        68.0178      2053.0068      2073.5068
     2215.5912        12.2500        12.6759      -0.015433       104.1989        84.0590       0.330496         3.0036         2.2517        10.3074         8.4222        67.7670      2053.1360      2073.6360
     2215.7436        12.2500        12.6642      -0.020407       104.0889        83.2521       0.333464         3.1182         2.2519         9.9575         8.0684        67.8619      2053.2649      2073.7649
     2215.8960        12.2500        12.6641      -0.026570       105.3796        81.4232       0.323601         3.1285         2.2546         9.5330         7.8595        68.1762      2053.3938      2073.8938
     2216.0484        12.2500        12.6641      -0.027672       111.5110        79.4386       0.313075         3.0838         2.2573         9.1543         7.8927        68.2901      2053.5229      2074.0229
     2216.2008        12.2500        12.6641      -0.023995       117.9394        79.9016       0.313843         3.0611         2.2632         8.8701         8.1080        68.1686      2053.6519      2074.1519
     2216.3532        12.2500        12.6641      -0.019407       115.9166        82.7923       0.323147         3.0879         2.2732         8.6488         8.1930        67.6512      2053.7810      2074.2810
     2216.5056        12.2500        12.6641      -0.015908       111.4041        85.1474       0.331569         3.1246         2.2832         8.4612         7.9741        66.8314      2053.9099      2074.4099
     2216.6580        12.2500        12.6641      -0.013718       109.1982        85.5193       0.334996         3.1342         2.2922         8.3129         7.6438        66.3435      2054.0388      2074.5388
     2216.8104        12.2500        12.6643      -0.014614       106.7048        85.4793       0.334363         3.1066         2.2989         8.2232         7.3948        66.1436      2054.1680      2074.6680
     2216.9628        12.2500        12.6917      -0.017895       109.4294        86.5057       0.331418         3.0517         2.3040         8.1922         7.2772        65.7216      2054.2969      2074.7969
     2217.1152        12.2500        12.7755      -0.020293       114.3403        87.8452       0.325792         3.0116         2.3073         8.1928         7.3931        64.9671      2054.4258      2074.9258
     2217.2676        12.2500        12.8787      -0.021592       114.1729        87.6243       0.319113         3.0194         2.3116         8.2392         7.7260        64.5499      2054.5549      2075.0549
     2217.4200        12.2500        12.9509      -0.021481       112.1004        85.3855       0.314359         3.0723         2.3166         8.3667         7.9609        64.8900      2054.6838      2075.1838
     2217.5724        12.2500        12.9744      -0.018185       109.3651        82.8003       0.310766         3.1461         2.3257         8.5719         8.0837        65.4814      2054.8130      2075.3130
     2217.7248        12.2500        12.9629      -0.012302       100.2202        81.5965       0.299680         3.1897         2.3510         8.8295         9.2437        65.9066      2054.9419      2075.4419
     2217.8772        12.2500        12.9533      -0.006812        86.9700        81.7701       0.278447         3.1648         2.3932         9.0726        12.0055        66.1742      2055.0708      2075.5708
     2218.0296        12.2500        12.9770      -0.003313        80.9008        81.6234       0.258231         3.1059         2.4328         9.2526        13.0413        66.4021      2055.1997      2075.6997
     2218.1820        12.2500        13.0666      -0.002030        81.8416        81.1719       0.249369         3.0682         2.4567         9.4186        11.2372        66.7444      2055.3289      2075.8289
     2218.3344        12.2500        13.1946      -0.005718        85.4580        82.6671       0.247387         3.0415         2.4698         9.6278        11.6622        67.1986      2055.4578      2075.9578
     2218.4868        12.2500        13.2139      -0.012480        97.1821        86.1420       0.248553         2.9750         2.4703         9.8344        15.0972        67.5134      2055.5869      2076.0869
     2218.6392        12.2500        13.0899      -0.015986       117.6286        89.1586       0.261251         2.8864         2.4447         9.9725        16.2665        67.5474      2055.7158      2076.2158
     2218.7916        12.2500        12.9790      -0.017101       129.7674        90.4537       0.282635         2.8553         2.4088        10.1154        13.1356        67.4670      2055.8447      2076.3447
     2218.9440        12.2500        12.9455      -0.018295       126.6731        91.2488       0.292759         2.9291         2.3981        10.3606         9.3663        67.6804      2055.9736      2076.4736
     2219.0964        12.2500        12.9473      -0.018676       117.1659        91.8874       0.280445         3.0319         2.4156        10.6793         8.7101        68.1336      2056.1028      2076.6028
     2219.2488        12.2500        12.9531      -0.015086       112.4285        90.5471       0.259922         3.0598         2.4278        11.0468        11.0683        68.2644      2056.2317      2076.7317
     2219.4012        12.2500        12.9530      -0.009220       121.0553        86.6287       0.251314         3.0103         2.4173        11.5239        13.2819        68.0363      2056.3606      2076.8606
