~Version Information Block
VERS .                 2.00:  CWLS LOG ASCII STANDARD - VERSION 2.00
WRAP .                   NO:  One line per depth step
~Well Information Block
#MNEM.UNIT        Data Type   Information
#---------- ----------------  -----------
STRT .M              0.0000:  START DEPTH
STOP .M           2731.4652:  STOP DEPTH
STEP .M              0.1524:  STEP
NULL .              -999.25:  NULL VALUE
COMP .                     :  COMPANY
WELL .              GABO-19:  WELL
FLD  .                     :  FIELD
LOC  .   6.687920, 5.237424:  LOCATION
CTRY .                     :  COUNTRY
STAT .                     :  STATE
CNTY .                     :  COUNTY
API  .                     :  API NUMBER
UWI  .                     :  UNIQUE WELL ID
SRVC .                     :  SERVICE COMPANY
DATE .                     :  LOG DATE
~Curve Information Block
#MNEM.UNIT         API CODE   Curve Description
#---------- ----------------  -----------------
DEPTH.M                    :  Reference TVD log.
BS_COMP.INCHES             :  BIT SIZE
DRHO_COMP.G/C3            0:  Density Correction
GR_COMP.GAPI              0:  Gamma Ray
LLS_COMP.OHMM             0:  Deep Laterolog resistivity
NPHI_COMP.V/V              :  Neutron Porosity
PEF_COMP.B/E              0:  Photo Electric Facotr
RHOB_COMP.G/C3            0:  Bulk Density
RT_COMP.OHMM              0:  True Resistivity
RXO_COMP.OHMM             0:  Invaded Zone Resistivity
SP_COMP.MV                0:  Spontaneous Potential
TVDSS_COMP.M               :  Reference TVD sub-sea log.
TVD_COMP.M                 :  Reference TVD log.
~Parameter Information Block
#MNEM.UNIT            Value   Description
#---------- ----------------  -----------
SET  .                  LCS:  
~Other Information Block
#        DEPTH        BS_COMP      DRHO_COMP        GR_COMP       LLS_COMP      NPHI_COMP       PEF_COMP      RHOB_COMP        RT_COMP       RXO_COMP        SP_COMP     TVDSS_COMP       TVD_COMP 
~A
# ...
     1492.3008         9.8750    -999.250000        91.9025        12.2339    -999.250000      -999.2500      -999.2500        15.5746         9.0487        77.0703      1416.2626      1434.2626
     1492.4532         9.8750    -999.250000        90.6232        12.2980    -999.250000      -999.2500      -999.2500        15.6138         9.0800        77.5145      1416.3973      1434.3973
     1492.6056         9.8750    -999.250000        89.3185        12.5037    -999.250000      -999.2500      -999.2500        15.7904         9.1866        78.0391      1416.5321      1434.5321
     1492.7580         9.8750    -999.250000        88.0812        12.4628    -999.250000      -999.2500      -999.2500        15.6580         8.8235        78.5302      1416.6668      1434.6668
     1492.9104         9.8750    -999.250000        86.0461        12.1874    -999.250000      -999.2500      -999.2500        15.2881         8.2190        78.7687      1416.8016      1434.8016
     1493.0628         9.8750    -999.250000        82.5974        11.9106    -999.250000      -999.2500      -999.2500        14.9912         7.8572        78.5685      1416.9363      1434.9363
     1493.2152         9.8750    -999.250000        78.9045        11.8186    -999.250000      -999.2500      -999.2500        14.9795         7.8525        78.0740      1417.0710      1435.0710
     1493.3676         9.8750    -999.250000        76.9164        11.9145    -999.250000      -999.2500      -999.2500        15.2306         8.0914        77.5478      1417.2058      1435.2058
     1493.5200         9.8750    -999.250000        77.2697        12.0576    -999.250000      -999.2500      -999.2500        15.5280         8.4057        77.1531      1417.3405      1435.3405
     1493.6724         9.8750    -999.250000        79.0884        12.2330    -999.250000      -999.2500      -999.2500        15.8442         8.8411        76.6441      1417.4752      1435.4752
     1493.8248         9.8750    -999.250000        80.6504        12.6149    -999.250000      -999.2500      -999.2500        16.4333         9.2414        75.6314      1417.6100      1435.6100
     1493.9772         9.8750    -999.250000        82.1278        13.4328    -999.250000      -999.2500      -999.2500        17.6451         9.4721        74.1438      1417.7447      1435.7447
     1494.1296         9.8750    -999.250000        85.3718        14.8192    -999.250000      -999.2500      -999.2500        19.6680         9.7509        72.7719      1417.8794      1435.8794
     1494.2820         9.8750    -999.250000        91.0077        16.4341    -999.250000      -999.2500      -999.2500        21.9268        10.3075        72.2131      1418.0141      1436.0141
     1494.4344         9.8750    -999.250000        97.6262        16.9478    -999.250000      -999.2500      -999.2500        22.4639        10.7115        73.0331      1418.1488      1436.1488
     1494.5868         9.8750    -999.250000       102.9431        15.4048    -999.250000      -999.2500      -999.2500        20.1524        10.2513        75.0747      1418.2835      1436.2835
     1494.7392         9.8750    -999.250000       105.3567        12.6088    -999.250000      -999.2500      -999.2500        16.3225         8.8306        77.7768      1418.4182      1436.4182
     1494.8916         9.8750    -999.250000       105.5931        10.1590    -999.250000      -999.2500      -999.2500        13.0692         7.3121        80.2101      1418.5529      1436.5529
     1495.0440         9.8750    -999.250000       104.1859         8.7568    -999.250000      -999.2500      -999.2500        11.2756         6.3146        81.3589      1418.6876      1436.6876
     1495.1964         9.8750    -999.250000       101.0655         8.2372    -999.250000      -999.2500      -999.2500        10.7123         5.8112        81.0156      1418.8223      1436.8223
     1495.3488         9.8750    -999.250000        94.6696         8.7613    -999.250000      -999.2500      -999.2500        11.6341         5.5454        79.0872      1418.9570      1436.9570
     1495.5012         9.8750    -999.250000        84.7085        10.3315    -999.250000      -999.2500      -999.2500        14.0794         5.2903        76.3515      1419.0917      1437.0917
     1495.6536         9.8750    -999.250000        71.7898        13.6780    -999.250000      -999.2500      -999.2500        19.1672         5.1868        73.2469      1419.2264      1437.2264
     1495.8060         9.8750    -999.250000        59.6865        18.7553    -999.250000      -999.2500      -999.2500        26.9345         5.3750        70.1067      1419.3611      1437.3611
     1495.9584         9.8750    -999.250000        52.0260        24.8430    -999.250000      -999.2500      -999.2500        36.4949         5.9407        67.0451      1419.4957      1437.4957
     1496.1108         9.8750    -999.250000        48.9616        29.5749    -999.250000      -999.2500      -999.2500        44.1238         6.6092        64.2150      1419.6304      1437.6304
     1496.2632         9.8750    -999.250000        49.1865        31.3462    -999.250000      -999.2500      -999.2500        47.0184         7.0739        61.9181      1419.7651      1437.7651
     1496.4156         9.8750    -999.250000        49.8740        31.2519    -999.250000      -999.2500      -999.2500        46.8794         7.4194        60.2489      1419.8998      1437.8998
     1496.5680         9.8750    -999.250000        50.0107        30.6341    -999.250000      -999.2500      -999.2500        45.9894         7.7530        59.1846      1420.0344      1438.0344
     1496.7204         9.8750    -999.250000        49.8390        30.4719    -999.250000      -999.2500      -999.2500        45.9670         7.9477        58.5774      1420.1691      1438.1691
     1496.8728         9.8750    -999.250000        49.8076        31.0775    -999.250000      -999.2500      -999.2500        47.2952         8.2203        58.4870      1420.3037      1438.3037
     1497.0252         9.8750    -999.250000        49.8685        32.3922    -999.250000      -999.2500      -999.2500        49.8242         9.0167        58.9956      1420.4384      1438.4384
     1497.1776         9.8750    -999.250000        49.2959        34.1861    -999.250000      -999.2500      -999.2500        53.1133        10.5654        60.0785      1420.5730      1438.5730
     1497.3300         9.8750    -999.250000        47.6709        36.0501    -999.250000      -999.2500      -999.2500        56.4050        12.1918        61.4998      1420.7077      1438.7077
     1497.4824         9.8750    -999.250000        45.5629        37.6258    -999.250000      -999.2500      -999.2500        59.0451        12.0323        62.9483      1420.8423      1438.8423
     1497.6348         9.8750    -999.250000        43.7402        38.7787    -999.250000      -999.2500      -999.2500        60.8089         9.7835        64.1986      1420.9769      1438.9769
     1497.7872         9.8750    -999.250000        42.3172        39.8410    -999.250000      -999.2500      -999.2500        62.3644         7.5143        65.2203      1421.1116      1439.1116
     1497.9396         9.8750    -999.250000        41.1088        41.4783    -999.250000      -999.2500      -999.2500        64.9599         6.1226        66.0184      1421.2462      1439.2462
     1498.0920         9.8750    -999.250000        40.3340        44.0431    -999.250000      -999.2500      -999.2500        69.2467         5.4869        66.6404      1421.3808      1439.3808
     1498.2444         9.8750    -999.250000        40.5195        47.5898    -999.250000      -999.2500      -999.2500        75.3311         5.5632        67.0824      1421.5155      1439.5155
     1498.3968         9.8750    -999.250000        41.3012        51.3254    -999.250000      -999.2500      -999.2500        81.7530         6.0710        67.4085      1421.6501      1439.6501
     1498.5492         9.8750    -999.250000        41.6343        54.0263    -999.250000      -999.2500      -999.2500        86.1960         6.7583        67.6942      1421.7847      1439.7847
