~Version Information Block
VERS .                 2.00:  CWLS LOG ASCII STANDARD - VERSION 2.00
WRAP .                   NO:  One line per depth step
~Well Information Block
#MNEM.UNIT        Data Type   Information
#---------- ----------------  -----------
STRT .M            800.1000:  START DEPTH
STOP .M           4245.4068:  STOP DEPTH
STEP .M              0.1524:  STEP
NULL .              -999.25:  NULL VALUE
COMP .                     :  COMPANY
WELL .               GABO51:  WELL
FLD  .                     :  FIELD
LOC  .   6.643728, 5.227344:  LOCATION
CTRY .                     :  COUNTRY
STAT .                     :  STATE
CNTY .                     :  COUNTY
API  .                     :  API NUMBER
UWI  .                     :  UNIQUE WELL ID
SRVC .                     :  SERVICE COMPANY
DATE .                     :  LOG DATE
~Curve Information Block
#MNEM.UNIT         API CODE   Curve Description
#---------- ----------------  -----------------
DEPTH.M                    :  Depth
DRHO_COMP.G/C3             :  Density Correction
DTSM_COMP.US/F             :  Shear Sonic
DT_COMP.US/F               :  Compressional Sonic
GR_COMP.GAPI               :  Gamma Ray
HCAL_COMP.INCHES           :  Caliper
NPHI_COMP.V/V              :  Neutron Porosity
PEF_COMP.B/E               :  Pho Electric Factor
RDEEP_COMP.OHMM            :  Deep Resistivity
RHOB_COMP.G/C3             :  Bulk Density
RSHAL_COMP.OHMM            :  Shallow Resistivity
TVDSS_COMP.M               :  Reference TVD sub-sea log.
TVD_COMP.M                 :  Reference TVD log.
~Parameter Information Block
#MNEM.UNIT            Value   Description
#---------- ----------------  -----------
SET  .                  LCS:  
~Other Information Block
#        DEPTH      DRHO_COMP      DTSM_COMP        DT_COMP        GR_COMP      HCAL_COMP      NPHI_COMP       PEF_COMP     RDEEP_COMP      RHOB_COMP     RSHAL_COMP     TVDSS_COMP       TVD_COMP 
~A
# ...
     3252.2160      -0.002700       169.1953       162.8999       102.4351        12.2704       0.315000         3.2821         4.2516         2.4814         4.1799      2540.9303      2560.7103
     3252.3684      -0.004000       169.7430       162.8897        98.6751        12.2927       0.318300         3.2726         3.8882         2.4745         3.9867      2541.0356      2560.8156
     3252.5208      -0.005500       171.0498       163.5445        95.0292        12.4044       0.312700         3.2987         4.3002         2.4657         4.1612      2541.1408      2560.9208
     3252.6732      -0.004000       173.4369       165.3164        95.3647        12.5681       0.309300         3.3298         4.1621         2.4654         3.8900      2541.2461      2561.0261
     3252.8256      -0.002200       175.9492       166.5432       101.1754        12.4639       0.300100         3.3468         3.9997         2.4634         3.9113      2541.3513      2561.1313
     3252.9780      -0.001400       177.9073       170.6935       108.7016        12.2704       0.297700         3.3451         3.6696         2.4599         3.6507      2541.4566      2561.2366
     3253.1304      -0.001700       179.4110       171.6146       113.4869        12.2481       0.305200         3.3102         3.3930         2.4595         3.4918      2541.5618      2561.3418
     3253.2828      -0.001400       180.8366       172.7594       115.5378        12.2592       0.340600         3.2839         3.3228         2.4655         3.3810      2541.6671      2561.4471
     3253.4352      -0.001500       181.6611       172.2207       108.8092        12.2704       0.354700         3.2474         3.3109         2.4726         3.3939      2541.7723      2561.5523
     3253.5876      -0.002100       181.5745       172.0835       103.7960        12.3076       0.354700         3.2138         3.2233         2.4776         3.3289      2541.8776      2561.6576
     3253.7400      -0.002500       181.4024       171.5585       100.0171        12.4044       0.324400         3.1745         3.1882         2.4819         3.2927      2541.9828      2561.7628
     3253.8924      -0.002000       181.0744       171.2928       101.7261        12.4862       0.314400         3.1754         3.2713         2.4835         3.3246      2542.0881      2561.8681
     3254.0448       0.000700       180.4767       171.2924        98.4219        12.3597       0.300200         3.2193         3.3676         2.4869         3.3725      2542.1933      2561.9733
     3254.1972       0.001600       180.1997       171.1893        96.5040        12.2704       0.298300         3.3000         3.4576         2.4785         3.4010      2542.2986      2562.0786
     3254.3496       0.001700       180.4878       171.8076        98.4409        12.2481       0.304000         3.3756         3.4734         2.4720         3.4488      2542.4038      2562.1838
     3254.5020      -0.002000       181.2889       171.8217        97.7636        12.2369       0.315800         3.4025         3.3849         2.4599         3.3856      2542.5091      2562.2891
     3254.6544      -0.005100       181.9030       172.1605       100.3272        12.2927       0.306800         3.3985         3.4204         2.4547         3.3699      2542.6143      2562.3943
     3254.8068      -0.006700       181.6710       172.1894       102.0110        12.4267       0.311900         3.3829         3.4223         2.4535         3.3351      2542.7196      2562.4996
     3254.9592      -0.006500       181.2005       172.1697       103.5997        12.4267       0.320500         3.3803         3.3533         2.4524         3.3080      2542.8248      2562.6048
     3255.1116      -0.004700       181.2619       171.8414       106.8469        12.3262       0.334300         3.3763         3.3112         2.4551         3.2969      2542.9301      2562.7101
     3255.2640      -0.003000       181.6267       172.4648       104.7075        12.2146       0.324400         3.3353         3.2734         2.4596         3.2927      2543.0354      2562.8154
     3255.4164      -0.002300       182.0527       172.7978       108.4990        12.2146       0.328600         3.3147         3.2445         2.4631         3.2597      2543.1406      2562.9206
     3255.5688      -0.003500       182.6921       174.0670       104.5112        12.2257       0.320100         3.3063         3.2327         2.4638         3.2320      2543.2459      2563.0259
     3255.7212      -0.005200       183.6018       174.4757       103.9416        12.3262       0.326700         3.3183         3.2640         2.4642         3.2080      2543.3511      2563.1311
     3255.8736      -0.006500       184.4016       174.5586       101.6312        12.4192       0.323900         3.3236         3.2270         2.4642         3.1800      2543.4564      2563.2364
     3256.0260      -0.006600       184.3585       174.5921       101.5172        12.3969       0.338000         3.3302         3.1774         2.4644         3.1443      2543.5617      2563.3417
     3256.1784      -0.007100       183.7264       174.5364       101.5362        12.3374       0.331100         3.3544         3.1348         2.4548         3.1374      2543.6669      2563.4469
     3256.3308      -0.006100       183.4154       174.8605       101.4223        12.2555       0.321900         3.3826         3.1103         2.4504         3.1235      2543.7722      2563.5522
     3256.4832      -0.004300       183.7774       174.8049       102.1059        12.2406       0.327000         3.3869         3.0922         2.4526         3.0956      2543.8775      2563.6575
     3256.6356      -0.003200       184.3377       174.4431        98.8967        12.2778       0.328500         3.3912         3.0777         2.4568         3.1104      2543.9827      2563.7627
     3256.7880      -0.002500       184.2774       174.7021       100.2639        12.3374       0.331700         3.3753         3.1298         2.4606         3.0947      2544.0880      2563.8680
     3256.9404      -0.003900       184.0001       175.0840       105.6190        12.3820       0.340800         3.3396         3.1653         2.4551         3.0889      2544.1933      2563.9733
     3257.0928      -0.004900       183.8747       175.0222       109.9042        12.3895       0.335600         3.2896         3.1575         2.4506         3.0844      2544.2985      2564.0785
     3257.2452      -0.006500       183.6147       175.2744       107.3834        12.3150       0.331000         3.2824         3.0835         2.4466         3.0990      2544.4038      2564.1838
     3257.3976      -0.006600       183.7561       175.2300        98.6483        12.2853       0.326100         3.3328         3.0827         2.4487         3.0790      2544.5091      2564.2891
     3257.5500      -0.005800       184.3271       175.2902       100.2877        12.2704       0.334800         3.3943         3.0962         2.4501         3.0961      2544.6143      2564.3943
     3257.7024      -0.002900       184.6957       175.7014        98.0232        12.3002       0.330700         3.4037         3.0802         2.4556         3.0605      2544.7196      2564.4996
     3257.8548      -0.000100       184.7847       175.2830       102.0869        12.3262       0.323100         3.3691         3.0822         2.4629         3.0542      2544.8249      2564.6049
     3258.0072       0.000300       184.5169       174.7933        94.7950        12.3671       0.326600         3.3372         3.0891         2.4651         3.0656      2544.9302      2564.7102
     3258.1596      -0.001400       184.0122       174.6015        98.2131        12.4192       0.326700         3.2959         3.1071         2.4606         3.0678      2545.0354      2564.8154
     3258.3120      -0.004400       183.8741       174.1750        95.8204        12.3932       0.336500         3.2601         3.0759         2.4501         3.0554      2545.1407      2564.9207
     3258.4644      -0.001700       183.9999       174.0816        99.8588        12.3709       0.334000         3.2289         3.0363         2.4465         3.0389      2545.2460      2565.0260
