~Version Information Block
VERS .                 2.00:  CWLS LOG ASCII STANDARD - VERSION 2.00
WRAP .                   NO:  One line per depth step
~Well Information Block
#MNEM.UNIT        Data Type   Information
#---------- ----------------  -----------
STRT .M              0.0000:  START DEPTH
STOP .M           2748.9912:  STOP DEPTH
STEP .M              0.1524:  STEP
NULL .              -999.25:  NULL VALUE
COMP .                     :  COMPANY
WELL .               GABO13:  LOCATION
FLD  .                     :  FIELD
LOC  .   6.617986, 5.233868:  LOCATION
CTRY .                     :  COUNTRY
STAT .                     :  STATE
CNTY .                     :  COUNTY
API  .                     :  API NUMBER
UWI  .                     :  UNIQUE WELL ID
SRVC .                     :  SERVICE COMPANY
DATE .                     :  LOG DATE
~Curve Information Block
#MNEM.UNIT         API CODE   Curve Description
#---------- ----------------  -----------------
DEPTH.M                    :  Depth
BS_COMP.INCHES             :  Bit Size
CALI_COMP.INCHES          0:  Caliper
DRHO_COMP.G/C3             :  Density Correction Log
DT_COMP.US/F              0:  Compressional Sonic
ECART_COMP.                :  Neutron Density Seperation
GR_COMP.GAPI              0:  Gamma Ray
NPHI_COMP.V/V              :  Neutron Porosity
PEF_COMP.B/E              0:  Photo Electric Factor
RHOB_COMP.G/C3            0:  Bulk Density
RDeep_COMP.OHMM           0:  Deep Resistivity
RShal_COMP.OHMM           0:  Shallow Resistivity
SP_COMP.MV                0:  Spontaneous Potential
TVDSS_COMP.M               :  Reference TVD sub-sea log.
TVD_COMP.M                 :  Reference TVD log.
~Parameter Information Block
#MNEM.UNIT            Value   Description
#---------- ----------------  -----------
SET  .                  LCS:  
~Other Information Block
#        DEPTH        BS_COMP      CALI_COMP      DRHO_COMP        DT_COMP     ECART_COMP        GR_COMP      NPHI_COMP       PEF_COMP      RHOB_COMP      RDeep_COMP     RShal_COMP        SP_COMP     TVDSS_COMP       TVD_COMP 
~A
# ...
     2191.5120        12.2500        12.4140       0.000064       106.5273        -1.7096        47.5590       0.296569         1.7743         2.1202         3.7683         3.9624       -10.5938      2177.4249      2191.2249
     2191.6644        12.2500        12.4202      -0.003466       106.0357        -1.4570        50.1586       0.302977         1.8190         2.1222         3.7795         3.9852       -10.6846      2177.5773      2191.3773
     2191.8168        12.2500        12.4471      -0.005962       105.5947        -1.1356        52.2049       0.311594         1.8519         2.1239         3.8015         4.0057       -10.8056      2177.7296      2191.5296
     2191.9692        12.2500        12.5020      -0.004180       105.4911        -0.9551        52.4267       0.317494         1.8455         2.1231         3.8356         4.0389       -10.8938      2177.8820      2191.6820
     2192.1216        12.2500        12.5127       0.000388       105.8582        -0.7459        53.2119       0.324999         1.8149         2.1210         3.8813         4.0649       -10.8886      2178.0344      2191.8344
     2192.2740        12.2500        12.5170       0.004541       106.3789        -0.3099        58.6133       0.338430         1.8071         2.1204         3.9367         4.0697       -10.9559      2178.1868      2191.9868
     2192.4264        12.2500        12.5240       0.007248       106.6536         0.4675        68.3407       0.360939         1.8327         2.1218         3.9932         4.0474       -11.1854      2178.3392      2192.1392
     2192.5788        12.2500        12.5214       0.008254       106.5079         1.2404        79.7960       0.382037         1.8710         2.1253         4.0411         3.9994       -11.4801      2178.4915      2192.2915
     2192.7312        12.2500        12.5131       0.007223       106.0889         1.2045        84.7763       0.376553         1.9090         2.1327         4.0753         3.9419       -11.6901      2178.6439      2192.4439
     2192.8836        12.2500        12.5517       0.007480       105.7093         0.7563        83.0426       0.357034         1.9682         2.1428         4.0977         3.8905       -11.8387      2178.7963      2192.5963
     2193.0360        12.2500        12.5961       0.014693       105.2688         0.8220        80.7159       0.354146         2.0447         2.1508         4.1182         3.8524       -11.9118      2178.9487      2192.7487
     2193.1884        12.2500        12.6155       0.028874       105.0377         1.2336        81.7252       0.365052         2.1059         2.1533         4.1523         3.7985       -11.8679      2179.1011      2192.9011
     2193.3408        12.2500        12.6319       0.041414       105.6276         1.0741        88.5733       0.361589         2.1365         2.1511         4.2150         3.6791       -11.7951      2179.2534      2193.0534
     2193.4932        12.2500        12.6624       0.043612       106.1790         0.9008        99.4248       0.354473         2.1959         2.1543         4.2965         3.5392       -11.8555      2179.4058      2193.2058
     2193.6456        12.2500        12.6833       0.036577       105.8523         1.3204       112.6312       0.353914         2.3236         2.1762         4.3785         3.4732       -11.8873      2179.5582      2193.3582
     2193.7980        12.2500        12.6838       0.026088       104.7838         2.3084       124.4877       0.360283         2.5124         2.2149         4.4483         3.5439       -11.7402      2179.7106      2193.5106
     2193.9504        12.2500        12.6697       0.017977       103.5449         3.4774       127.6270       0.372768         2.7586         2.2526         4.4979         3.7203       -11.4857      2179.8630      2193.6630
     2194.1028        12.2500        12.6349       0.015163       102.7056         4.0436       123.1397       0.377358         3.0611         2.2733         4.5270         3.8143       -11.2490      2180.0153      2193.8153
     2194.2552        12.2500        12.5827       0.015912       102.9993         3.8207       123.2887       0.366856         3.2952         2.2796         4.5332         3.7606       -11.0372      2180.1677      2193.9677
     2194.4076        12.2500        12.5339       0.021334       103.9586         3.5792       128.7544       0.357927         3.3734         2.2824         4.5158         3.6262       -10.8753      2180.3201      2194.1201
     2194.5600        12.2500        12.5157       0.035739       104.4837         4.1671       133.4765       0.368994         3.3412         2.2933         4.4822         3.5227       -10.8306      2180.4725      2194.2725
     2194.7124        12.2500        12.5462       0.057323       104.4409         5.1787       135.3792       0.384642         3.3331         2.3179         4.4523         3.5523       -10.8792      2180.6249      2194.4249
     2194.8648        12.2500        12.5853       0.071959       103.7963         5.4520       139.2219       0.382026         3.3446         2.3359         4.4435         3.6369       -10.9014      2180.7772      2194.5772
     2195.0172        12.2500        12.6127       0.071571       103.1422         4.6261       145.9958       0.361303         3.3232         2.3292         4.4566         3.6793       -10.8467      2180.9296      2194.7296
     2195.1696        12.2500        12.6280       0.058244       103.3733         3.2272       154.3658       0.338107         3.2639         2.2979         4.4864         3.6640       -10.8606      2181.0820      2194.8820
     2195.3220        12.2500        12.6734       0.042093       104.4288         2.1054       160.0669       0.327084         3.1987         2.2601         4.5277         3.6616       -11.1994      2181.2344      2195.0344
     2195.4744        12.2500        12.6937       0.035455       105.1421         1.2500       164.2794       0.319373         3.1443         2.2302         4.5576         3.7673       -11.6107      2181.3867      2195.1867
     2195.6268        12.2500        12.6952       0.036798       105.0867         0.5460       169.8306       0.306236         3.0949         2.2169         4.5611         3.9490       -11.8371      2181.5391      2195.3391
     2195.7792        12.2500        12.7051       0.035562       104.2559         0.3853       177.5677       0.298420         3.0437         2.2219         4.5342         4.1034       -11.9122      2181.6915      2195.4915
     2195.9316        12.2500        12.7293       0.024142       102.7315         1.2928       184.1048       0.319826         2.9994         2.2316         4.4787         4.1356       -11.9755      2181.8439      2195.6439
     2196.0840        12.2500        12.6622       0.010022       101.8242         2.5429       187.9670       0.361192         2.9763         2.2251         4.4099         4.0265       -11.9673      2181.9963      2195.7963
     2196.2364        12.2500        12.5432       0.000324       101.9590         2.8686       191.4272       0.387379         2.9477         2.1978         4.3317         3.8603       -11.8739      2182.1486      2195.9486
     2196.3888        12.2500        12.4401      -0.003661       102.9445         2.1027       195.6127       0.385365         2.8831         2.1629         4.2458         3.7290       -11.8090      2182.3010      2196.1010
     2196.5412        12.2500        12.4140      -0.001352       104.6434         1.3576       199.4926       0.375225         2.8114         2.1425         4.1675         3.6830       -11.8104      2182.4534      2196.2534
     2196.6936        12.2500        12.4341       0.007722       106.1251         1.2996       196.6313       0.373185         2.8359         2.1430         4.1102         3.7222       -11.6511      2182.6058      2196.4058
     2196.8460        12.2500        12.4829       0.018008       106.5446         1.2008       190.5959       0.364406         2.9577         2.1527         4.0629         3.8492       -11.4075      2182.7582      2196.5582
