~Version Information Block
VERS .                 2.00:  CWLS LOG ASCII STANDARD - VERSION 2.00
WRAP .                   NO:  One line per depth step
~Well Information Block
#MNEM.UNIT        Data Type   Information
#---------- ----------------  -----------
STRT .M              0.0000:  START DEPTH
STOP .M           2950.4637:  STOP DEPTH
STEP .M              0.1524:  STEP
NULL .              -999.25:  NULL VALUE
COMP .                     :  COMPANY
WELL .               GABO15:  WELL
FLD  .                     :  FIELD
LOC  .   6.656416, 5.257802:  LOCATION
CTRY .                     :  COUNTRY
STAT .                     :  STATE
CNTY .                     :  COUNTY
API  .                     :  API NUMBER
UWI  .                     :  UNIQUE WELL ID
SRVC .                     :  SERVICE COMPANY
DATE .                     :  LOG DATE
~Curve Information Block
#MNEM.UNIT         API CODE   Curve Description
#---------- ----------------  -----------------
DEPTH.M                    :  Reference Depth.
BS_COMP.INCHES             :  Bit Size
CALI_COMP.INCHES          0:  Caliper
DRHO_COMP.G/C3            0:  Density Correction
DT_COMP.US/F              0:  Compressional Sonic
ECART_COMP.                :  Neutron Density Seperation
GR_COMP.GAPI               :  Gamma Ray
NPHI_COMP.V/V             0:  Neutron Porosity
PEF_COMP.B/E              0:  Photo Electric Factor
RHOB_COMP.G/C3            0:  Bulk Density
RT_COMP.OHMM              0:  True or Deep Resistivity
RXO_COMP.OHMM             0:  Invaded Zone Resistivity
SP_COMP.MV                 :  Values changed using TEXT_EDIT
TVDSS_COMP.M               :  Reference TVD sub-sea log.
TVD_COMP.M                 :  Reference TVD log.
~Parameter Information Block
#MNEM.UNIT            Value   Description
#---------- ----------------  -----------
SET  .                  LCS:  
MFST .DEGF               80:  Mud filtrate sample temperature
RMFS .OHMM              1.9:  Resistivity of Filtrate sample
SP_SH.MV                  0:  Shale baseline value for SP
~Other Information Block
COMMENT:
$$MUX      Data from LAS tape
$$MUX      fevsbd 09/10/97 ng95603  ASCII:      GABO15.fod
$$MUX
$$MUX
#        DEPTH        BS_COMP      CALI_COMP      DRHO_COMP        DT_COMP     ECART_COMP        GR_COMP      NPHI_COMP       PEF_COMP      RHOB_COMP        RT_COMP       RXO_COMP        SP_COMP     TVDSS_COMP       TVD_COMP 
~A
# ...
     2493.7210         9.8750        11.9162    -999.250000       103.0307         8.3805       108.2097       0.417015         3.5142         2.4240         2.7991         2.0223       -77.4888      2297.2004      2317.2004
     2493.8734         9.8750        11.9841    -999.250000       102.8751         8.5807       110.8780       0.423010         3.5921         2.4240         2.8253         2.0257       -76.5150      2297.3358      2317.3358
     2494.0258         9.8750        12.0431    -999.250000       102.5313         8.8740       112.0611       0.427012         3.6367         2.4320         2.8846         1.9637       -76.5796      2297.4713      2317.4713
     2494.1782         9.8750        12.0740       0.002015       102.2502         9.1605       111.2896       0.432022         3.5084         2.4380         2.9732         1.9550       -76.2350      2297.6068      2317.6068
     2494.3306         9.8750        12.0629       0.008002       102.9374         9.3797       108.3379       0.441010         3.2645         2.4340         2.9923         2.0401       -76.1703      2297.7422      2317.7422
     2494.4830         9.8750        12.0100       0.008997       104.5616         9.2524       105.9063       0.444992         3.0789         2.4210         2.8875         2.2219       -76.4699      2297.8777      2317.8777
     2494.6354         9.8750        12.0060       0.008000       105.2804         8.8717       106.0237       0.441965         3.0422         2.4070         2.7333         2.2590       -76.3254      2298.0131      2318.0131
     2494.7878         9.8750        12.0230       0.008000       104.7814         8.2248       109.0872       0.427947         3.1101         2.3980         2.6366         2.1193       -76.8299      2298.1486      2318.1486
     2494.9402         9.8750        12.0370       0.008000       104.2195         7.4654       112.7663       0.406965         3.1681         2.3950         2.6212         1.9708       -76.5753      2298.2841      2318.2841
     2495.0926         9.8750        12.0179       0.007997       103.0010         6.9801       112.8674       0.393005         3.1922         2.3940         2.6525         1.9656       -77.0342      2298.4195      2318.4195
     2495.2450         9.8750        11.9710       0.007000       102.0008         7.0279       109.8556       0.395035         3.2613         2.3930         2.7004         2.0839       -76.2843      2298.5550      2318.5550
     2495.3974         9.8750        11.9861       0.007000       102.9682         7.5141       108.5213       0.409012         3.3832         2.3940         2.7285         2.0727       -75.5499      2298.6905      2318.6905
     2495.5498         9.8750        12.0180       0.007015       103.4995         7.8197       110.6277       0.413967         3.4820         2.4010         2.7584         2.0166       -75.1205      2298.8259      2318.8259
     2495.7022         9.8750        12.0060       0.013017       102.8755         7.6865       111.6955       0.400967         3.4940         2.4160         2.7755         1.9981       -75.9549      2298.9614      2318.9614
     2495.8546         9.8750        11.9920       0.020005       101.9388         7.6136       108.6930       0.387987         3.4903         2.4340         2.8392         2.0295       -75.6703      2299.0968      2319.0968
     2496.0070         9.8750        12.0060       0.021992       100.8449         7.7271       104.6980       0.383005         3.6165         2.4480         2.8792         2.0654       -76.0451      2299.2323      2319.2323
     2496.1594         9.8750        12.0180       0.018985       100.5632         7.9142       102.7005       0.385023         3.8092         2.4540         2.8713         1.9037       -76.3300      2299.3678      2319.3678
     2496.3118         9.8750        12.0059       0.012987       100.7498         8.2746       101.7002       0.394038         3.8888         2.4570         2.8890         1.9270       -76.0756      2299.5032      2319.5032
     2496.4642         9.8750        11.9788       0.007987       101.0308         8.7952       100.5956       0.409073         3.7967         2.4580         2.8709         1.9930       -76.7903      2299.6387      2319.6387
     2496.6166         9.8750        11.9037       0.002995       101.7803         9.5614       101.2575       0.438060         3.6593         2.4480         2.7544         1.9195       -77.8948      2299.7742      2319.7742
     2496.7690         9.8750        11.8009       0.001015       100.9697        10.1213       104.2390       0.462010         3.7652         2.4360         2.6194         2.0728       -77.1549      2299.9096      2319.9096
     2496.9214         9.8750        11.7599       0.007018        98.0025        10.6353       106.2127       0.465962         4.2538         2.4552         2.4329         2.1582       -77.3150      2300.0451      2320.0451
     2497.0738         9.8750        11.7287       0.014000        94.1283        11.4143       103.7008       0.450905         4.9521         2.5192         2.4149         1.9501       -76.9200      2300.1805      2320.1805
     2497.2262         9.8750        11.6107       0.013990        87.7864        11.8038        96.4191       0.412832         5.3799         2.6021         2.7844         1.8246       -77.2052      2300.3160      2320.3160
     2497.3786         9.8750        11.4918       0.009987        81.0687        10.6467        88.8977       0.345782         5.3329         2.6560         3.7047         2.0340       -76.9801      2300.4515      2320.4515
     2497.5310         9.8750        11.4238       0.005003        78.7520         8.0068        85.5989       0.258810         5.3088         2.6690         5.9244         3.9763       -77.7501      2300.5869      2320.5869
     2497.6834         9.8750        11.3498       0.006015        81.5606         5.3958        87.5589       0.182915         5.2377         2.6649        10.6670        10.5738       -77.7800      2300.7224      2320.7224
     2497.8358         9.8750        11.2809       0.012075        87.7757         3.7041        92.2895       0.149022         4.7064         2.6368        17.3139        17.0472       -78.0001      2300.8578      2320.8578
     2497.9882         9.8750        11.2580       0.042170        92.7458         2.6875        95.6943       0.158113         4.0708         2.5709        21.3252        24.3810       -78.0449      2300.9933      2320.9933
     2498.1406         9.8750        11.2773       0.110170        90.6268         3.0315        98.1966       0.203163         3.5922         2.5130        16.8902        26.7689       -78.3297      2301.1288      2321.1288
     2498.2930         9.8750        11.3965       0.178012        84.9429         4.9584       101.6183       0.268145         3.2897         2.5010        10.6808        19.1328       -77.8352      2301.2642      2321.2642
     2498.4454         9.8750        11.6074       0.182835        82.8458         6.9687       105.3222       0.326093         3.1639         2.5049         6.8287         8.0775       -76.6249      2301.3997      2321.3997
     2498.5978         9.8750        11.7521       0.116817        87.0904         7.7795       108.9933       0.363043         3.1331         2.4839         4.7538         4.1452       -76.5652      2301.5352      2321.5352
     2498.7502         9.8750        11.7850       0.043912        95.2430         7.5657       112.6959       0.380010         3.1883         2.4449         4.0479         3.0747       -76.1551      2301.6706      2321.6706
     2498.9026         9.8750        11.7930       0.008980        99.5593         7.1796       115.8617       0.384000         3.2953         2.4190         3.9033         2.5504       -76.4349      2301.8061      2321.8061
     2499.0550         9.8750        11.7990    -999.250000        99.6249         7.0200       116.9318       0.383997         3.4341         2.4110         3.9250         2.3491       -76.9049      2301.9415      2321.9415
