~Version Information Block
VERS .                 2.00:  CWLS LOG ASCII STANDARD - VERSION 2.00
WRAP .                   NO:  One line per depth step
~Well Information Block
#MNEM.UNIT        Data Type   Information
#---------- ----------------  -----------
STRT .M           1550.0604:  START DEPTH
STOP .M           3909.9744:  STOP DEPTH
STEP .M              0.1524:  STEP
NULL .              -999.25:  NULL VALUE
COMP .                     :  COMPANY
WELL .               GABO52:  WELL
FLD  .                     :  FIELD
LOC  .   6.643655, 5.227736:  LOCATION
CTRY .                     :  COUNTRY
STAT .                     :  STATE
CNTY .                     :  COUNTY
API  .                     :  API NUMBER
UWI  .                     :  UNIQUE WELL ID
SRVC .                     :  SERVICE COMPANY
DATE .                     :  LOG DATE
~Curve Information Block
#MNEM.UNIT         API CODE   Curve Description
#---------- ----------------  -----------------
DEPTH.M                    :  Depth
DRHO .G/C3                 :  Density Correction Log
DTS_COMP.US/F              :  Shear Sonic 
DT_COMP.US/F               :  Compressional Sonic
GR_COMP.GAPI               :  Gamma Ray
HCAL .INCHES               :  Caliper
NPHI_COMP.V/V              :  Neutron Porosity
PEF_COMP.B/E               :  Photo Electric Factor
RDEEP_COMP.OHMM            :  Deep Resistivity
RHOB_COMP.G/C3             :  Bulk Density
RSHAL_COMP.OHMM            :  Shallow Resistivity
TVD  .M                    :  Reference TVD
TVDSS.M                    :  Reference TVDss
~Parameter Information Block
#MNEM.UNIT            Value   Description
#---------- ----------------  -----------
SET  .                  LCS:  
~Other Information Block
#        DEPTH           DRHO       DTS_COMP        DT_COMP        GR_COMP           HCAL      NPHI_COMP       PEF_COMP     RDEEP_COMP      RHOB_COMP     RSHAL_COMP            TVD          TVDSS 
~A
# ...
     3583.2288       0.022718       148.3330        81.6712       116.2758         8.4788       0.272076         3.0810         5.0265         2.4861         6.6453      3122.8252      3102.7051
     3583.3812       0.023118       147.2839        82.2331       117.6343         8.5237       0.281097         3.0897         5.0957         2.4696         6.6701      3122.9373      3102.8171
     3583.5336       0.018168       149.3572        83.2619       119.2395         8.5013       0.284972         3.0685         4.9776         2.4377         6.6017      3123.0493      3102.9292
     3583.6860       0.015459       151.7501        84.5420       122.0695         8.4900       0.275666         3.0475         4.8905         2.4156         6.4910      3123.1614      3103.0413
     3583.8384       0.009497       152.3662        85.6541       125.7069         8.5013       0.267742         2.9906         4.8052         2.3965         6.3719      3123.2734      3103.1533
     3583.9908       0.008501       152.2222        84.8476       131.6335         8.4564       0.265068         2.9787         4.7101         2.4054         6.2094      3123.3855      3103.2654
     3584.1432       0.013578       152.8771        84.6075       136.2840         8.4900       0.270517         3.0146         4.5681         2.4328         5.9844      3123.4976      3103.3774
     3584.2956       0.012970       151.7303        84.2261       137.4295         8.5462       0.278822         3.0954         4.4439         2.4339         5.9808      3123.6096      3103.4895
     3584.4480       0.007764       152.9408        84.2772       136.4208         8.5013       0.263947         3.0884         4.5108         2.4105         6.1602      3123.7217      3103.6016
     3584.6004       0.000540       150.1870        83.2739       141.4941         8.5013       0.239931         3.0781         4.5112         2.3805         6.2249      3123.8337      3103.7136
     3584.7528       0.007846       148.0614        84.2894       148.4470         8.4676       0.226668         3.0376         4.5055         2.3995         6.3090      3123.9458      3103.8257
     3584.9052       0.014058       147.0667        84.5604       146.9264         8.4564       0.225243         3.0220         4.5151         2.4223         6.3630      3124.0579      3103.9377
     3585.0576       0.018865       147.1036        83.1942       135.2770         8.4788       0.228107         2.9671         4.5717         2.4401         6.4589      3124.1699      3104.0498
     3585.2100       0.019083       146.0933        82.9556       127.5715         8.4339       0.242045         2.9015         4.5837         2.4451         6.4179      3124.2822      3104.1621
     3585.3624       0.016876       144.9987        82.2607       123.5616         8.4564       0.239556         2.8430         4.4710         2.4370         5.9131      3124.3943      3104.2742
     3585.5148       0.012190       147.3408        82.9158       123.3450         8.4564       0.235154         2.7787         4.4688         2.4111         5.5641      3124.5063      3104.3862
     3585.6672       0.007911       148.5809        84.4208       119.2977         8.4339       0.246862         2.7274         4.3880         2.3844         5.3529      3124.6184      3104.4983
     3585.8196       0.003198       150.4007        85.6200       117.8601         8.4339       0.316849         2.6468         4.5634         2.3553         5.0212      3124.7305      3104.6104
     3585.9720       0.002278       151.9514        86.1772       107.8117         8.4339       0.339715         2.5233         4.4063         2.3277         4.9639      3124.8425      3104.7224
     3586.1244       0.000199       154.4857        88.5585        89.1705         8.4339       0.317599         2.2310         4.1058         2.2766         4.6498      3124.9546      3104.8345
     3586.2768      -0.001933       156.6613        90.1888        69.1476         8.4339       0.245425         1.8929         3.7993         2.2163         4.2581      3125.0667      3104.9465
     3586.4292      -0.001358       158.1734        91.1450        54.0966         8.4452       0.208083         1.5890         3.5091         2.1880         3.7312      3125.1787      3105.0586
     3586.5816      -0.000235       158.2372        90.9176        44.7582         8.5013       0.203548         1.4809         3.0759         2.1815         3.3303      3125.2908      3105.1707
     3586.7340       0.001565       156.8110        90.6468        43.4258         8.5237       0.205162         1.4820         2.9519         2.1935         3.2137      3125.4028      3105.2827
     3586.8864       0.001587       154.2100        87.8902        55.3036         8.5013       0.204348         1.5655         2.9564         2.2037         3.2560      3125.5149      3105.3948
     3587.0388       0.000972       150.4619        87.6941        76.4686         8.4788       0.183221         1.6975         3.0191         2.2227         3.5424      3125.6270      3105.5068
     3587.1912       0.000743       146.6577        85.5543        98.9001         8.4788       0.172406         1.8637         3.3342         2.2515         4.2279      3125.7390      3105.6189
     3587.3436       0.001313       145.4684        84.8580       103.8621         8.4339       0.183635         2.0522         3.7506         2.2774         5.2920      3125.8511      3105.7310
     3587.4960       0.003418       145.2385        84.3665        94.5421         8.3890       0.204339         2.1443         3.9094         2.2935         6.0158      3125.9631      3105.8430
     3587.6484       0.003683       144.6812        84.5165        74.6515         8.3890       0.218527         2.1509         3.8787         2.2752         5.9055      3126.0752      3105.9551
     3587.8008       0.003715       146.1486        85.4662        63.2510         8.3554       0.221416         2.0366         3.7274         2.2401         5.5933      3126.1873      3106.0671
     3587.9532       0.003139       147.1014        86.2331        60.4440         8.3666       0.212733         1.9220         3.5923         2.1983         5.3379      3126.2993      3106.1792
     3588.1056       0.003834       147.1340        86.0993        65.4350         8.3890       0.206043         1.8526         3.5039         2.1834         5.1179      3126.4114      3106.2913
     3588.2580       0.012506       146.8447        86.2340        68.7375         8.4115       0.193636         1.8794         3.4461         2.2271         4.8836      3126.5234      3106.4033
     3588.4104       0.020202       145.8422        84.9915        73.0914         8.4339       0.197976         1.9515         3.4378         2.2951         4.9228      3126.6355      3106.5154
     3588.5628       0.018844       145.2079        83.6148        72.5635         8.4115       0.185813         1.9742         3.5868         2.3377         5.2964      3126.7476      3106.6274
     3588.7152       0.008745       144.2235        82.7325        68.6023         8.4339       0.178733         1.8892         3.7335         2.3334         5.5301      3126.8596      3106.7395
     3588.8676      -0.000170       144.6353        81.9962        58.4037         8.4452       0.163528         1.7762         3.8352         2.3160         5.7921      3126.9717      3106.8516
     3589.0200      -0.000117       145.3671        82.2502        55.4585         8.4452       0.168435         1.7259         3.7725         2.3138         5.5631      3127.0837      3106.9636
     3589.1724       0.002389       146.6038        82.5449        53.1208         8.4788       0.179832         1.7517         3.8319         2.3169         5.2999      3127.1958      3107.0757
     3589.3248       0.005231       146.6089        82.3772        55.0811         8.4788       0.187237         1.7634         4.0697         2.3182         5.6431      3127.3079      3107.1877
     3589.4772       0.008706       146.4370        82.6077        53.8666         8.4676       0.180790         1.7443         4.1390         2.3236         5.7600      3127.4199      3107.2998
