~Version Information Block
VERS .                 2.00:  CWLS LOG ASCII STANDARD - VERSION 2.00
WRAP .                   NO:  One line per depth step
~Well Information Block
#MNEM.UNIT        Data Type   Information
#---------- ----------------  -----------
STRT .M           1550.0604:  START DEPTH
STOP .M           3909.9744:  STOP DEPTH
STEP .M              0.1524:  STEP
NULL .              -999.25:  NULL VALUE
COMP .                     :  COMPANY
WELL .               GABO52:  WELL
FLD  .                     :  FIELD
LOC  .   6.643655, 5.227736:  LOCATION
CTRY .                     :  COUNTRY
STAT .                     :  STATE
CNTY .                     :  COUNTY
API  .                     :  API NUMBER
UWI  .                     :  UNIQUE WELL ID
SRVC .                     :  SERVICE COMPANY
DATE .                     :  LOG DATE
~Curve Information Block
#MNEM.UNIT         API CODE   Curve Description
#---------- ----------------  -----------------
DEPTH.M                    :  Depth
DRHO .G/C3                 :  Density Correction Log
DTS_COMP.US/F              :  Shear Sonic 
DT_COMP.US/F               :  Compressional Sonic
GR_COMP.GAPI               :  Gamma Ray
HCAL .INCHES               :  Caliper
NPHI_COMP.V/V              :  Neutron Porosity
PEF_COMP.B/E               :  Photo Electric Factor
RDEEP_COMP.OHMM            :  Deep Resistivity
RHOB_COMP.G/C3             :  Bulk Density
RSHAL_COMP.OHMM            :  Shallow Resistivity
TVD  .M                    :  Reference TVD
TVDSS.M                    :  Reference TVDss
~Parameter Information Block
#MNEM.UNIT            Value   Description
#---------- ----------------  -----------
SET  .                  LCS:  
~Other Information Block
#        DEPTH           DRHO       DTS_COMP        DT_COMP        GR_COMP           HCAL      NPHI_COMP       PEF_COMP     RDEEP_COMP      RHOB_COMP     RSHAL_COMP            TVD          TVDSS 
~A
# ...
     2834.3352      -0.001433       165.7431        88.3935        42.6614         8.4788       0.185845         1.6326         2.5551         2.3078         2.8939      2566.0247      2545.9045
     2834.4876      -0.000173       165.3334        88.0308        44.6261         8.6023       0.192033         1.5967         2.5863         2.3160         2.9106      2566.1345      2546.0144
     2834.6400       0.008879       166.2813        87.9363        45.2476         8.4788       0.189253         1.6171         2.6233         2.3274         2.9552      2566.2446      2546.1245
     2834.7924       0.008995       166.6232        87.6184        43.8742         8.5686       0.185031         1.6953         2.6646         2.3226         2.9899      2566.3545      2546.2344
     2834.9448       0.007288       167.1657        86.7543        42.9640         8.5911       0.174457         1.7319         2.7011         2.3178         3.0331      2566.4646      2546.3445
     2835.0972      -0.005541       167.8562        87.5057        43.4929         8.6584       0.166129         1.7580         2.7117         2.3069         3.0201      2566.5745      2546.4543
     2835.2496      -0.009782       169.5595        88.4452        43.8129         8.6359       0.163299         1.7549         2.6779         2.3055         2.9736      2566.6846      2546.5645
     2835.4020      -0.001428       168.1322        89.3637        43.1882         8.5237       0.165007         1.7583         2.6597         2.3053         2.9418      2566.7944      2546.6743
     2835.5544       0.001415       167.6678        89.6047        41.3506         8.4452       0.168056         1.7610         2.6476         2.3078         2.8795      2566.9045      2546.7844
     2835.7068       0.004048       167.2159        88.8095        41.1146         8.4227       0.183567         1.7566         2.6174         2.3180         2.8546      2567.0144      2546.8943
     2835.8592      -0.004269       168.6195        88.9040        41.6547         8.4339       0.193620         1.7823         2.6437         2.3232         2.9223      2567.1243      2547.0042
     2836.0116      -0.005895       170.3050        88.3475        42.2407         8.5686       0.205134         1.7820         2.6699         2.3283         2.9576      2567.2341      2547.1140
     2836.1640      -0.005223       170.9714        88.2897        43.1497         8.6808       0.189867         1.7861         2.7386         2.3204         3.0308      2567.3442      2547.2241
     2836.3164       0.000469       169.6659        88.1260        44.0056         8.6808       0.174953         1.7878         2.7616         2.3106         3.0427      2567.4541      2547.3340
     2836.4688       0.003070       170.9230        88.7419        44.7143         8.6359       0.168636         1.8070         2.7176         2.3040         2.9859      2567.5642      2547.4441
     2836.6212       0.002964       171.7970        89.5425        42.9595         8.5911       0.176184         1.8135         2.6693         2.3037         2.9475      2567.6741      2547.5540
     2836.7736       0.000697       171.3557        89.9294        41.7229         8.4564       0.191001         1.8562         2.6248         2.2966         2.9002      2567.7842      2547.6641
     2836.9260      -0.002282       171.7035        90.2358        42.1569         8.4339       0.189895         1.8660         2.6200         2.2915         2.8810      2567.8940      2547.7739
     2837.0784      -0.003917       170.4337        89.9727        43.6309         8.5574       0.191088         1.8622         2.6311         2.2962         2.8955      2568.0042      2547.8840
     2837.2308      -0.009958       169.7784        89.4389        45.5564         8.6359       0.182293         1.8379         2.6466         2.3046         2.8833      2568.1140      2547.9939
     2837.3832      -0.007666       169.8258        88.3912        47.0987         8.7482       0.183267         1.8279         2.6398         2.3153         2.8733      2568.2239      2548.1038
     2837.5356      -0.005713       168.7578        89.2867        47.2334         8.7706       0.179409         1.8651         2.6305         2.3111         2.8608      2568.3337      2548.2136
     2837.6880       0.002973       170.5634        89.6864        45.5932         8.6023       0.188512         1.8631         2.6598         2.3136         2.8479      2568.4438      2548.3237
     2837.8404       0.004706       169.3404        89.9224        44.5153         8.5911       0.186368         1.8523         2.6446         2.3094         2.8401      2568.5537      2548.4336
     2837.9928       0.011858       171.2817        90.6600        45.3572         8.5911       0.193836         1.8077         2.6333         2.3095         2.8089      2568.6638      2548.5437
     2838.1452       0.003736       172.1320        90.3142        46.0784         8.7257       0.183027         1.8203         2.6113         2.2927         2.7738      2568.7737      2548.6536
     2838.2976      -0.000079       173.5745        90.7164        44.1789         8.8379       0.189673         1.8533         2.6114         2.2770         2.7292      2568.8838      2548.7637
     2838.4500      -0.009298       173.6803        91.0286        41.6955         8.8604       0.186289         1.9197         2.5833         2.2610         2.6835      2568.9937      2548.8735
     2838.6024      -0.006643       177.3513        93.3635        40.7721         8.9053       0.216879         1.9393         2.5406         2.2607         2.6529      2569.1035      2548.9834
     2838.7548      -0.004086       178.0725        93.7485        42.0629         8.8379       0.223686         1.8952         2.5582         2.2664         2.6909      2569.2136      2549.0935
     2838.9072      -0.002461       179.2952        93.4030        44.6374         8.8604       0.223714         1.7911         2.6222         2.2772         2.7891      2569.3235      2549.2034
     2839.0596      -0.002825       178.0452        92.6555        46.2086         8.5574       0.211665         1.7085         2.7021         2.2899         2.9253      2569.4333      2549.3132
     2839.2120      -0.006374       177.6068        92.9163        46.4839         8.6584       0.191672         1.7012         2.6488         2.3020         2.9181      2569.5435      2549.4233
     2839.3644      -0.008989       177.2129        92.2780        45.5236         8.7706       0.187211         1.7427         2.5868         2.3192         2.8909      2569.6533      2549.5332
     2839.5168      -0.012348       174.6370        89.3030        45.4999         8.8604       0.171887         1.8401         2.5660         2.3188         2.8874      2569.7634      2549.6433
     2839.6692      -0.006093       171.3837        87.8805        45.3468         8.7482       0.174637         1.9041         2.5435         2.3172         2.8505      2569.8733      2549.7532
     2839.8216      -0.003976       170.7236        88.6969        45.3549         8.7482       0.176092         1.9408         2.5225         2.3014         2.8422      2569.9834      2549.8633
     2839.9740      -0.003380       170.9968        90.0975        46.0811         8.6808       0.171449         1.8754         2.5017         2.2994         2.8209      2570.0933      2549.9731
     2840.1264      -0.008711       170.5681        89.5291        46.2101         8.5911       0.177889         1.7947         2.4868         2.2983         2.7925      2570.2031      2550.0830
     2840.2788      -0.006317       170.8420        89.2820        45.5988         8.6135       0.171714         1.7353         2.4607         2.3023         2.7661      2570.3132      2550.1931
     2840.4312      -0.000900       171.2832        89.0616        42.4396         8.6808       0.185709         1.7417         2.4481         2.2994         2.7393      2570.4231      2550.3030
     2840.5836       0.005680       171.8598        89.0769        41.6786         8.7033       0.193562         1.7801         2.4302         2.2942         2.7007      2570.5330      2550.4128
