~Version Information Block
VERS .                 2.00:  CWLS LOG ASCII STANDARD - VERSION 2.00
WRAP .                   NO:  One line per depth step
~Well Information Block
#MNEM.UNIT        Data Type   Information
#---------- ----------------  -----------
STRT .M              0.0000:  START DEPTH
STOP .M           2757.2208:  STOP DEPTH
STEP .M              0.1524:  STEP
NULL .              -999.25:  NULL VALUE
COMP .                     :  COMPANY
WELL .               GABO14:  WELL
FLD  .                     :  FIELD
LOC  .   6.639036, 5.241653:  LOCATION
CTRY .                     :  COUNTRY
STAT .                     :  STATE
CNTY .                     :  COUNTY
API  .                     :  API NUMBER
UWI  .                     :  UNIQUE WELL ID
SRVC .                     :  SERVICE COMPANY
DATE .                     :  LOG DATE
~Curve Information Block
#MNEM.UNIT         API CODE   Curve Description
#---------- ----------------  -----------------
DEPTH.M                    :  Reference Depth
BS_COMP.INCHES             :  Bit Size
CALI_COMP.INCHES          0:  Caliper
DRHO_COMP.G/C3            0:  Density Correction 
DT_COMP.US/F              0:  Compressional Sonic
ECART_COMP.                :  Neutron Density Seperation
GR_COMP.GAPI              0:  Gamma Ray
NPHI_COMP.V/V             0:  Neutron Porosity
PEF_COMP.B/E              0:  Photo Electric Factor
RHOB_COMP.G/C3            0:  Bulk Density
RT_COMP.OHMM              0:  True or Deep Resistivity
RXO_COMP.OHMM             0:  Invaded Zone Resistivity
SP_COMP.MV                0:  Spontaneous Potential
TVDSS_COMP.M               :  Reference TVD sub-sea log.
TVD_COMP.M                 :  Reference TVD log.
~Parameter Information Block
#MNEM.UNIT            Value   Description
#---------- ----------------  -----------
SET  .                  LCS:  
~Other Information Block
#        DEPTH        BS_COMP      CALI_COMP      DRHO_COMP        DT_COMP     ECART_COMP        GR_COMP      NPHI_COMP       PEF_COMP      RHOB_COMP        RT_COMP       RXO_COMP        SP_COMP     TVDSS_COMP       TVD_COMP 
~A
# ...
     1898.5992        12.2500      -999.2500    -999.250000       124.5356      -999.2500        63.0750    -999.250000      -999.2500      -999.2500        13.5738      -999.2500      -999.2500      1825.9070      1841.9070
     1898.7516        12.2500      -999.2500    -999.250000       125.4704      -999.2500        59.2290    -999.250000      -999.2500      -999.2500        13.1186      -999.2500      -999.2500      1826.0491      1842.0491
     1898.9040        12.2500      -999.2500    -999.250000       125.7455      -999.2500        56.6010    -999.250000      -999.2500      -999.2500        12.6288      -999.2500      -999.2500      1826.1912      1842.1912
     1899.0564        12.2500      -999.2500    -999.250000       124.8378      -999.2500        54.9855    -999.250000      -999.2500      -999.2500        12.1934      -999.2500      -999.2500      1826.3334      1842.3334
     1899.2088        12.2500      -999.2500    -999.250000       123.5730      -999.2500        53.6701    -999.250000      -999.2500      -999.2500        11.8592      -999.2500      -999.2500      1826.4755      1842.4755
     1899.3612        12.2500      -999.2500    -999.250000       122.5581      -999.2500        53.2761    -999.250000      -999.2500      -999.2500        11.4858      -999.2500      -999.2500      1826.6177      1842.6177
     1899.5136        12.2500      -999.2500    -999.250000       121.5606      -999.2500        52.2797    -999.250000      -999.2500      -999.2500        11.0327      -999.2500      -999.2500      1826.7599      1842.7599
     1899.6660        12.2500      -999.2500    -999.250000       121.0798      -999.2500        50.3916    -999.250000      -999.2500      -999.2500        10.5761      -999.2500      -999.2500      1826.9021      1842.9021
     1899.8184        12.2500      -999.2500    -999.250000       121.4386      -999.2500        49.1031    -999.250000      -999.2500      -999.2500        10.1903      -999.2500      -999.2500      1827.0443      1843.0443
     1899.9708        12.2500      -999.2500    -999.250000       121.5612      -999.2500        50.9571    -999.250000      -999.2500      -999.2500        10.0536      -999.2500      -999.2500      1827.1865      1843.1865
     1900.1232        12.2500      -999.2500    -999.250000       121.1870      -999.2500        56.4551    -999.250000      -999.2500      -999.2500        10.1766      -999.2500      -999.2500      1827.3287      1843.3287
     1900.2756        12.2500      -999.2500    -999.250000       120.9826      -999.2500        61.5219    -999.250000      -999.2500      -999.2500        10.2911      -999.2500      -999.2500      1827.4710      1843.4710
     1900.4280        12.2500      -999.2500    -999.250000       120.7015      -999.2500        62.7047    -999.250000      -999.2500      -999.2500        10.3200      -999.2500      -999.2500      1827.6132      1843.6132
     1900.5804        12.2500      -999.2500    -999.250000       120.3899      -999.2500        59.8054    -999.250000      -999.2500      -999.2500        10.3260         4.5980        68.2970      1827.7555      1843.7555
     1900.7328        12.2500      -999.2500    -999.250000       120.1694      -999.2500        55.2227    -999.250000      -999.2500      -999.2500        10.3248         4.5980        68.2987      1827.8978      1843.8978
     1900.8852        12.2500      -999.2500    -999.250000       119.6345      -999.2500        51.3216    -999.250000      -999.2500      -999.2500        10.4806         4.5912        68.6371      1828.0401      1844.0401
     1901.0376        12.2500        15.4410       0.012000       118.3179      -999.2500        50.0493       0.279000      -999.2500         2.2130        10.8146         4.8176        68.9871      1828.1824      1844.1824
     1901.1900        12.2500        15.4401       0.012025       116.2681      -999.2500        52.1554       0.278843         2.1050         2.2130        11.1369         4.9629        69.1569      1828.3247      1844.3247
     1901.3424        12.2500        15.2619       0.017064       113.6438      -999.2500        56.6854       0.246859         2.1048         2.2190        11.5231         4.8942        69.5003      1828.4670      1844.4670
     1901.4948        12.2500        15.1337       0.033115       107.8958      -999.2500        59.3783       0.199073         2.0730         2.2149        11.9568         4.6624        69.9004      1828.6094      1844.6094
     1901.6472        12.2500        15.1881       0.066074        96.2826      -999.2500        56.7889       0.185268         2.0611         2.2001        12.3229         4.9180        69.9676      1828.7517      1844.7517
     1901.7996        12.2500        15.2568       0.100916        83.8732      -999.2500        50.4897       0.231085         2.0785         2.2073        13.3311         5.5676        69.7467      1828.8941      1844.8941
     1901.9520        12.2500        15.4590       0.104831        80.2893      -999.2500        45.1643       0.275700         2.1900         2.2664        15.9988         5.1159        69.6591      1829.0365      1845.0365
     1902.1044        12.2500        15.9794       0.072908        81.9581      -999.2500        43.5973       0.241609         2.4617         2.3874        20.4193         3.6367        70.2087      1829.1789      1845.1789
     1902.2568        12.2500        16.1808       0.035005        79.7407      -999.2500        42.6439       0.141864         2.7616         2.5320        26.1491         4.1410        71.1097      1829.3213      1845.3213
     1902.4092        12.2500        15.6580       0.013036        74.5966      -999.2500        40.2023       0.054099         2.8521         2.6278        31.0125        11.7370        71.3460      1829.4638      1845.4638
     1902.5616        12.2500        14.9216       0.007013        68.8331      -999.2500        38.4525       0.021132         2.7243         2.6497        31.9218        24.7729        71.1708      1829.6062      1845.6062
     1902.7140        12.2500        14.4000       0.006008        63.6019      -999.2500        39.9818       0.028161         2.4953         2.5946        30.2701        32.0973        71.5595      1829.7487      1845.7487
     1902.8664        12.2500        14.0820       0.006997        65.2420      -999.2500        42.5665       0.065210         2.2196         2.4727        29.6788        32.1534        72.0581      1829.8911      1845.8911
     1903.0188        12.2500        13.9053       0.006985        73.1382      -999.2500        41.8487       0.130116         1.9639         2.3389        30.2359        28.9890        72.3669      1830.0336      1846.0336
     1903.1712        12.2500        14.0703    -999.250000        79.0707      -999.2500        38.1279       0.192960         1.7932         2.2461        30.6241        19.5583        72.6470      1830.1761      1846.1761
     1903.3236        12.2500        14.6376    -999.250000        87.1354      -999.2500        34.0628       0.222897         1.7323         2.2081        30.4261         8.9970        72.7281      1830.3186      1846.3186
     1903.4760        12.2500        15.1031    -999.250000        98.7532      -999.2500        30.9832       0.219945         1.7481         2.2040        28.8197         5.3339        73.0218      1830.4611      1846.4611
     1903.6284        12.2500        15.0071    -999.250000       105.6589      -999.2500        29.2047       0.207000         1.7850         2.2080        25.5173         5.5247        73.6794      1830.6037      1846.6037
     1903.7808        12.2500        14.7747    -999.250000       106.2433      -999.2500        29.5605       0.199029         1.8130         2.2100        21.9412         5.8671        74.2182      1830.7462      1846.7462
     1903.9332        12.2500        14.9880    -999.250000       104.8874      -999.2500        31.4852       0.200046         1.8259         2.2039        19.5540         6.2272        74.5897      1830.8888      1846.8888
