~Version Information Block
VERS .                 2.00:  CWLS LOG ASCII STANDARD - VERSION 2.00
WRAP .                   NO:  One line per depth step
~Well Information Block
#MNEM.UNIT        Data Type   Information
#---------- ----------------  -----------
STRT .M            800.1000:  START DEPTH
STOP .M           4245.4068:  STOP DEPTH
STEP .M              0.1524:  STEP
NULL .              -999.25:  NULL VALUE
COMP .                     :  COMPANY
WELL .               GABO51:  WELL
FLD  .                     :  FIELD
LOC  .   6.643728, 5.227344:  LOCATION
CTRY .                     :  COUNTRY
STAT .                     :  STATE
CNTY .                     :  COUNTY
API  .                     :  API NUMBER
UWI  .                     :  UNIQUE WELL ID
SRVC .                     :  SERVICE COMPANY
DATE .                     :  LOG DATE
~Curve Information Block
#MNEM.UNIT         API CODE   Curve Description
#---------- ----------------  -----------------
DEPTH.M                    :  Depth
DRHO_COMP.G/C3             :  Density Correction
DTSM_COMP.US/F             :  Shear Sonic
DT_COMP.US/F               :  Compressional Sonic
GR_COMP.GAPI               :  Gamma Ray
HCAL_COMP.INCHES           :  Caliper
NPHI_COMP.V/V              :  Neutron Porosity
PEF_COMP.B/E               :  Pho Electric Factor
RDEEP_COMP.OHMM            :  Deep Resistivity
RHOB_COMP.G/C3             :  Bulk Density
RSHAL_COMP.OHMM            :  Shallow Resistivity
TVDSS_COMP.M               :  Reference TVD sub-sea log.
TVD_COMP.M                 :  Reference TVD log.
~Parameter Information Block
#MNEM.UNIT            Value   Description
#---------- ----------------  -----------
SET  .                  LCS:  
~Other Information Block
#        DEPTH      DRHO_COMP      DTSM_COMP        DT_COMP        GR_COMP      HCAL_COMP      NPHI_COMP       PEF_COMP     RDEEP_COMP      RHOB_COMP     RSHAL_COMP     TVDSS_COMP       TVD_COMP 
~A
# ...
     2522.5248      -0.013400       240.9640       233.6389        40.5676        12.4416       0.330500         1.8750         4.1748         2.1189         5.0444      2030.8267      2050.6067
     2522.6772      -0.018500       239.6916       233.7594        39.0865        12.3597       0.325100         1.8473         8.1074         2.1100         7.4260      2030.9305      2050.7105
     2522.8296      -0.025400       235.9078       218.7771        39.0548        12.3597       0.304100         1.8693         8.5771         2.1202         7.8279      2031.0343      2050.8143
     2522.9820      -0.029500       231.1612       212.7225        38.4788        12.4267       0.290800         1.9071         8.7102         2.1369         8.3240      2031.1382      2050.9182
     2523.1344      -0.029300       225.2157       202.8182        39.2384        12.4341       0.294500         1.9592         8.4885         2.1507         7.2805      2031.2420      2051.0220
     2523.2868      -0.017700       218.1815       198.7951        42.6881        12.5383       0.288100         2.0316         8.5406         2.1750         7.0874      2031.3458      2051.1258
     2523.4392      -0.012600       211.2348       199.0205        44.7706        12.5607       0.281400         2.0870         8.4622         2.1974         6.6946      2031.4496      2051.2296
     2523.5916      -0.006000       205.1900       199.5908        46.7455        12.4267       0.281200         2.1262         7.8548         2.2162         6.8212      2031.5534      2051.3334
     2523.7440      -0.002900       200.3143       200.2684        51.0751        12.4267       0.274100         2.1334         7.6294         2.2290         6.5567      2031.6572      2051.4372
     2523.8964       0.002800       196.5191       198.5723        54.3476        12.4639       0.266100         2.1242         7.1983         2.2303         6.6921      2031.7610      2051.5410
     2524.0488       0.001800       194.6437       195.8939        56.7846        12.3597       0.261400         2.0678         6.8724         2.2175         6.4254      2031.8648      2051.6448
     2524.2012      -0.002000       196.3406       196.4939        54.1704        12.3746       0.269500         1.9878         8.1109         2.1952         7.3612      2031.9686      2051.7486
     2524.3536      -0.006200       201.6283       197.7279        53.2589        12.3150       0.277800         1.9193        13.3306         2.1723         9.1261      2032.0724      2051.8524
     2524.5060      -0.004700       207.7734       198.1022        50.9992        12.4788       0.288500         1.8991        11.2258         2.1592         7.2518      2032.1762      2051.9562
     2524.6584      -0.005200       212.0262       197.9556        50.1953        12.5718       0.283800         1.9465         7.9808         2.1686         6.7100      2032.2799      2052.0599
     2524.8108      -0.007600       213.9272       197.6414        49.6636        12.3299       0.264800         2.0488         8.9448         2.2034         5.9491      2032.3837      2052.1637
     2524.9632      -0.015000       214.9627       199.0524        49.9421        12.3150       0.257100         2.1748         7.1989         2.2406         5.6565      2032.4875      2052.2675
     2525.1156      -0.014700       216.6142       199.1915        48.4862        12.3374       0.261600         2.2347         7.9220         2.2554         6.1728      2032.5913      2052.3713
     2525.2680      -0.012400       219.6693       201.7155        45.5808        12.3262       0.267300         2.1857         8.2715         2.2328         6.3955      2032.6951      2052.4751
     2525.4204      -0.005400       223.1358       205.1151        43.9857        12.4192       0.266100         2.0576         9.0005         2.2056         6.9355      2032.7989      2052.5789
     2525.5728      -0.002900       225.0768       206.1478        43.0489        12.5607       0.263600         1.9536         7.9192         2.1808         6.5177      2032.9027      2052.6827
     2525.7252      -0.002800       225.3855       208.8941        45.5745        12.4937       0.278100         1.9202         6.8373         2.1738         6.1614      2033.0065      2052.7865
     2525.8776      -0.003200       225.4261       212.0644        45.4922        12.4490       0.277500         1.9374         6.9905         2.1665         6.7496      2033.1102      2052.8902
     2526.0300      -0.008200       225.9309       215.1588        43.4160        12.2927       0.298200         1.9341         7.1582         2.1503         6.8952      2033.2140      2052.9940
     2526.1824      -0.013100       226.7563       216.9330        41.8209        12.3225       0.321900         1.8785         7.0927         2.1281         7.0629      2033.3178      2053.0978
     2526.3348      -0.019400       227.6086       219.4267        38.5927        12.4044       0.336500         1.7906         7.2560         2.1054         7.0815      2033.4216      2053.2016
     2526.4872      -0.022900       228.5525       219.5705        40.4410        12.4379       0.321300         1.7063         7.4216         2.0893         6.9396      2033.5254      2053.3054
     2526.6396      -0.023400       230.3329       220.2413        39.5106        12.5160       0.312100         1.6686         7.2745         2.0757         7.2626      2033.6291      2053.4091
     2526.7920      -0.019500       232.5295       221.1486        40.3144        12.5718       0.322600         1.6921         6.9223         2.0693         6.9631      2033.7329      2053.5129
     2526.9444      -0.012100       234.5178       224.0298        39.0042        12.3969       0.327700         1.7282         5.9028         2.0717         6.1029      2033.8367      2053.6167
     2527.0968      -0.007900       236.7016       224.8148        36.1747        12.3225       0.329300         1.7382         6.3870         2.0772         6.8097      2033.9404      2053.7204
     2527.2492      -0.007000       239.0763       225.6601        36.5166        12.3299       0.320000         1.6945         6.5967         2.0791         6.3383      2034.0442      2053.8242
     2527.4016      -0.006600       240.5934       225.8546        36.9470        12.3671       0.321300         1.6538         6.7025         2.0800         6.3689      2034.1480      2053.9280
     2527.5540      -0.005100       240.6978       226.6412        38.8079        12.4044       0.323600         1.6237         6.3607         2.0857         6.1940      2034.2518      2054.0318
     2527.7064      -0.005800       240.6167       226.8074        42.1121        12.3746       0.320100         1.6052         6.2729         2.0937         6.2640      2034.3555      2054.1355
     2527.8588      -0.007100       242.0203       226.2266        41.2829        12.3485       0.322200         1.5948         6.3191         2.0946         6.3019      2034.4593      2054.2393
     2528.0112      -0.005400       243.9461       225.6840        40.4221        12.3597       0.329600         1.6042         6.5648         2.0854         6.4268      2034.5630      2054.3430
     2528.1636      -0.004000       243.3685       225.4953        35.6367        12.3002       0.325700         1.6061         6.7806         2.0697         6.7556      2034.6668      2054.4468
     2528.3160      -0.005000       241.0616       224.8297        36.1431        12.3597       0.325900         1.5991         6.4614         2.0654         6.3850      2034.7706      2054.5506
     2528.4684      -0.011400       238.6830       224.8707        37.4344        12.4192       0.338300         1.5570         6.4189         2.0795         6.6453      2034.8743      2054.6543
     2528.6208      -0.016300       235.5425       228.2899        36.5229        12.4788       0.339700         1.5321         6.4750         2.1037         6.5840      2034.9781      2054.7581
     2528.7732      -0.015500       232.8110       225.7070        33.5099        12.5048       0.320100         1.5437         6.7743         2.1197         7.0286      2035.0818      2054.8618
