~Version Information Block
VERS .                 2.00:  CWLS LOG ASCII STANDARD - VERSION 2.00
WRAP .                   NO:  One line per depth step
~Well Information Block
#MNEM.UNIT        Data Type   Information
#---------- ----------------  -----------
STRT .M              0.0000:  START DEPTH
STOP .M           2757.2208:  STOP DEPTH
STEP .M              0.1524:  STEP
NULL .              -999.25:  NULL VALUE
COMP .                     :  COMPANY
WELL .               GABO14:  WELL
FLD  .                     :  FIELD
LOC  .   6.639036, 5.241653:  LOCATION
CTRY .                     :  COUNTRY
STAT .                     :  STATE
CNTY .                     :  COUNTY
API  .                     :  API NUMBER
UWI  .                     :  UNIQUE WELL ID
SRVC .                     :  SERVICE COMPANY
DATE .                     :  LOG DATE
~Curve Information Block
#MNEM.UNIT         API CODE   Curve Description
#---------- ----------------  -----------------
DEPTH.M                    :  Reference Depth
BS_COMP.INCHES             :  Bit Size
CALI_COMP.INCHES          0:  Caliper
DRHO_COMP.G/C3            0:  Density Correction 
DT_COMP.US/F              0:  Compressional Sonic
ECART_COMP.                :  Neutron Density Seperation
GR_COMP.GAPI              0:  Gamma Ray
NPHI_COMP.V/V             0:  Neutron Porosity
PEF_COMP.B/E              0:  Photo Electric Factor
RHOB_COMP.G/C3            0:  Bulk Density
RT_COMP.OHMM              0:  True or Deep Resistivity
RXO_COMP.OHMM             0:  Invaded Zone Resistivity
SP_COMP.MV                0:  Spontaneous Potential
TVDSS_COMP.M               :  Reference TVD sub-sea log.
TVD_COMP.M                 :  Reference TVD log.
~Parameter Information Block
#MNEM.UNIT            Value   Description
#---------- ----------------  -----------
SET  .                  LCS:  
~Other Information Block
#        DEPTH        BS_COMP      CALI_COMP      DRHO_COMP        DT_COMP     ECART_COMP        GR_COMP      NPHI_COMP       PEF_COMP      RHOB_COMP        RT_COMP       RXO_COMP        SP_COMP     TVDSS_COMP       TVD_COMP 
~A
# ...
     2183.8920        12.2500        15.3769       0.020099       110.0718        -1.7400        32.8206       0.310248         1.7215         2.0959         7.3605         2.9237        60.1961      2100.4820      2116.4820
     2184.0444        12.2500        15.2524       0.031106       108.7322        -1.3313        34.4718       0.336207         1.7220         2.0731         7.4772         2.8526        60.5950      2100.6316      2116.6316
     2184.1968        12.2500        14.8262       0.061944       108.3479        -0.7967        35.9399       0.350989         1.7257         2.0752         7.5188         2.4900        61.1082      2100.7812      2116.7812
     2184.3492        12.2500        14.1372       0.071862       109.1915        -1.0871        34.8225       0.331590         1.7002         2.0930         7.4745         2.4485        61.2948      2100.9308      2116.9308
     2184.5016        12.2500        13.6834       0.048929       109.9533        -2.3059        31.8848       0.286203         1.6457         2.1077         7.3585         3.1832        60.9593      2101.0804      2117.0804
     2184.6540        12.2500        13.6687       0.017091       110.0090        -3.9118        28.1497       0.239761         1.5869         2.1048         7.2449         4.1795        60.3442      2101.2300      2117.2300
     2184.8064        12.2500        13.8299       0.014170       108.4730        -4.9095        25.0372       0.214363         1.5567         2.0973         7.2232         4.5779        59.9542      2101.3796      2117.3796
     2184.9588        12.2500        14.3438       0.049100       106.0873        -4.7807        24.6639       0.210237         1.5721         2.1106         7.2742         4.6153        59.9298      2101.5292      2117.5292
     2185.1112        12.2500        15.1017       0.095933       104.6237        -3.6425        27.2551       0.222003         1.6185         2.1479         7.3262         4.7143        59.8743      2101.6788      2117.6788
     2185.2636        12.2500        14.9284       0.114837       104.3451        -2.2047        30.9752       0.248160         1.6842         2.1762         7.3752         4.6296        59.6795      2101.8284      2117.8284
     2185.4160        12.2500        14.0188       0.092912       104.5784        -1.2446        33.1886       0.282152         1.7607         2.1675         7.4128         4.2631        59.4218      2101.9780      2117.9780
     2185.5684        12.2500        13.5431       0.058018       104.6721        -0.9861        33.3176       0.306026         1.8141         2.1407         7.3727         3.7929        59.1957      2102.1276      2118.1276
     2185.7208        12.2500        13.6606       0.037046       104.7037        -1.2377        34.3174       0.303247         1.8141         2.1327         7.3042         3.2143        59.1888      2102.2772      2118.2772
     2185.8732        12.2500        13.8748       0.032012       104.8412        -1.8153        37.0268       0.271991         1.7836         2.1559         7.3538         2.8624        59.3661      2102.4268      2118.4268
     2186.0256        12.2500        13.9957       0.030976       104.2329        -2.2488        41.1255       0.240657         1.7915         2.1865         7.5209         3.3586        59.2955      2102.5764      2118.5764
     2186.1780        12.2500        14.4497       0.024988       103.9849        -2.3698        44.7064       0.230638         1.8623         2.1971         7.7260         4.5053        58.9226      2102.7260      2118.7260
     2186.3304        12.2500        14.9194       0.017995       104.1858        -2.3599        45.4322       0.235461         1.9235         2.1896         7.9425         5.1721        58.7823      2102.8756      2118.8756
     2186.4828        12.2500        14.7082       0.012006       103.7052        -2.5175        42.6430       0.237778         1.9011         2.1778         8.0557         5.0199        58.9614      2103.0252      2119.0252
     2186.6352        12.2500        14.3805       0.009010       104.1795        -3.0615        38.0679       0.227100         1.8084         2.1684         7.9885         5.1090        59.1799      2103.1748      2119.1748
     2186.7876        12.2500        14.4717       0.009005       105.7995        -3.6695        35.8668       0.211723         1.7186         2.1637         7.8896         5.5976        59.3053      2103.3244      2119.3244
     2186.9400        12.2500        14.6915       0.009992       106.3429        -4.0694        35.8132       0.201673         1.6796         2.1604         7.8114         5.6375        59.4700      2103.4740      2119.4740
     2187.0924        12.2500        14.9464       0.008999       106.0941        -4.2434        35.8623       0.199374         1.6721         2.1555         7.6834         5.3145        59.6808      2103.6236      2119.6236
     2187.2448        12.2500        14.9958       0.007999       106.1253        -4.1792        34.8281       0.203200         1.6583         2.1524         7.5424         5.2091        59.8599      2103.7733      2119.7733
     2187.3972        12.2500        14.5673       0.006990       106.1891        -3.7526        33.1105       0.213779         1.6324         2.1561         7.4204         5.2350        60.0639      2103.9229      2119.9229
     2187.5496        12.2500        14.1153    -999.250000       106.4406        -3.0922        31.6895       0.228639         1.6068         2.1643         7.2814         5.2352        60.2583      2104.0725      2120.0725
     2187.7020        12.2500        13.8460    -999.250000       107.0024        -2.6500        30.5012       0.241320         1.5914         2.1653         7.1487         5.2720        60.3272      2104.2221      2120.2221
     2187.8544        12.2500        13.6591    -999.250000       107.5331        -2.8645        29.8811       0.244117         1.5972         2.1499         7.0790         5.2641        60.1632      2104.3717      2120.3717
     2188.0068        12.2500        13.7637    -999.250000       108.0037        -3.3093        28.5934       0.246204         1.6370         2.1242         7.0730         5.4945        59.9848      2104.5213      2120.5213
     2188.1592        12.2500        14.1998       0.012998       108.8174        -3.4074        26.0676       0.256653         1.6963         2.1019         7.0687         5.8239        60.1566      2104.6709      2120.6709
     2188.3116        12.2500        14.6841       0.018976       109.7842        -3.1269        24.6894       0.269798         1.7336         2.0940         7.0025         5.3555        60.2880      2104.8205      2120.8205
     2188.4640        12.2500        14.6232       0.017976       110.4688        -2.7539        26.7417       0.275859         1.7398         2.1025         6.8966         4.1559        60.0621      2104.9701      2120.9701
     2188.6164        12.2500        14.1917       0.011992       110.4209        -2.5339        29.9429       0.274882         1.7546         2.1152         6.8179         3.2601        59.8664      2105.1197      2121.1197
     2188.7688        12.2500        14.0453       0.006001       110.1892        -2.3808        30.9996       0.273759         1.7938         2.1247         6.7892         3.0750        59.7414      2105.2693      2121.2693
     2188.9212        12.2500        14.0074    -999.250000       110.4524        -2.3535        30.9289       0.271045         1.8211         2.1306         6.8325         3.2829        59.6165      2105.4189      2121.4189
     2189.0736        12.2500        13.8635    -999.250000       110.3113        -2.5209        32.4450       0.263311         1.8146         2.1351         6.9454         3.4712        59.5079      2105.5685      2121.5685
     2189.2260        12.2500        13.8554    -999.250000       109.9371        -2.6287        35.7120       0.259466         1.7997         2.1361         7.0430         3.5092        59.4782      2105.7182      2121.7182
