~Version Information Block
VERS .                 2.00:  CWLS LOG ASCII STANDARD - VERSION 2.00
WRAP .                   NO:  One line per depth step
~Well Information Block
#MNEM.UNIT        Data Type   Information
#---------- ----------------  -----------
STRT .M              0.0000:  START DEPTH
STOP .M           2748.9912:  STOP DEPTH
STEP .M              0.1524:  STEP
NULL .              -999.25:  NULL VALUE
COMP .                     :  COMPANY
WELL .               GABO13:  LOCATION
FLD  .                     :  FIELD
LOC  .   6.617986, 5.233868:  LOCATION
CTRY .                     :  COUNTRY
STAT .                     :  STATE
CNTY .                     :  COUNTY
API  .                     :  API NUMBER
UWI  .                     :  UNIQUE WELL ID
SRVC .                     :  SERVICE COMPANY
DATE .                     :  LOG DATE
~Curve Information Block
#MNEM.UNIT         API CODE   Curve Description
#---------- ----------------  -----------------
DEPTH.M                    :  Depth
BS_COMP.INCHES             :  Bit Size
CALI_COMP.INCHES          0:  Caliper
DRHO_COMP.G/C3             :  Density Correction Log
DT_COMP.US/F              0:  Compressional Sonic
ECART_COMP.                :  Neutron Density Seperation
GR_COMP.GAPI              0:  Gamma Ray
NPHI_COMP.V/V              :  Neutron Porosity
PEF_COMP.B/E              0:  Photo Electric Factor
RHOB_COMP.G/C3            0:  Bulk Density
RDeep_COMP.OHMM           0:  Deep Resistivity
RShal_COMP.OHMM           0:  Shallow Resistivity
SP_COMP.MV                0:  Spontaneous Potential
TVDSS_COMP.M               :  Reference TVD sub-sea log.
TVD_COMP.M                 :  Reference TVD log.
~Parameter Information Block
#MNEM.UNIT            Value   Description
#---------- ----------------  -----------
SET  .                  LCS:  
~Other Information Block
#        DEPTH        BS_COMP      CALI_COMP      DRHO_COMP        DT_COMP     ECART_COMP        GR_COMP      NPHI_COMP       PEF_COMP      RHOB_COMP      RDeep_COMP     RShal_COMP        SP_COMP     TVDSS_COMP       TVD_COMP 
~A
# ...
     2487.7776        12.2500        12.4737       0.015043       101.7587         2.1752       104.0879       0.285120         2.9412         2.3335         7.7535         5.5816       -11.6603      2473.2486      2487.0486
     2487.9300        12.2500        12.4163       0.007488       103.0856         2.8662       107.6892       0.317785         2.8596         2.3136         7.7517         5.4145       -10.7525      2473.4006      2487.2006
     2488.0824        12.2500        12.4318      -0.000267       104.1540         4.0670       114.5100       0.360824         2.8306         2.3019         7.6115         5.1758        -9.5141      2473.5526      2487.3526
     2488.2348        12.2500        12.5628      -0.000664       104.1471         5.4419       120.0140       0.401746         2.8733         2.3024         7.4147         4.8679        -8.0625      2473.7046      2487.5046
     2488.3872        12.2500        12.7396       0.008279       102.6318         7.0072       122.7761       0.437268         2.9815         2.3215         7.1987         4.4638        -6.4601      2473.8566      2487.6566
     2488.5396        12.2500        12.7790       0.022848       100.3258         8.3011       122.6293       0.457671         3.1211         2.3522         6.9573         3.9761        -4.9109      2474.0086      2487.8086
     2488.6920        12.2500        12.6949       0.036027        97.9116         8.1837       119.4662       0.442829         3.2153         2.3712         6.6818         3.5328        -3.7934      2474.1606      2487.9606
     2488.8444        12.2500        12.6245       0.043166        96.1904         7.0844       117.7691       0.406227         3.2530         2.3772         6.3904         3.2423        -3.0189      2474.3125      2488.1125
     2488.9968        12.2500        12.6145       0.044536        95.0633         6.6698       119.5815       0.391563         3.2564         2.3808         6.0935         3.1515        -2.3424      2474.4645      2488.2645
     2489.1492        12.2500        12.6435       0.042645        93.7398         8.1160       124.2360       0.432674         3.2377         2.3845         5.7874         3.2153        -1.7040      2474.6165      2488.4165
     2489.3016        12.2500        12.6824       0.037900        92.7009         9.9912       136.2188       0.490144         3.2152         2.3825         5.4994         3.2149        -1.1474      2474.7685      2488.5685
     2489.4540        12.2500        12.9618       0.034865        92.5347        10.6667       151.3398       0.513656         3.1957         2.3772         5.2826         3.0677        -0.5550      2474.9205      2488.7205
     2489.6064        12.2500        13.2500       0.051502        92.6946        10.3371       161.9137       0.506207         3.1726         2.3732         5.1412         2.8595         0.1039      2475.0725      2488.8725
     2489.7588        12.2500        13.0260       0.104066        92.5840         9.8647       160.0458       0.493157         3.1623         2.3713         5.0313         2.6976         0.6596      2475.2245      2489.0245
     2489.9112        12.2500        12.7572       0.171282        92.8595         9.3277       142.2955       0.476949         3.2258         2.3715         4.9134         2.6099         0.9522      2475.3765      2489.1765
     2490.0636        12.2500        12.7032       0.213572        93.2751         9.1023       125.2344       0.467923         3.3332         2.3752         4.7979         2.5661         1.2019      2475.5285      2489.3285
     2490.2160        12.2500        12.8072       0.227684        93.4139         9.3414       115.0027       0.472637         3.3930         2.3793         4.7119         2.5367         1.5318      2475.6805      2489.4805
     2490.3684        12.2500        12.9803       0.232527        93.7016         9.6283       110.9948       0.482963         3.3685         2.3765         4.6582         2.5098         1.8444      2475.8325      2489.6325
     2490.5208        12.2500        13.0789       0.234189        94.7922         9.5796       111.6491       0.488831         3.3386         2.3643         4.5993         2.4853         2.0381      2475.9845      2489.7845
     2490.6732        12.2500        13.1924       0.222667        95.7514         9.7820       112.3135       0.500769         3.3452         2.3545         4.5083         2.4481         2.1562      2476.1365      2489.9365
     2490.8256        12.2500        13.2959       0.198627        96.6741        10.3524       112.7872       0.519226         3.3494         2.3522         4.3880         2.3883         2.2308      2476.2884      2490.0884
     2490.9780        12.2500        13.3387       0.174052        97.8945        10.9200       113.9955       0.535338         3.3235         2.3537         4.2907         2.3092         2.2590      2476.4404      2490.2404
     2491.1304        12.2500        13.3966       0.169157        98.6562        11.3041       114.6767       0.544921         3.2867         2.3570         4.2830         2.2290         2.3207      2476.5924      2490.3924
     2491.2828        12.2500        13.4340       0.199715        99.3749        11.6434       112.3559       0.548863         3.2433         2.3674         4.2778         2.1853         2.5372      2476.7444      2490.5444
     2491.4352        12.2500        13.3237       0.239739       100.0512        12.3678       111.9041       0.560914         3.2100         2.3835         4.2377         2.2026         2.7153      2476.8964      2490.6964
     2491.5876        12.2500        13.0753       0.251238       100.1291        12.8402       115.4948       0.569625         3.2063         2.3927         4.1857         2.2721         2.6703      2477.0484      2490.8484
     2491.7400        12.2500        12.9526       0.223877        99.4384        11.9160       118.2187       0.546320         3.2240         2.3854         4.1412         2.3596         2.4918      2477.2004      2491.0004
     2491.8924        12.2500        12.9889       0.196449        98.4529        11.1614       119.6182       0.526400         3.2233         2.3808         4.1518         2.4366         2.3397      2477.3524      2491.1524
     2492.0448        12.2500        13.0330       0.184616        97.7512        10.8827       118.9730       0.516896         3.1842         2.3827         4.1975         2.4753         2.1952      2477.5044      2491.3044
     2492.1972        12.2500        13.0784       0.177548        97.5095         9.9785       115.9601       0.494898         3.1517         2.3742         4.2315         2.4522         2.0595      2477.6564      2491.4564
     2492.3496        12.2500        13.2596       0.166814        97.6133         8.2644       111.3077       0.460195         3.2412         2.3463         4.2356         2.3584         2.0174      2477.8083      2491.6083
     2492.5020        12.2500        13.7073       0.158364        97.8773         7.5413       109.9268       0.451914         3.5140         2.3239         4.2185         2.2217         2.0244      2477.9603      2491.7603
     2492.6544        12.2500        13.9346       0.159221        97.9678         8.2311       108.5837       0.474216         3.7658         2.3211         4.1713         2.0919         1.9963      2478.1123      2491.9123
     2492.8068        12.2500        13.9969       0.172639        98.0020         9.5644       106.2342       0.505133         3.8291         2.3363         4.0668         1.9833         2.0932      2478.2643      2492.0643
     2492.9592        12.2500        14.3226       0.199230        98.3071        10.4799       104.5989       0.518540         3.7194         2.3598         3.9068         1.8854         2.4567      2478.4163      2492.2163
     2493.1116        12.2500        14.3320       0.233221        98.7630         9.9245       104.6311       0.495180         3.5803         2.3710         3.7564         1.7985         2.7670      2478.5683      2492.3683
