~Version Information Block
VERS .                 2.00:  CWLS LOG ASCII STANDARD - VERSION 2.00
WRAP .                   NO:  One line per depth step
~Well Information Block
#MNEM.UNIT        Data Type   Information
#---------- ----------------  -----------
STRT .M            800.1000:  START DEPTH
STOP .M           4245.4068:  STOP DEPTH
STEP .M              0.1524:  STEP
NULL .              -999.25:  NULL VALUE
COMP .                     :  COMPANY
WELL .               GABO51:  WELL
FLD  .                     :  FIELD
LOC  .   6.643728, 5.227344:  LOCATION
CTRY .                     :  COUNTRY
STAT .                     :  STATE
CNTY .                     :  COUNTY
API  .                     :  API NUMBER
UWI  .                     :  UNIQUE WELL ID
SRVC .                     :  SERVICE COMPANY
DATE .                     :  LOG DATE
~Curve Information Block
#MNEM.UNIT         API CODE   Curve Description
#---------- ----------------  -----------------
DEPTH.M                    :  Depth
DRHO_COMP.G/C3             :  Density Correction
DTSM_COMP.US/F             :  Shear Sonic
DT_COMP.US/F               :  Compressional Sonic
GR_COMP.GAPI               :  Gamma Ray
HCAL_COMP.INCHES           :  Caliper
NPHI_COMP.V/V              :  Neutron Porosity
PEF_COMP.B/E               :  Pho Electric Factor
RDEEP_COMP.OHMM            :  Deep Resistivity
RHOB_COMP.G/C3             :  Bulk Density
RSHAL_COMP.OHMM            :  Shallow Resistivity
TVDSS_COMP.M               :  Reference TVD sub-sea log.
TVD_COMP.M                 :  Reference TVD log.
~Parameter Information Block
#MNEM.UNIT            Value   Description
#---------- ----------------  -----------
SET  .                  LCS:  
~Other Information Block
#        DEPTH      DRHO_COMP      DTSM_COMP        DT_COMP        GR_COMP      HCAL_COMP      NPHI_COMP       PEF_COMP     RDEEP_COMP      RHOB_COMP     RSHAL_COMP     TVDSS_COMP       TVD_COMP 
~A
# ...
     3367.4304      -0.027600       154.5175       131.4828        33.4022        12.2704       0.078100         2.0690      1105.6249         2.1948       447.4095      2621.6596      2641.4396
     3367.5828      -0.024300       157.3418       134.4891        34.3707        12.2816       0.081100         2.1176      1015.5905         2.2728       403.3143      2621.7722      2641.5522
     3367.7352      -0.019200       160.5636       138.6123        37.2191        12.3002       0.081700         2.2394       893.8121         2.3030       402.1735      2621.8848      2641.6648
     3367.8876      -0.013600       163.4197       140.1889        40.8081        12.3374       0.083400         2.3378       768.6735         2.2715       390.5787      2621.9974      2641.7774
     3368.0400      -0.011800       165.4001       141.6083        43.6945        12.3485       0.092300         2.2841       826.9244         2.1797       378.8102      2622.1100      2641.8900
     3368.1924      -0.018100       166.5642       145.4643        44.0996        12.3150       0.095500         2.0871       782.0927         2.0570       365.6110      2622.2227      2642.0027
     3368.3448      -0.026700       166.2766       148.5633        42.5931        12.3299       0.091300         1.9318       767.6649         1.9586       341.8564      2622.3354      2642.1154
     3368.4972      -0.032100       165.4492       146.5513        39.1750        12.3225       0.084800         1.8728       766.0488         1.9094       334.7004      2622.4481      2642.2281
     3368.6496      -0.030900       165.0931       146.3494        36.9152        12.3150       0.077400         1.9054       616.4903         1.9021       317.7543      2622.5609      2642.3409
     3368.8020      -0.029600       165.4011       146.7736        36.6557        12.3150       0.073600         1.9151       589.7894         1.9034       307.2458      2622.6737      2642.4537
     3368.9544      -0.028900       165.3020       154.3164        37.2950        12.3225       0.067400         1.9035       762.5436         1.9072       321.7045      2622.7865      2642.5665
     3369.1068      -0.027000       164.0006       154.3318        37.4406        12.3374       0.071700         1.8961       864.9933         1.9098       330.0645      2622.8993      2642.6793
     3369.2592      -0.026500       162.7791       154.1257        37.5925        12.3374       0.071200         1.8917       778.9564         1.9101       318.8151      2623.0122      2642.7922
     3369.4116      -0.027100       161.9644       153.6687        35.6999        12.3374       0.073900         1.9011       774.1747         1.9147       318.4988      2623.1251      2642.9051
     3369.5640      -0.029500       161.2017       153.4084        34.3707        12.3150       0.075600         1.9122       773.2616         1.9207       312.3333      2623.2380      2643.0180
     3369.7164      -0.031600       160.1653       152.9874        34.3707        12.3262       0.079400         1.9191       691.0869         1.9273       307.7867      2623.3510      2643.1310
     3369.8688      -0.032700       159.0354       152.8359        34.9403        12.3374       0.080100         1.9037       657.2425         1.9295       297.9655      2623.4640      2643.2440
     3370.0212      -0.034000       158.7399       153.0121        35.9088        12.3523       0.079100         1.8772       576.8846         1.9294       295.8289      2623.5770      2643.3570
     3370.1736      -0.032900       159.1340       153.1536        34.8454        12.3597       0.082400         1.8808       580.8574         1.9311       309.1103      2623.6901      2643.4701
     3370.3260      -0.031600       159.4922       153.2771        35.4151        12.3709       0.080700         1.8652       590.3297         1.9275       319.8712      2623.8032      2643.5832
     3370.4784      -0.030600       159.6257       153.4106        34.4086        12.3523       0.081500         1.7998       588.0450         1.9224       308.1664      2623.9163      2643.6963
     3370.6308      -0.031800       159.7631       153.5277        34.1808        12.3448       0.078700         1.7100       570.7959         1.9176       308.8394      2624.0295      2643.8095
     3370.7832      -0.033600       159.9776       153.4897        35.2062        12.3597       0.079700         1.6672       561.6946         1.9166       321.6524      2624.1427      2643.9227
     3370.9356      -0.035800       160.0003       153.2509        36.2126        12.3932       0.076600         1.6598       566.1937         1.9222       317.2130      2624.2559      2644.0359
     3371.0880      -0.037600       160.1257       150.7172        38.2635        12.3969       0.070400         1.6744       588.2260         1.9284       322.7707      2624.3692      2644.1492
     3371.2404      -0.037700       160.2145       150.4865        38.3774        12.3709       0.069000         1.7080       639.4594         1.9313       304.0022      2624.4825      2644.2625
     3371.3928      -0.035900       159.9615       150.5603        39.4535        12.3671       0.066300         1.7598       538.7711         1.9290       289.8259      2624.5958      2644.3758
     3371.5452      -0.033500       159.9553       150.6647        34.5542        12.3523       0.070200         1.8354       694.8137         1.9247       347.1163      2624.7092      2644.4892
     3371.6976      -0.031900       160.3751       151.7399        33.6301        12.3225       0.070600         1.9058       682.8457         1.9198       313.8747      2624.8226      2644.6026
     3371.8500      -0.030300       161.1158       152.5097        31.4336        12.2927       0.074000         1.9255       517.4204         1.9198       256.2690      2624.9360      2644.7160
     3372.0024      -0.028000       162.3367       154.2340        34.8517        12.3076       0.078700         1.8507       493.6307         1.9211       291.4391      2625.0495      2644.8295
     3372.1548      -0.029100       163.7606       155.8664        35.8202        12.3076       0.101200         1.7721       464.4533         1.9248       305.2721      2625.1630      2644.9430
     3372.3072      -0.031000       164.7502       160.3336        42.2006        12.2927       0.147400         1.7297       246.0309         1.9425       163.8027      2625.2765      2645.0565
     3372.4596      -0.029000       165.7025       159.5025        49.3786        12.3262       0.205300         1.7338       450.0253         1.9816       340.0905      2625.3901      2645.1701
     3372.6120      -0.020500       166.8860       160.8724        64.0322        12.3299       0.240400         1.7324       395.2201         2.0328       306.4388      2625.5037      2645.2837
     3372.7644      -0.013500       167.9339       161.2275        73.8370        12.3039       0.242100         1.7387       250.4055         2.0721       263.7012      2625.6173      2645.3973
     3372.9168      -0.010500       168.3742       163.4829        80.5087        12.2816       0.265400         1.7772       153.2943         2.0931       196.6290      2625.7310      2645.5110
     3373.0692      -0.006400       168.4928       162.9827        76.4069        12.3002       0.276900         1.8452       103.6263         2.1150       107.5743      2625.8447      2645.6247
     3373.2216      -0.006600       168.5759       161.4014        72.3179        12.3039       0.295100         1.9335        85.9210         2.1289        86.3070      2625.9584      2645.7384
     3373.3740      -0.001200       168.2722       164.0029        69.1973        12.3002       0.292300         2.0135        90.3081         2.1346        94.6356      2626.0722      2645.8522
     3373.5264       0.004900       168.2426       163.7974        68.1719        12.3262       0.306500         2.0743        91.1459         2.1270       103.4664      2626.1860      2645.9660
     3373.6788       0.023700       168.7937       165.2702        71.6153        12.3039       0.315400         2.1352        92.8298         2.1210        99.6280      2626.2998      2646.0798
