~Version Section
VERS.   2.0:  CWLS Log ASCII Standard - Version 2.0
WRAP.    NO:  One data record per depth sample.
~Well Information Section
#MNEM.UNIT      VALUE                    DESCRIPTION
#---------      ----------               -----------
STRT.M                   0               :START DEPTH
STOP.M          3180.43555               :STOP DEPTH
STEP.M               .1524               :STEP
NULL.          -999.250000               :NULL VALUE
COMP.                                    :Oil Company
WELL.         GABO-21                    :Non unique well name
FLD.              FNG00147               :Field name
LOC.  6.610748, 5.225944                 :Location
PROV.                                    :Province
SRVC.                                    :Service
DATE.           2013-08-16               :Date unloaded
UWI.          			               :Unique well id
~Curve Information Section
#MNEM.UNIT                   API CODE                 Curve Description
#---------                   ----------               -----------------
BOREHOLE-DEPTH.M                                   :DEPTH
GR.GAPI                                   :
RT.OHMM                                   :
RXO.OHMM                                   :
TVD.M                                   :
TVDSS.M                                   :
~A
# ...
2813.6089    111.6819     5.9079       3.8741       2482.4651    2463.1453    
2813.7612    113.3551     5.8450       3.9226       2482.4973    2463.1772    
2813.9136    114.9491     6.0686       3.8169       2482.5293    2463.2095    
2814.0659    111.5239     5.7589       3.9905       2482.5613    2463.2415    
2814.2185    106.2052     5.7485       3.9425       2482.5935    2463.2734    
2814.3708    107.9230     5.9312       4.0082       2482.6255    2463.3054    
2814.5232    109.6086     5.9568       3.8094       2482.6575    2463.3374    
2814.6755    114.8381     5.9571       4.0347       2482.6892    2463.3694    
2814.8281    113.1203     5.8460       3.9836       2482.7212    2463.4011    
2814.9805    111.3801     6.3124       4.0471       2482.7532    2463.4331    
2815.1328    109.6288     6.0876       4.3701       2482.7852    2463.4651    
2815.2852    107.8897     5.5855       4.2062       2482.8169    2463.4968    
2815.4377    109.6289     6.3282       4.2451       2482.8489    2463.5288    
2815.5901    108.0393     5.9958       4.0448       2482.8806    2463.5605    
2815.7424    108.0393     6.3165       4.0694       2482.9124    2463.5923    
2815.8948    108.0398     6.4031       4.2803       2482.9441    2463.6243    
2816.0471    109.6294     6.0312       4.2444       2482.9761    2463.6560    
2816.1997    109.8812     6.4303       4.2335       2483.0078    2463.6877    
2816.3521    112.8364     6.4651       4.3268       2483.0396    2463.7195    
2816.5044    113.1207     6.4083       4.3252       2483.0713    2463.7512    
2816.6567    112.8688     6.8547       4.4170       2483.1028    2463.7830    
2816.8093    109.5898     6.4242       4.0592       2483.1345    2463.8147    
2816.9617    107.9175     6.0112       3.9367       2483.1663    2463.8462    
2817.1140    113.1364     6.4270       4.1744       2483.1980    2463.8779    
2817.2664    113.0659     6.3111       4.1719       2483.2295    2463.9094    
2817.4189    115.3797     6.4666       4.1426       2483.2610    2463.9412    
2817.5713    111.4676     6.7029       4.2342       2483.2927    2463.9727    
2817.7236    113.6017     5.9971       4.0525       2483.3242    2464.0044    
2817.8760    113.1441     6.3884       4.1546       2483.3557    2464.0359    
2818.0283    111.8373     6.0821       4.0168       2483.3872    2464.0674    
2818.1809    109.5736     6.7024       4.2721       2483.4187    2464.0989    
2818.3333    109.6499     6.3437       4.0506       2483.4502    2464.1304    
2818.4856    109.6501     6.2719       4.1736       2483.4817    2464.1619    
2818.6379    110.1740     6.2486       4.3622       2483.5132    2464.1931    
2818.7905    109.6290     6.1863       4.2133       2483.5447    2464.2246    
2818.9429    108.5118     6.3265       4.0681       2483.5762    2464.2561    
2819.0952    108.5124     6.2556       3.8844       2483.6074    2464.2874    
2819.2476    110.2529     6.3527       4.0696       2483.6389    2464.3188    
2819.4001    113.1096     5.9601       4.1383       2483.6702    2464.3501    
2819.5525    113.1089     5.9464       4.1459       2483.7014    2464.3816    
2819.7048    110.6272     6.1794       3.8488       2483.7329    2464.4128    
2819.8572    108.8868     6.1564       4.2278       2483.7642    2464.4441    
2820.0095    106.3776     6.3115       4.0988       2483.7954    2464.4753    
2820.1621    106.1708     5.6443       4.0968       2483.8267    2464.5066    
2820.3145    104.4317     5.7155       4.0262       2483.8579    2464.5378    
2820.4668    106.0266     5.8126       3.9798       2483.8889    2464.5691    
2820.6191    106.9748     5.9158       3.9442       2483.9202    2464.6001    
2820.7717    107.8421     5.7231       3.9194       2483.9514    2464.6313    
2820.9241    108.7568     5.8446       4.0900       2483.9827    2464.6626    
2821.0764    109.6746     5.7490       3.9636       2484.0137    2464.6936    
2821.2288    112.2865     5.9686       3.9615       2484.0449    2464.7249    
2821.3813    111.3422     5.4772       4.0507       2484.0759    2464.7559    
2821.5337    112.9448     5.5523       3.8864       2484.1069    2464.7871    
2821.6860    111.2052     5.6608       4.1145       2484.1379    2464.8181    
2821.8384    111.1666     5.8072       4.0067       2484.1689    2464.8491    
2821.9907    112.1259     5.6872       4.1653       2484.2002    2464.8801    
2822.1433    113.1356     6.0561       4.2323       2484.2312    2464.9111    
2822.2957    114.8333     5.6736       4.2274       2484.2620    2464.9419    
2822.4480    115.5421     5.3662       4.0881       2484.2930    2464.9729    
2822.6003    118.0128     5.2972       4.0077       2484.3240    2465.0039    
2822.7529    120.1051     5.6966       4.0994       2484.3547    2465.0349    
2822.9053    117.6569     5.3960       4.1711       2484.3857    2465.0657    
2823.0576    115.9166     5.8530       4.4735       2484.4165    2465.0967    
2823.2100    113.7511     5.8614       4.6860       2484.4475    2465.1274    
2823.3625    113.7505     5.9681       4.8458       2484.4783    2465.1582    
2823.5149    112.0098     5.9481       5.0222       2484.5093    2465.1892    
2823.6672    108.4853     6.0741       5.2317       2484.5398    2465.2200    
2823.8196    106.1870     6.6928       5.2513       2484.5708    2465.2507    
2823.9719    102.7073     7.5069       5.9372       2484.6016    2465.2815    
2824.1245    100.9722     9.7573       7.6870       2484.6321    2465.3123    
2824.2769    97.4922      10.7375      8.3906       2484.6628    2465.3430    
2824.4292    95.0936      11.3123      9.1758       2484.6936    2465.3738    
2824.5815    91.5394      12.2430      8.7289       2484.7244    2465.4043    
2824.7341    89.1412      14.8037      9.7346       2484.7549    2465.4351    
2824.8865    86.8267      14.0471      9.5683       2484.7856    2465.4656    
2825.0388    85.0524      13.8099      9.2957       2484.8164    2465.4963    
2825.1912    80.5633      12.8471      8.7512       2484.8469    2465.5269    
2825.3438    78.3161      11.8356      8.4371       2484.8774    2465.5576    
2825.4961    77.8217      11.1430      8.4447       2484.9080    2465.5879    
2825.6484    78.7538      10.3500      7.8055       2484.9387    2465.6187    
2825.8008    81.7941      9.5510       7.5682       2484.9690    2465.6492    
2825.9531    82.2219      9.7760       7.9053       2484.9995    2465.6797    
2826.1057    81.7751      9.6955       7.5271       2485.0300    2465.7102    
2826.2581    79.1361      10.0026      7.6724       2485.0605    2465.7405    
2826.4104    82.5737      10.1823      8.2153       2485.0911    2465.7710    
2826.5627    87.7940      10.0759      8.9399       2485.1216    2465.8015    
2826.7153    92.6131      10.0075      8.2419       2485.1519    2465.8318    
2826.8677    93.9691      11.1495      8.4108       2485.1821    2465.8623    
2827.0200    97.4494      11.0633      9.4227       2485.2126    2465.8926    
2827.1724    100.9302     10.4248      8.5073       2485.2429    2465.9231    
2827.3250    106.1496     10.5756      8.1831       2485.2732    2465.9534    
2827.4773    107.8908     9.8428       8.0242       2485.3037    2465.9836    
2827.6296    113.1091     9.1435       6.9328       2485.3340    2466.0139    
2827.7820    111.4532     8.5304       5.8878       2485.3643    2466.0442    
2827.9343    111.6098     8.4464       6.1144       2485.3943    2466.0745    
2828.0869    113.3510     8.2119       6.1541       2485.4248    2466.1047    
2828.2393    118.4862     7.9591       6.0471       2485.4548    2466.1350    
2828.3916    118.3184     7.9890       5.3098       2485.4851    2466.1650    
2828.5439    116.5397     6.9156       5.1501       2485.5154    2466.1953    
2828.6965    116.4796     6.9176       5.1372       2485.5454    2466.2253    
2828.8489    119.9706     6.4873       5.2127       2485.5754    2466.2556    
2829.0012    121.7493     6.3986       4.7648       2485.6057    2466.2856    
