~Version Information Block
VERS .                 2.00:  CWLS LOG ASCII STANDARD - VERSION 2.00
WRAP .                   NO:  One line per depth step
~Well Information Block
#MNEM.UNIT        Data Type   Information
#---------- ----------------  -----------
STRT .M            800.1000:  START DEPTH
STOP .M           4245.4068:  STOP DEPTH
STEP .M              0.1524:  STEP
NULL .              -999.25:  NULL VALUE
COMP .                     :  COMPANY
WELL .               GABO51:  WELL
FLD  .                     :  FIELD
LOC  .   6.643728, 5.227344:  LOCATION
CTRY .                     :  COUNTRY
STAT .                     :  STATE
CNTY .                     :  COUNTY
API  .                     :  API NUMBER
UWI  .                     :  UNIQUE WELL ID
SRVC .                     :  SERVICE COMPANY
DATE .                     :  LOG DATE
~Curve Information Block
#MNEM.UNIT         API CODE   Curve Description
#---------- ----------------  -----------------
DEPTH.M                    :  Depth
DRHO_COMP.G/C3             :  Density Correction
DTSM_COMP.US/F             :  Shear Sonic
DT_COMP.US/F               :  Compressional Sonic
GR_COMP.GAPI               :  Gamma Ray
HCAL_COMP.INCHES           :  Caliper
NPHI_COMP.V/V              :  Neutron Porosity
PEF_COMP.B/E               :  Pho Electric Factor
RDEEP_COMP.OHMM            :  Deep Resistivity
RHOB_COMP.G/C3             :  Bulk Density
RSHAL_COMP.OHMM            :  Shallow Resistivity
TVDSS_COMP.M               :  Reference TVD sub-sea log.
TVD_COMP.M                 :  Reference TVD log.
~Parameter Information Block
#MNEM.UNIT            Value   Description
#---------- ----------------  -----------
SET  .                  LCS:  
~Other Information Block
#        DEPTH      DRHO_COMP      DTSM_COMP        DT_COMP        GR_COMP      HCAL_COMP      NPHI_COMP       PEF_COMP     RDEEP_COMP      RHOB_COMP     RSHAL_COMP     TVDSS_COMP       TVD_COMP 
~A
# ...
     3610.6608      -0.001000       162.4654       163.8962        94.9661        12.6723       0.195500         3.4668         2.8555         2.5447         2.7854      2820.9278      2840.7078
     3610.8132      -0.001500       162.0763       163.5457        91.0037        12.8621       0.202400         3.5775         2.7695         2.5628         2.6487      2821.0574      2840.8374
     3610.9656      -0.001500       162.8383       163.4512        93.2254        12.9774       0.203600         3.6581         2.7263         2.5710         2.5964      2821.1870      2840.9670
     3611.1180      -0.000400       164.4539       164.7912        94.1179        12.8137       0.219400         3.6479         2.6521         2.5711         2.5844      2821.3166      2841.0966
     3611.2704      -0.003400       165.6711       165.6640        95.2320        12.4788       0.235300         3.6164         2.6144         2.5457         2.5276      2821.4462      2841.2262
     3611.4228      -0.005000       166.3892       167.3004        95.0547        12.4788       0.240700         3.5137         2.6063         2.5336         2.4856      2821.5757      2841.3557
     3611.5752      -0.005300       167.1132       168.1235        97.0107        12.5011       0.231200         3.4084         2.7279         2.5351         2.6154      2821.7053      2841.4853
     3611.7276      -0.003400       168.1825       167.8751        94.1749        12.7170       0.234600         3.3188         2.7444         2.5446         2.6631      2821.8349      2841.6149
     3611.8800      -0.002500       169.0856       168.3808        94.9218        12.9626       0.236800         3.2995         2.7044         2.5413         2.5600      2821.9645      2841.7445
     3612.0324      -0.001300       169.3278       168.3701        93.7191        12.8174       0.240300         3.2544         2.6412         2.5414         2.4736      2822.0940      2841.8740
     3612.1848      -0.001800       169.2796       168.1025        95.2256        12.5048       0.235900         3.2428         2.6091         2.5389         2.5196      2822.2236      2842.0036
     3612.3372      -0.004000       169.8885       168.1229       100.8085        12.5383       0.237400         3.2534         2.5524         2.5375         2.4461      2822.3531      2842.1331
     3612.4896      -0.006200       171.2879       168.6291       102.3530        12.5309       0.226100         3.3538         2.5466         2.5284         2.4750      2822.4827      2842.2627
     3612.6420      -0.008000       172.1427       167.9800       101.8150        12.5755       0.225300         3.4343         2.5406         2.5224         2.5065      2822.6123      2842.3923
     3612.7944      -0.007800       172.2383       167.9504        96.3460        12.4267       0.232300         3.4752         2.5627         2.5176         2.4859      2822.7418      2842.5218
     3612.9468      -0.006100       171.3574       168.4512        95.8776        12.4937       0.247200         3.4056         2.5480         2.5278         2.4919      2822.8714      2842.6514
     3613.0992      -0.004100       170.1411       168.4046        92.2760        12.5941       0.242200         3.3342         2.5366         2.5346         2.4721      2823.0009      2842.7809
     3613.2516      -0.003000       170.4321       168.6728        90.0162        12.6276       0.231900         3.3093         2.5042         2.5392         2.4862      2823.1304      2842.9104
     3613.4040      -0.004800       171.4502       165.6730        90.2568        12.6425       0.226600         3.3880         2.4799         2.5261         2.4798      2823.2600      2843.0400
     3613.5564      -0.004600       172.1233       170.0089        94.7193        12.5272       0.238000         3.4869         2.4739         2.5179         2.4878      2823.3895      2843.1695
     3613.7088      -0.006000       172.7605       170.4980        94.1306        12.4267       0.246100         3.5910         2.5002         2.5289         2.4740      2823.5190      2843.2990
     3613.8612      -0.006000       172.8567       170.5004        90.0162        12.4118       0.253300         3.8515         2.5002         2.5641         2.4680      2823.6486      2843.4286
     3614.0136      -0.021600       172.3264       170.8679        88.9718        12.4267       0.251600         4.3277         2.4766         2.5831         2.4556      2823.7781      2843.5581
     3614.1660      -0.025400       172.1582       171.0250        87.8388        12.4192       0.264100         4.6285         2.4580         2.5935         2.4351      2823.9076      2843.6876
     3614.3184      -0.023200       172.5282       171.5136        90.5859        12.4602       0.254800         4.4747         2.4739         2.5886         2.4603      2824.0372      2843.8172
     3614.4708      -0.008800       173.0079       171.5969        93.3520        12.5011       0.246200         3.9979         2.5125         2.5776         2.5055      2824.1667      2843.9467
     3614.6232      -0.004600       173.6355       171.1071        93.6875        12.6388       0.237400         3.6426         2.5085         2.5518         2.4557      2824.2962      2844.0762
     3614.7756      -0.007600       174.0812       171.4228        90.5099        12.7393       0.239800         3.5281         2.5275         2.5200         2.4483      2824.4257      2844.2057
     3614.9280      -0.009400       174.2680       171.9082        89.4529        12.6723       0.238600         3.4823         2.5162         2.5037         2.4372      2824.5552      2844.3352
     3615.0804      -0.009900       174.5236       172.0219        95.7890        12.4267       0.253400         3.4518         2.4851         2.5009         2.4558      2824.6847      2844.4647
     3615.2328      -0.010100       174.8074       173.0075        95.7763        12.4341       0.273900         3.4495         2.4208         2.5030         2.3847      2824.8142      2844.5942
     3615.3852      -0.009500       174.9662       173.3626        97.1562        12.4267       0.279500         3.4540         2.3954         2.5123         2.3825      2824.9437      2844.7237
     3615.5376      -0.009100       175.3121       173.2814        92.4152        12.4267       0.276300         3.4625         2.4309         2.5134         2.3987      2825.0732      2844.8532
     3615.6900      -0.009400       176.1887       173.2546        95.5485        12.4937       0.274000         3.4713         2.4438         2.5073         2.3892      2825.2027      2844.9827
     3615.8424      -0.009400       176.8683       173.0961        92.5735        12.6723       0.269600         3.4756         2.4474         2.5025         2.3824      2825.3322      2845.1122
     3615.9948      -0.007200       176.3466       173.1530        93.7635        12.7393       0.257300         3.4437         2.4670         2.5106         2.4032      2825.4617      2845.2417
     3616.1472      -0.004200       175.6212       172.4601        89.6048        12.6388       0.262800         3.3763         2.4884         2.5244         2.4575      2825.5912      2845.3712
     3616.2996      -0.000700       176.3637       171.6402        89.8896        12.4267       0.266700         3.2891         2.4104         2.5404         2.4007      2825.7207      2845.5007
     3616.4520      -0.000900       178.2216       171.6850        90.2947        12.4044       0.265400         3.2847         2.3606         2.5386         2.3513      2825.8501      2845.6301
     3616.6044      -0.003800       179.4512       171.4944        94.1306        12.4341       0.275600         3.3428         2.3411         2.5266         2.3036      2825.9796      2845.7596
     3616.7568      -0.005300       179.8637       171.1783        94.4154        12.5048       0.282300         3.4424         2.3333         2.5185         2.3172      2826.1091      2845.8891
     3616.9092      -0.005400       180.3977       171.4272        94.1179        12.6835       0.291000         3.4838         2.3315         2.5214         2.3223      2826.2386      2846.0186
