~Version Information Block
VERS .                 2.00:  CWLS LOG ASCII STANDARD - VERSION 2.00
WRAP .                   NO:  One line per depth step
~Well Information Block
#MNEM.UNIT        Data Type   Information
#---------- ----------------  -----------
STRT .M              0.0000:  START DEPTH
STOP .M           2731.4652:  STOP DEPTH
STEP .M              0.1524:  STEP
NULL .              -999.25:  NULL VALUE
COMP .                     :  COMPANY
WELL .              GABO-19:  WELL
FLD  .                     :  FIELD
LOC  .   6.687920, 5.237424:  LOCATION
CTRY .                     :  COUNTRY
STAT .                     :  STATE
CNTY .                     :  COUNTY
API  .                     :  API NUMBER
UWI  .                     :  UNIQUE WELL ID
SRVC .                     :  SERVICE COMPANY
DATE .                     :  LOG DATE
~Curve Information Block
#MNEM.UNIT         API CODE   Curve Description
#---------- ----------------  -----------------
DEPTH.M                    :  Reference TVD log.
BS_COMP.INCHES             :  BIT SIZE
DRHO_COMP.G/C3            0:  Density Correction
GR_COMP.GAPI              0:  Gamma Ray
LLS_COMP.OHMM             0:  Deep Laterolog resistivity
NPHI_COMP.V/V              :  Neutron Porosity
PEF_COMP.B/E              0:  Photo Electric Facotr
RHOB_COMP.G/C3            0:  Bulk Density
RT_COMP.OHMM              0:  True Resistivity
RXO_COMP.OHMM             0:  Invaded Zone Resistivity
SP_COMP.MV                0:  Spontaneous Potential
TVDSS_COMP.M               :  Reference TVD sub-sea log.
TVD_COMP.M                 :  Reference TVD log.
~Parameter Information Block
#MNEM.UNIT            Value   Description
#---------- ----------------  -----------
SET  .                  LCS:  
~Other Information Block
#        DEPTH        BS_COMP      DRHO_COMP        GR_COMP       LLS_COMP      NPHI_COMP       PEF_COMP      RHOB_COMP        RT_COMP       RXO_COMP        SP_COMP     TVDSS_COMP       TVD_COMP 
~A
# ...
     2510.0280         9.8750       0.060541       111.5895         1.9644       0.383948         3.5530         2.4305         2.5317         1.9870        68.5414      2275.0776      2293.0776
     2510.1804         9.8750       0.055758       111.4303         1.9244       0.366291         3.5853         2.4403         2.4940         1.9869        68.5155      2275.2168      2293.2168
     2510.3328         9.8750       0.045487       111.9559         1.8960       0.356670         3.6105         2.4421         2.4660         2.0137        68.4826      2275.3560      2293.3560
     2510.4852         9.8750       0.034919       113.0099         1.8791       0.351718         3.6288         2.4311         2.4437         2.0445        68.4199      2275.4953      2293.4953
     2510.6376         9.8750       0.027206       114.2907         1.9004       0.347240         3.6563         2.4082         2.4615         2.0474        68.1401      2275.6345      2293.6345
     2510.7900         9.8750       0.019447       116.6270         1.9882       0.341203         3.6748         2.3819         2.5666         2.0246        67.4061      2275.7737      2293.7737
     2510.9424         9.8750       0.010706       121.8530         2.1935       0.334072         3.6093         2.3600         2.8327         2.0405        65.8194      2275.9129      2293.9129
     2511.0948         9.8750       0.006054       130.4033         2.5280       0.327564         3.4640         2.3437         3.2706         2.1758        63.3925      2276.0521      2294.0521
     2511.2472         9.8750       0.010181       142.1426         2.9878       0.323777         3.3011         2.3308         3.8527         2.5720        60.1488      2276.1914      2294.1914
     2511.3996         9.8750       0.018931       154.1058         3.4316       0.323378         3.1666         2.3170         4.3906         3.2507        56.4900      2276.3306      2294.3306
     2511.5520         9.8750       0.024888       161.8810         3.6901       0.326150         3.0641         2.2994         4.6746         4.1351        52.7183      2276.4698      2294.4698
     2511.7044         9.8750       0.025427       164.0278         3.8014       0.329424         2.9708         2.2789         4.7783         4.8073        49.2358      2276.6090      2294.6090
     2511.8568         9.8750       0.022081       161.0120         3.8406       0.332054         2.8994         2.2578         4.8197         4.9469        46.5549      2276.7483      2294.7483
     2512.0092         9.8750       0.017880       156.7831         3.8738       0.334293         2.8681         2.2391         4.8714         4.7955        44.7663      2276.8875      2294.8875
     2512.1616         9.8750       0.012812       152.9518         3.8950       0.336118         2.8572         2.2249         4.9138         4.5820        43.8277      2277.0267      2295.0267
     2512.3140         9.8750       0.007653       149.3188         3.8879       0.336735         2.8368         2.2142         4.9169         4.4394        43.2704      2277.1659      2295.1659
     2512.4664         9.8750       0.004527       145.8976         3.8479       0.335642         2.8123         2.2061         4.8735         4.4110        42.8998      2277.3052      2295.3052
     2512.6188         9.8750       0.006900       143.4294         3.7902       0.333867         2.7976         2.2001         4.8003         4.4652        42.6912      2277.4444      2295.4444
     2512.7712         9.8750       0.016003       142.1015         3.7328       0.332012         2.7886         2.1973         4.7193         4.5833        42.6870      2277.5836      2295.5836
     2512.9236         9.8750       0.026966       139.9107         3.6971       0.330150         2.7722         2.1976         4.6644         4.7271        42.7713      2277.7228      2295.7228
     2513.0760         9.8750       0.035228       134.8365         3.6994       0.329009         2.7561         2.1997         4.6614         4.8527        42.7205      2277.8621      2295.8621
     2513.2284         9.8750       0.038756       126.9326         3.7403       0.329268         2.7483         2.2019         4.7104         4.9137        42.3668      2278.0013      2296.0013
     2513.3808         9.8750       0.038382       118.0585         3.8039       0.329411         2.7381         2.2044         4.7813         4.8984        41.7990      2278.1405      2296.1405
     2513.5332         9.8750       0.036825       110.5007         3.8669       0.325724         2.7174         2.2110         4.8341         4.8532        41.2729      2278.2797      2296.2797
     2513.6856         9.8750       0.036772       104.9923         3.9222       0.315833         2.7005         2.2273         4.8638         4.8756        40.9699      2278.4190      2296.4190
     2513.8380         9.8750       0.038206       101.3119         3.9875       0.298144         2.7492         2.2626         4.9005         5.0775        40.9260      2278.5582      2296.5582
     2513.9904         9.8750       0.037770        98.6598         4.0847       0.273552         2.9067         2.3197         4.9739         5.4525        40.9978      2278.6974      2296.6974
     2514.1428         9.8750       0.031871        96.3163         4.2311       0.243051         3.1565         2.3973         5.1061         5.9176        41.1416      2278.8366      2296.8366
     2514.2952         9.8750       0.023221        93.7751         4.4225       0.211845         3.4683         2.4778         5.2935         6.3709        41.4817      2278.9759      2296.9759
     2514.4476         9.8750       0.015401        91.0900         4.6817       0.189299         3.8425         2.5330         5.5669         6.7774        42.4550      2279.1151      2297.1151
     2514.6000         9.8750       0.007427        88.2421         5.0230       0.181848         4.2067         2.5511         5.9463         7.0486        44.2925      2279.2543      2297.2543
     2514.7524         9.8750    -999.250000        85.0223         5.4977       0.200972         4.4171         2.5318         6.4924         7.1966        47.2931      2279.3935      2297.3935
     2514.9048         9.8750    -999.250000        81.5049         6.0808       0.242253         4.4210         2.4992         7.1749         7.5787        50.9535      2279.5328      2297.5328
     2515.0572         9.8750    -999.250000        78.5803         6.6899       0.297489         4.2132         2.4693         7.8948         8.7666        54.7626      2279.6720      2297.6720
     2515.2096         9.8750       0.018450        77.1810         7.0669       0.352457         3.9275         2.4535         8.3273        10.8539        58.1188      2279.8112      2297.8112
     2515.3620         9.8750       0.037951        77.6022         6.7294       0.395238         3.6787         2.4502         7.8698        12.9807        60.5752      2279.9504      2297.9504
     2515.5144         9.8750       0.056676        78.8523         5.5934       0.421867         3.5473         2.4533         6.4974        13.1874        62.2055      2280.0897      2298.0897
     2515.6668         9.8750       0.068319        80.8194         4.1335       0.433866         3.5845         2.4628         4.8272        11.5125        63.2241      2280.2289      2298.2289
     2515.8192         9.8750       0.072520        84.2527         2.9918       0.436454         3.7003         2.4777         3.5401         9.1650        64.0921      2280.3681      2298.3681
     2515.9716         9.8750       0.071877        89.9286         2.3092       0.430180         3.7576         2.4954         2.7578         6.2679        65.0324      2280.5073      2298.5073
     2516.1240         9.8750       0.068616        96.9316         1.9420       0.417131         3.8841         2.5079         2.3350         3.9623        65.9489      2280.6466      2298.6466
     2516.2764         9.8750       0.064583       103.4198         1.7756       0.401943         3.9266         2.5071         2.1513         2.6665        66.6066      2280.7858      2298.7858
