~Version Information Block
VERS .                 2.00:  CWLS LOG ASCII STANDARD - VERSION 2.00
WRAP .                   NO:  One line per depth step
~Well Information Block
#MNEM.UNIT        Data Type   Information
#---------- ----------------  -----------
STRT .M              0.0000:  START DEPTH
STOP .M           2950.4637:  STOP DEPTH
STEP .M              0.1524:  STEP
NULL .              -999.25:  NULL VALUE
COMP .                     :  COMPANY
WELL .               GABO15:  WELL
FLD  .                     :  FIELD
LOC  .   6.656416, 5.257802:  LOCATION
CTRY .                     :  COUNTRY
STAT .                     :  STATE
CNTY .                     :  COUNTY
API  .                     :  API NUMBER
UWI  .                     :  UNIQUE WELL ID
SRVC .                     :  SERVICE COMPANY
DATE .                     :  LOG DATE
~Curve Information Block
#MNEM.UNIT         API CODE   Curve Description
#---------- ----------------  -----------------
DEPTH.M                    :  Reference Depth.
BS_COMP.INCHES             :  Bit Size
CALI_COMP.INCHES          0:  Caliper
DRHO_COMP.G/C3            0:  Density Correction
DT_COMP.US/F              0:  Compressional Sonic
ECART_COMP.                :  Neutron Density Seperation
GR_COMP.GAPI               :  Gamma Ray
NPHI_COMP.V/V             0:  Neutron Porosity
PEF_COMP.B/E              0:  Photo Electric Factor
RHOB_COMP.G/C3            0:  Bulk Density
RT_COMP.OHMM              0:  True or Deep Resistivity
RXO_COMP.OHMM             0:  Invaded Zone Resistivity
SP_COMP.MV                 :  Values changed using TEXT_EDIT
TVDSS_COMP.M               :  Reference TVD sub-sea log.
TVD_COMP.M                 :  Reference TVD log.
~Parameter Information Block
#MNEM.UNIT            Value   Description
#---------- ----------------  -----------
SET  .                  LCS:  
MFST .DEGF               80:  Mud filtrate sample temperature
RMFS .OHMM              1.9:  Resistivity of Filtrate sample
SP_SH.MV                  0:  Shale baseline value for SP
~Other Information Block
COMMENT:
$$MUX      Data from LAS tape
$$MUX      fevsbd 09/10/97 ng95603  ASCII:      GABO15.fod
$$MUX
$$MUX
#        DEPTH        BS_COMP      CALI_COMP      DRHO_COMP        DT_COMP     ECART_COMP        GR_COMP      NPHI_COMP       PEF_COMP      RHOB_COMP        RT_COMP       RXO_COMP        SP_COMP     TVDSS_COMP       TVD_COMP 
~A
# ...
     1999.9450         9.8750      -999.2500    -999.250000       112.4061      -999.2500      -999.2500    -999.250000      -999.2500      -999.2500        30.3821        13.2305       -48.2219      1871.3918      1891.3918
     2000.0974         9.8750        10.4840       0.013000       112.8754        -2.3533        39.4690       0.284000         1.7140         2.1090        28.3626         5.8494       -48.3040      1871.5196      1891.5196
     2000.2498         9.8750        10.4840       0.013000       114.1880        -2.3533        39.4690       0.284000         1.7140         2.1090        28.7747         5.0429       -47.4681      1871.6475      1891.6475
     2000.4022         9.8750        10.4839       0.012986       114.2499        -2.3524        39.4658       0.284028         1.7139         2.1090        29.2687         4.5514       -47.1717      1871.7753      1891.7753
     2000.5546         9.8750        10.4611       0.007980       113.8751        -2.0192        38.3167       0.294025         1.6769         2.1090        29.5349         4.4476       -46.6342      1871.9032      1891.9032
     2000.7070         9.8750        10.5083    -999.250000       114.2501        -1.7397        37.1319       0.303011         1.6580         2.1080        29.9945         4.5444       -47.5069      1872.0310      1892.0310
     2000.8594         9.8750        10.6053    -999.250000       114.5939        -1.6465        36.7344       0.307008         1.6580         2.1060        30.3986         4.6392       -47.6660      1872.1589      1892.1589
     2001.0118         9.8750        10.7304    -999.250000       114.4381        -1.5859        36.8669       0.310022         1.6520         2.1040        30.7199         4.7202       -48.8111      1872.2868      1892.2868
     2001.1642         9.8750        10.8692    -999.250000       114.6877        -1.2987        36.8248       0.318019         1.6623         2.1050        30.6889         4.8246       -49.5431      1872.4146      1892.4146
     2001.3166         9.8750        10.9510    -999.250000       113.8116        -0.8457        35.6749       0.324969         1.7557         2.1161        29.8765         4.8199       -50.3359      1872.5425      1892.5425
     2001.4690         9.8750        10.9509    -999.250000       109.6221        -0.5130        33.8577       0.313894         2.0100         2.1512        28.7228         4.6203       -52.5221      1872.6703      1892.6703
     2001.6214         9.8750        10.9120    -999.250000       100.6522        -0.3998        35.9341       0.275858         2.3827         2.2202        27.6338         4.3388       -54.9435      1872.7982      1892.7982
     2001.7738         9.8750        10.8961    -999.250000        89.0618        -0.3395        43.1671       0.224900         2.6359         2.3082        27.1069         4.2049       -55.7569      1872.9260      1892.9260
     2001.9262         9.8750        10.9361       0.008097        85.5330        -0.1589        50.0259       0.188983         2.6095         2.3771        28.5319         4.4106       -56.4040      1873.0539      1893.0539
     2002.0786         9.8750        10.9801       0.043147        91.6583         0.2223        51.0410       0.183044         2.4377         2.4060        32.6533         5.1601       -56.2854      1873.1817      1893.1817
     2002.2310         9.8750        10.9982       0.096075        98.8144         1.0559        46.0268       0.199064         2.3329         2.4210        36.6378         6.2868       -56.6541      1873.3096      1893.3096
     2002.3834         9.8750        11.0725       0.122928       103.0637         1.9605        41.6541       0.222056         2.3059         2.4279        37.4789         8.2801       -56.6000      1873.4374      1893.4374
     2002.5358         9.8750        11.2465       0.096858       105.2192         2.1247        40.9856       0.242031         2.2648         2.4028        34.4473        14.7283       -57.3144      1873.5653      1893.5653
     2002.6882         9.8750        11.4183       0.045897       105.9379         1.4104        41.5707       0.253003         2.1807         2.3488        29.7261        19.9679       -57.5564      1873.6931      1893.6931
     2002.8406         9.8750        11.5144    -999.250000       105.6250         0.3441        41.8182       0.253983         2.0707         2.2939        26.7612        10.6725       -57.8153      1873.8210      1893.8210
     2002.9930         9.8750        11.6558    -999.250000       105.6881        -0.5753        41.1647       0.247983         1.9779         2.2579        25.2833         5.0167       -58.1903      1873.9488      1893.9488
     2003.1454         9.8750        12.3204    -999.250000       106.0940        -1.2946        41.4008       0.242000         1.9572         2.2319        24.3127         4.2082       -58.5641      1874.0767      1894.0767
     2003.2978         9.8750        13.1918       0.005053       106.0308        -1.7531        42.4068       0.242028         2.0414         2.2090        23.4256         3.4257       -58.4269      1874.2045      1894.2045
     2003.4502         9.8750        13.4676       0.024033       105.3750        -1.6591        42.6867       0.252039         2.1853         2.1970        22.8746         2.9357       -57.3381      1874.3324      1894.3324
     2003.6026         9.8750        13.6717       0.035986       105.4694        -1.3324        42.2249       0.266036         2.2932         2.1900        22.6206         2.7873       -57.2794      1874.4602      1894.4602
     2003.7550         9.8750        14.2815       0.030964       106.7192        -0.9797        41.4762       0.279011         2.3561         2.1860        22.0929         2.1274       -56.5104      1874.5881      1894.5881
     2003.9074         9.8750        14.4727       0.017986       107.5002        -0.8661        41.1958       0.283003         2.3899         2.1850        21.8787         1.8559       -57.5909      1874.7159      1894.7159
     2004.0598         9.8750        13.6405       0.012997       108.0312        -0.6724        41.4708       0.284005         2.3657         2.1930        22.1060         1.7548       -57.3876      1874.8437      1894.8437
     2004.2122         9.8750        12.7390       0.011989       108.5311        -0.3458        42.1137       0.286017         2.2546         2.2060        22.4478         1.3857       -58.0992      1874.9716      1894.9716
     2004.3646         9.8750        12.3724       0.007986       108.9063        -0.0262        43.8046       0.292006         2.0937         2.2120        22.8355         1.2936       -58.6547      1875.0994      1895.0994
     2004.5170         9.8750        12.1428       0.002994       109.9379         0.1593        46.5455       0.293967         1.9839         2.2180        23.0822         1.5024       -58.7603      1875.2273      1895.2273
     2004.6694         9.8750        12.0759       0.001003       109.6553        -0.1009        48.8617       0.281964         1.9389         2.2250        23.0242         1.7987       -60.1873      1875.3551      1895.3551
     2004.8218         9.8750        12.0467       0.002000       107.4685        -0.4336        49.8190       0.268986         1.9029         2.2300        23.0964         1.8071       -61.0294      1875.4830      1895.4830
     2004.9742         9.8750        11.9559       0.001997       105.9056        -0.5199        49.4834       0.263978         1.8643         2.2340        23.3877         1.8517       -60.7155      1875.6108      1895.6108
     2005.1266         9.8750        12.2784    -999.250000       104.6874        -0.4864        51.7852       0.255980         1.9698         2.2490        22.9819         2.0773       -60.2798      1875.7387      1895.7387
     2005.2790         9.8750        12.7772    -999.250000       102.7801        -0.3982        56.1861       0.249008         2.2501         2.2651        21.4984         2.0677       -60.1574      1875.8665      1895.8665
