~Version Information Block
VERS .                 2.00:  CWLS LOG ASCII STANDARD - VERSION 2.00
WRAP .                   NO:  One line per depth step
~Well Information Block
#MNEM.UNIT        Data Type   Information
#---------- ----------------  -----------
STRT .M              0.0000:  START DEPTH
STOP .M           2954.7312:  STOP DEPTH
STEP .M              0.1524:  STEP
NULL .              -999.25:  NULL VALUE
COMP .                     :  COMPANY
WELL .               GABO16:  WELL
FLD  .                     :  FIELD
LOC  .   6.656374, 5.257763:  LOCATION
CTRY .                     :  COUNTRY
STAT .                     :  STATE
CNTY .                     :  COUNTY
API  .                     :  API NUMBER
UWI  .                     :  UNIQUE WELL ID
SRVC .                     :  SERVICE COMPANY
DATE .                     :  LOG DATE
~Curve Information Block
#MNEM.UNIT         API CODE   Curve Description
#---------- ----------------  -----------------
DEPTH.M                    :  Reference Depth
BS_COMP.INCHES             :  Bit Size
CALI_COMP.INCHES           :  Caliper
DRHO_COMP.G/C3             :  Density Neutron Seperation
DT_COMP.US/F              0:  Compressional Sonic
GR_COMP.GAPI              0:  Gamma Ray
NPHI_COMP.V/V              :  Neutron Porosity
PEF_COMP.B/E              0:  Photo Electric Factor
RHOB_COMP.G/C3            0:  Bulk Density
RT_COMP.OHMM              0:  True or Deep Resistivity
RXO_COMP.OHMM             0:  Invaded Zone Resistivity
SP_COMP.MV                0:  Spontanuous Potential
TVDSS_COMP.M               :  Reference TVD sub-sea log.
TVD_COMP.M                 :  Reference TVD log.
~Parameter Information Block
#MNEM.UNIT            Value   Description
#---------- ----------------  -----------
SET  .                  LCS:  
~Other Information Block
COMMENT:
COMMENT:
$$MUX      Data from LAS tape
$$MUX      fevsbd 09/10/97 ng95603  ASCII:      GABO-16
$$MUX
$$MUX

#        DEPTH        BS_COMP      CALI_COMP      DRHO_COMP        DT_COMP        GR_COMP      NPHI_COMP       PEF_COMP      RHOB_COMP        RT_COMP       RXO_COMP        SP_COMP     TVDSS_COMP       TVD_COMP 
~A
# ...
     2938.7292        12.2500        12.3299       0.002102        91.1789       119.5994       0.267056         2.1900         2.3543         2.4464      -999.2500        62.4428      2673.2454      2693.7454
     2938.8816        12.2500        12.3187      -0.000469        91.2857       118.4101       0.264698         2.1965         2.3570         2.4684      -999.2500        62.5107      2673.3772      2693.8772
     2939.0340        12.2500        12.3420       0.001014        91.8092       119.8948       0.265584         2.2955         2.3522         2.5027      -999.2500        63.1368      2673.5090      2694.0090
     2939.1864        12.2500        12.3962       0.016992        92.4715       123.0172       0.270874         2.4442         2.3319         2.5410      -999.2500        63.9007      2673.6409      2694.1409
     2939.3388        12.2500        12.6697       0.057124        92.7598       125.1688       0.273708         2.5709         2.3028         2.5826      -999.2500        65.1808      2673.7727      2694.2727
     2939.4912        12.2500        13.1555       0.100273        92.7910       124.7640       0.266259         2.6136         2.2931         2.6253      -999.2500        67.2087      2673.9045      2694.4045
     2939.6436        12.2500        13.3042       0.114785        92.8023       124.4112       0.251911         2.5943         2.3173         2.6679      -999.2500        70.2464      2674.0364      2694.5364
     2939.7960        12.2500        13.1541       0.102110        92.6922       126.5611       0.242070         2.5930         2.3439         2.7109      -999.2500        74.2399      2674.1682      2694.6682
     2939.9484        12.2500        13.2309       0.078050        92.4210       128.7575       0.241592         2.6633         2.3439         2.7478      -999.2500        77.9504      2674.3000      2694.8000
     2940.1008        12.2500        13.3613       0.060374        92.1802       128.6077       0.247845         2.7727         2.3363         2.7682      -999.2500        80.4675      2674.4319      2694.9319
     2940.2532        12.2500        13.2438       0.064681        91.8926       128.2155       0.256512         2.8648         2.3492         2.7621      -999.2500        82.2431      2674.5637      2695.0637
     2940.4056        12.2500        13.0848       0.091756        91.4370       129.4640       0.261985         2.9305         2.3852         2.7285      -999.2500        83.6291      2674.6956      2695.1956
     2940.5580        12.2500        13.0232       0.113215        91.0944       130.0454       0.260102         2.9565         2.4312         2.6875      -999.2500        84.5891      2674.8274      2695.3274
     2940.7104        12.2500        12.9390       0.098747        91.1424       128.4737       0.254119         2.9888         2.4743         2.6555      -999.2500        85.3629      2674.9592      2695.4592
     2940.8628        12.2500        12.7934       0.064924        91.1809       126.7476       0.250331         3.0476         2.4925         2.6060      -999.2500        85.5504      2675.0913      2695.5913
     2941.0152        12.2500        12.6987       0.046644        90.9917       126.3702       0.253217         3.0475         2.4669         2.5258      -999.2500        84.6886      2675.2229      2695.7229
     2941.1676        12.2500        12.7754       0.046420        90.8963       126.4953       0.260526         2.8894         2.4178         2.4465      -999.2500        83.1335      2675.3550      2695.8550
     2941.3200        12.2500        12.8459       0.036217        90.8750       126.8623       0.267893         2.5960         2.3800         2.3746      -999.2500        80.7225      2675.4868      2695.9868
     2941.4724        12.2500        12.6852       0.015700        90.8750       128.4641       0.273261         2.3677         2.3568         2.3041      -999.2500        76.9361      2675.6187      2696.1187
     2941.6248        12.2500        12.4898       0.007691        90.8750       130.0572       0.276638         2.3275         2.3280         2.2474      -999.2500        72.9501      2675.7505      2696.2505
     2941.7772        12.2500        12.4829       0.011191        90.8756       130.4644       0.279268         2.4392         2.3000         2.2101      -999.2500        71.1226      2675.8823      2696.3823
     2941.9296        12.2500        12.5441       0.013645        90.9550       129.9119       0.283572         2.5977         2.2961         2.1924      -999.2500        71.3650      2676.0142      2696.5142
     2942.0820        12.2500        12.4993       0.009191        91.3224       129.1301       0.287302         2.6888         2.3133         2.1885      -999.2500        71.2683      2676.1460      2696.6460
     2942.2344        12.2500        12.3715       0.003546        91.8975       128.5925       0.286413         2.6871         2.3273         2.1796      -999.2500        70.0482      2676.2778      2696.7778
     2942.3868        12.2500        12.2920       0.003745        92.2484      -999.2500       0.280793         2.6236         2.3249         2.1818      -999.2500        68.9886      2676.4097      2696.9097
     2942.5392        12.2500        12.3328       0.009588        92.3023      -999.2500       0.274742         2.5493         2.3190         2.2144      -999.2500        69.3475      2676.5415      2697.0415
     2942.6916        12.2500        12.4707       0.013924        92.1922      -999.2500       0.271674         2.5189         2.3296         2.2466      -999.2500        71.1281      2676.6733      2697.1733
     2942.8440        12.2500        12.6144       0.008747        91.9215      -999.2500       0.269418         2.5255         2.3584         2.2722      -999.2500        72.5179      2676.8052      2697.3052
     2942.9964        12.2500        12.6576      -0.003038        91.7495      -999.2500       0.264430         2.5282         2.3841         2.3021      -999.2500        72.3283      2676.9370      2697.4370
     2943.1488        12.2500        12.6213      -0.007021        91.6807      -999.2500       0.261007         2.5295         2.3850         2.3328      -999.2500        71.9128      2677.0688      2697.5688
     2943.3012        12.2500        12.6154      -0.001118        91.4632      -999.2500       0.261949         2.5830         2.3664         2.3589      -999.2500        72.3621      2677.2007      2697.7007
     2943.4536        12.2500        12.6285       0.002550        91.4017      -999.2500       0.264954         2.7017         2.3543         2.3784      -999.2500        73.0953      2677.3325      2697.8325
     2943.6060        12.2500        12.5960      -0.000086        91.6624      -999.2500       0.268582         2.7764         2.3582         2.3905      -999.2500        74.1181      2677.4646      2697.9646
     2943.7584        12.2500        12.5963      -0.000947        91.7634      -999.2500       0.273575         2.7316         2.3666         2.3979      -999.2500        76.0413      2677.5962      2698.0962
     2943.9108        12.2500        12.6761       0.004860        91.6167      -999.2500       0.277621         2.6435         2.3719         2.4052      -999.2500        77.9388      2677.7283      2698.2283
     2944.0632        12.2500        12.7926       0.018320        91.5213      -999.2500       0.278041         2.6303         2.3791         2.4164      -999.2500        78.6057      2677.8601      2698.3601
     2944.2156        12.2500        12.8548       0.046922        91.5000      -999.2500       0.273790         2.7089         2.3854         2.4285      -999.2500        78.5811      2677.9919      2698.4919
     2944.3680        12.2500        12.8296       0.078228        91.5000      -999.2500       0.267420         2.8075         2.3818         2.4346      -999.2500        78.4458      2678.1238      2698.6238
     2944.5204        12.2500        12.7424       0.087915        91.5000      -999.2500       0.262742         2.8891         2.3799         2.4360      -999.2500        77.7101      2678.2556      2698.7556
