~Version Information Block
VERS .                 2.00:  CWLS LOG ASCII STANDARD - VERSION 2.00
WRAP .                   NO:  One line per depth step
~Well Information Block
#MNEM.UNIT        Data Type   Information
#---------- ----------------  -----------
STRT .M              0.0000:  START DEPTH
STOP .M           2799.8928:  STOP DEPTH
STEP .M              0.1524:  STEP
NULL .              -999.25:  NULL VALUE
COMP .                     :  COMPANY
WELL .              GABO-18:  WELL
FLD  .                     :  FIELD
LOC  .   6.635779, 5.238893:  LOCATION
CTRY .                     :  COUNTRY
STAT .                     :  STATE
CNTY .                     :  COUNTY
API  .                     :  API NUMBER
UWI  .                     :  UNIQUE WELL ID
SRVC .                     :  SERVICE COMPANY
DATE .                     :  LOG DATE
~Curve Information Block
#MNEM.UNIT         API CODE   Curve Description
#---------- ----------------  -----------------
DEPTH.M                    :  Reference Depth
BS_COMP.INCHES             :  Bit Size
CALI_COMP.INCHES          0:  Caliper
DRHO_COMP.G/C3            0:  Density Correction Log
ECART_COMP.                :  Neutron Density Seperation
GR   .GAPI                0:  Gamma Ray
GR_COMP.GAPI              0:  Gamma Ray Composite
NPHI .V/V                  :  Neutron Porosity
NPHI_COMP.V/V              :  Neutron Porosity Composite
PEF_COMP.B/E              0:  Photo Electric Factor
RHOB_COMP.G/C3            0:  Bulk Density
RT   .OHMM                0:  True or Deep Resistivity
RT_COMP.OHMM              0:  True or Deep Resistivity Composite
RXO  .OHMM                0:  Invaded Zone Resistivity
RXO_COMP.OHMM             0:  Invaded Zone Resistivity composite
SP_COMP.MV                0:  Spontaneous Potential
TVDSS_COMP.M               :  Reference tvdss log.
TVD_COMP.M                 :  Reference tvd log.
~Parameter Information Block
#MNEM.UNIT            Value   Description
#---------- ----------------  -----------
SET  .                  LCS:  
~Other Information Block
#        DEPTH        BS_COMP      CALI_COMP      DRHO_COMP     ECART_COMP             GR        GR_COMP           NPHI      NPHI_COMP       PEF_COMP      RHOB_COMP             RT        RT_COMP            RXO       RXO_COMP        SP_COMP     TVDSS_COMP       TVD_COMP 
~A
# ...
     2346.0456        12.2500        12.6877       0.010855        -3.1785        25.7493        25.7493         0.2019       0.201881         1.6264         2.2046         4.6747         4.6747         7.4695         7.4695       -29.1662      2161.8931      2179.9931
     2346.1980        12.2500        12.7319       0.007047        -3.1219        26.1057        26.1057         0.2004       0.200378         1.6043         2.2099         4.8034         4.8034         7.9205         7.9205       -29.1640      2162.0183      2180.1183
     2346.3504        12.2500        12.7756       0.003237        -2.9795        29.6146        29.6146         0.2037       0.203711         1.5912         2.2115         4.8343         4.8343         8.1322         8.1322       -29.0579      2162.1436      2180.2436
     2346.5028        12.2500        12.7573    -999.250000        -2.9484        33.5819        33.5819         0.2081       0.208059         1.5891         2.2058         4.7801         4.7801         8.0944         8.0944       -28.4540      2162.2688      2180.3688
     2346.6552        12.2500        12.7703    -999.250000        -2.9503        38.1419        38.1419         0.2140       0.213986         1.6148         2.1958         4.7228         4.7228         7.8640         7.8640       -27.7518      2162.3940      2180.4940
     2346.8076        12.2500        12.7947    -999.250000        -2.9014        43.1439        43.1439         0.2222       0.222239         1.6815         2.1845         4.7313         4.7313         7.5063         7.5063       -27.3184      2162.5193      2180.6193
     2346.9600        12.2500        12.7915    -999.250000        -2.5830        43.7100        43.7100         0.2373       0.237278         1.7699         2.1754         4.7564         4.7564         7.1969         7.1969       -27.3395      2162.6445      2180.7445
     2347.1124        12.2500        12.6894    -999.250000        -2.3358        42.3581        42.3581         0.2498       0.249842         1.8177         2.1668         4.8356         4.8356         6.8988         6.8988       -27.3388      2162.7698      2180.8698
     2347.2648        12.2500        12.5708    -999.250000        -2.1470        40.5583        40.5583         0.2590       0.258977         1.8354         2.1610         4.8728         4.8728         6.7148         6.7148       -27.8268      2162.8951      2180.9951
     2347.4172        12.2500        12.5342    -999.250000        -2.0171        39.1422        39.1422         0.2637       0.263668         1.8328         2.1597         4.8276         4.8276         6.7013         6.7013       -28.8447      2163.0203      2181.1203
     2347.5696        12.2500        12.5574    -999.250000        -1.9994        38.3151        38.3151         0.2605       0.260541         1.8396         2.1658         4.7804         4.7804         6.8613         6.8613       -28.8040      2163.1456      2181.2456
     2347.7220        12.2500        12.6030    -999.250000        -2.1986        39.0474        39.0474         0.2535       0.253475         1.8294         2.1676         4.7172         4.7172         6.9925         6.9925       -28.4050      2163.2710      2181.3710
     2347.8744        12.2500        12.6221       0.003627        -2.4102        39.7541        39.7541         0.2491       0.249134         1.8007         2.1643         4.6744         4.6744         7.0295         7.0295       -27.8577      2163.3963      2181.4963
     2348.0268        12.2500        12.6154       0.003271        -2.5181        39.9903        39.9903         0.2501       0.250063         1.7635         2.1573         4.6708         4.6708         6.9573         6.9573       -27.4335      2163.5216      2181.6216
     2348.1792        12.2500        12.6037       0.004793        -2.3440        40.0270        40.0270         0.2576       0.257572         1.7551         2.1535         4.7317         4.7317         6.8012         6.8012       -27.8681      2163.6469      2181.7469
     2348.3316        12.2500        12.6023       0.006317        -2.2331        39.4818        39.4818         0.2584       0.258437         1.8041         2.1576         4.7005         4.7005         6.6555         6.6555       -28.4573      2163.7723      2181.8723
     2348.4840        12.2500        12.5924       0.009104        -2.1710        37.8878        37.8878         0.2568       0.256849         1.8447         2.1634         4.6686         4.6686         6.5022         6.5022       -28.8787      2163.8976      2181.9976
     2348.6364        12.2500        12.5779       0.012547        -2.1662        35.5120        35.5120         0.2542       0.254215         1.8624         2.1680         4.6684         4.6684         6.3685         6.3685       -29.2786      2164.0230      2182.1230
     2348.7888        12.2500        12.5680       0.014834        -2.2434        33.1148        33.1148         0.2519       0.251898         1.8518         2.1680         4.7324         4.7324         6.3205         6.3205       -30.1014      2164.1483      2182.2483
     2348.9412        12.2500        12.5670       0.014293        -2.0451        33.8753        33.8753         0.2549       0.254876         1.8369         2.1730         4.7610         4.7610         6.3467         6.3467       -29.7707      2164.2737      2182.3737
     2349.0936        12.2500        12.5746       0.015876        -1.6044        36.5702        36.5702         0.2632       0.263209         1.8380         2.1811         4.8170         4.8170         6.3641         6.3641       -29.6176      2164.3991      2182.4991
     2349.2460        12.2500        12.5723       0.016843        -1.0935        40.4213        40.4213         0.2755       0.275505         1.8622         2.1862         4.8761         4.8761         6.3448         6.3448       -29.3744      2164.5245      2182.6245
     2349.3984        12.2500        12.5673       0.013037        -0.7385        44.5062        44.5062         0.2898       0.289814         1.9155         2.1801         4.8998         4.8998         6.2618         6.2618       -28.5419      2164.6499      2182.7499
     2349.5508        12.2500        12.5676       0.010736        -0.8879        45.7439        45.7439         0.2917       0.291707         1.9870         2.1694         4.8487         4.8487         6.1697         6.1697       -29.2483      2164.7753      2182.8753
     2349.7032        12.2500        12.5912       0.009484        -1.0173        47.1687        47.1687         0.2952       0.295154         2.0503         2.1572         4.6588         4.6588         6.0589         6.0589       -28.8124      2164.9007      2183.0007
     2349.8556        12.2500        12.6391       0.008721        -1.0459        49.4971        49.4971         0.3034       0.303406         2.1036         2.1420         4.4178         4.4178         5.8318         5.8318       -27.5157      2165.0262      2183.1262
     2350.0080        12.2500        12.6819       0.008248        -0.9113        53.4835        53.4835         0.3183       0.318254         2.1492         2.1240         4.2136         4.2136         5.4306         5.4306       -25.6916      2165.1516      2183.2516
     2350.1604        12.2500        12.7141       0.012816        -0.6201        62.1840        62.1840         0.3270       0.326997         2.2452         2.1240         4.2219         4.2219         5.2339         5.2339       -24.1294      2165.2771      2183.3771
     2350.3128        12.2500        12.7339       0.025296         0.0661        69.1884        69.1884         0.3259       0.325885         2.4530         2.1602         4.4505         4.4505         5.3542         5.3542       -22.9017      2165.4025      2183.5025
     2350.4652        12.2500        12.7776       0.036608         0.9021        74.0039        74.0039         0.3203       0.320335         2.6649         2.2112         4.8672         4.8672         5.7178         5.7178       -22.5573      2165.5280      2183.6280
