~Version Information Block
VERS .                 2.00:  CWLS LOG ASCII STANDARD - VERSION 2.00
WRAP .                   NO:  One line per depth step
~Well Information Block
#MNEM.UNIT        Data Type   Information
#---------- ----------------  -----------
STRT .M              0.0000:  START DEPTH
STOP .M           2799.8928:  STOP DEPTH
STEP .M              0.1524:  STEP
NULL .              -999.25:  NULL VALUE
COMP .                     :  COMPANY
WELL .              GABO-18:  WELL
FLD  .                     :  FIELD
LOC  .   6.635779, 5.238893:  LOCATION
CTRY .                     :  COUNTRY
STAT .                     :  STATE
CNTY .                     :  COUNTY
API  .                     :  API NUMBER
UWI  .                     :  UNIQUE WELL ID
SRVC .                     :  SERVICE COMPANY
DATE .                     :  LOG DATE
~Curve Information Block
#MNEM.UNIT         API CODE   Curve Description
#---------- ----------------  -----------------
DEPTH.M                    :  Reference Depth
BS_COMP.INCHES             :  Bit Size
CALI_COMP.INCHES          0:  Caliper
DRHO_COMP.G/C3            0:  Density Correction Log
ECART_COMP.                :  Neutron Density Seperation
GR   .GAPI                0:  Gamma Ray
GR_COMP.GAPI              0:  Gamma Ray Composite
NPHI .V/V                  :  Neutron Porosity
NPHI_COMP.V/V              :  Neutron Porosity Composite
PEF_COMP.B/E              0:  Photo Electric Factor
RHOB_COMP.G/C3            0:  Bulk Density
RT   .OHMM                0:  True or Deep Resistivity
RT_COMP.OHMM              0:  True or Deep Resistivity Composite
RXO  .OHMM                0:  Invaded Zone Resistivity
RXO_COMP.OHMM             0:  Invaded Zone Resistivity composite
SP_COMP.MV                0:  Spontaneous Potential
TVDSS_COMP.M               :  Reference tvdss log.
TVD_COMP.M                 :  Reference tvd log.
~Parameter Information Block
#MNEM.UNIT            Value   Description
#---------- ----------------  -----------
SET  .                  LCS:  
~Other Information Block
#        DEPTH        BS_COMP      CALI_COMP      DRHO_COMP     ECART_COMP             GR        GR_COMP           NPHI      NPHI_COMP       PEF_COMP      RHOB_COMP             RT        RT_COMP            RXO       RXO_COMP        SP_COMP     TVDSS_COMP       TVD_COMP 
~A
# ...
     2730.0936      -999.2500        12.8049       0.074682         8.1172       126.4741       126.4741         0.3802       0.380250         3.3850         2.4721         2.9043         2.9043         2.3972         2.3972         0.7782      2499.6825      2517.7825
     2730.2460      -999.2500        12.8359       0.057923         7.8936       125.8122       125.8122         0.3883       0.388329         3.5199         2.4475         2.7949         2.7949         2.3875         2.3875         0.7777      2499.8245      2517.9245
     2730.3984      -999.2500        12.8519       0.041159         7.1152       123.4088       123.4088         0.3760       0.375955         3.6518         2.4292         2.7544         2.7544         2.3662         2.3662        -0.1467      2499.9666      2518.0666
     2730.5508      -999.2500        12.8414       0.037229         8.0398       120.2592       120.2592         0.3979       0.397905         3.7088         2.4388         2.7442         2.7442         2.3751         2.3751         0.3521      2500.1087      2518.2087
     2730.7032      -999.2500        12.8176       0.035484         8.9387       116.3978       116.3978         0.4214       0.421412         3.6691         2.4446         2.7725         2.7725         2.3966         2.3966         0.9286      2500.2508      2518.3508
     2730.8556      -999.2500        12.8046       0.033046         9.4681       114.6309       114.6309         0.4358       0.435842         3.5425         2.4470         2.8089         2.8089         2.4285         2.4285         1.4272      2500.3929      2518.4929
     2731.0080      -999.2500        12.8480       0.028004         9.3867       117.0535       117.0535         0.4330       0.433004         3.3573         2.4477         2.8249         2.8249         2.4654         2.4654         1.7017      2500.5349      2518.6349
     2731.1604      -999.2500        12.8588       0.028001         9.2076       119.4013       119.4013         0.4203       0.420321         3.3976         2.4598         2.7861         2.7861         2.4556         2.4556         1.3367      2500.6770      2518.7770
     2731.3128      -999.2500        12.9290       0.024610         8.7381       120.2105       120.2105         0.4060       0.406042         3.5368         2.4602         2.7286         2.7286         2.4033         2.4033         0.9683      2500.8191      2518.9191
     2731.4652      -999.2500        12.9846       0.023638         8.4880       119.5806       119.5806         0.4014       0.401410         3.6552         2.4554         2.6760         2.6760         2.3438         2.3438         0.6102      2500.9612      2519.0612
     2731.6176      -999.2500        12.9223       0.027801         8.6571       117.9483       117.9483         0.4098       0.409819         3.6959         2.4498         2.6441         2.6441         2.3022         2.3022         0.2397      2501.1032      2519.2032
     2731.7700      -999.2500        12.9569       0.034657         8.7807       117.8058       117.8058         0.4144       0.414442         3.7035         2.4483         2.6532         2.6532         2.3204         2.3204        -0.3384      2501.2453      2519.3453
     2731.9224      -999.2500        12.9539       0.045193         9.1338       117.0628       117.0628         0.4197       0.419697         3.6431         2.4572         2.6329         2.6329         2.3240         2.3240        -0.1882      2501.3874      2519.4874
     2732.0748      -999.2500        12.9285       0.052495         9.5644       114.9088       114.9088         0.4280       0.428010         3.5568         2.4649         2.6081         2.6081         2.3022         2.3022        -0.2195      2501.5294      2519.6294
     2732.2272      -999.2500        12.8965       0.053487         9.9431       112.2272       112.2272         0.4382       0.438233         3.4891         2.4668         2.5896         2.5896         2.2549         2.2549        -0.5540      2501.6715      2519.7715
     2732.3796      -999.2500        12.8889       0.045113         9.9833       113.0715       113.0715         0.4435       0.443550         3.5499         2.4599         2.5873         2.5873         2.1932         2.1932        -0.5902      2501.8136      2519.9136
     2732.5320      -999.2500        12.8443       0.044002         9.6053       114.7538       114.7538         0.4308       0.430773         3.6261         2.4623         2.5586         2.5586         2.1758         2.1758        -0.0413      2501.9556      2520.0556
     2732.6844      -999.2500        12.8008       0.041884         9.7148       115.8679       115.8679         0.4366       0.436597         3.6301         2.4581         2.5313         2.5313         2.1533         2.1533         0.5098      2502.0977      2520.1977
     2732.8368      -999.2500        12.7772       0.039558        10.4345       116.5994       116.5994         0.4640       0.464030         3.5638         2.4483         2.5033         2.5033         2.1164         2.1164         0.9518      2502.2398      2520.3398
     2732.9892      -999.2500        12.7711       0.041841        11.6814       117.8712       117.8712         0.5056       0.505553         3.4640         2.4415         2.4591         2.4591         2.0646         2.0646         1.2705      2502.3818      2520.4818
     2733.1416      -999.2500        12.7768       0.041999        10.9828       117.5852       117.5852         0.4879       0.487863         3.6598         2.4360         2.4525         2.4525         2.0185         2.0185         1.5012      2502.5239      2520.6239
     2733.2940      -999.2500        12.7963       0.038231        10.3170       116.9007       116.9007         0.4728       0.472783         3.7773         2.4279         2.4256         2.4256         1.9822         1.9822         1.4489      2502.6659      2520.7659
     2733.4464      -999.2500        12.8008       0.034703         9.8859       116.7410       116.7410         0.4651       0.465092         3.8017         2.4191         2.4033         2.4033         1.9582         1.9582         1.1369      2502.8080      2520.9080
     2733.5988      -999.2500        12.6934       0.036984         9.7396       118.1644       118.1644         0.4644       0.464365         3.7553         2.4130         2.4238         2.4238         1.9491         1.9491         0.6228      2502.9500      2521.0500
     2733.7512      -999.2500        12.7028       0.034729         9.7690       118.3533       118.3533         0.4689       0.468907         3.7520         2.4069         2.3990         2.3990         1.9210         1.9210         1.7344      2503.0921      2521.1921
     2733.9036      -999.2500        12.7742       0.039192        10.5169       116.1979       116.1979         0.4919       0.491883         3.6752         2.4060         2.3739         2.3739         1.8835         1.8835         1.7415      2503.2341      2521.3341
     2734.0560      -999.2500        12.8581       0.044558        11.0840       113.2369       113.2369         0.5087       0.508657         3.5992         2.4064         2.3724         2.3724         1.8503         1.8503         1.3765      2503.3762      2521.4762
     2734.2084      -999.2500        12.8750       0.046259        10.7537       110.9873       110.9873         0.4994       0.499404         3.5815         2.4053         2.4060         2.4060         1.8348         1.8348         1.2322      2503.5182      2521.6182
     2734.3608      -999.2500        12.9204       0.050829        10.1507       112.4320       112.4320         0.4777       0.477655         3.5373         2.4114         2.3535         2.3535         1.8652         1.8652         0.5486      2503.6603      2521.7603
     2734.5132      -999.2500        12.9284       0.052565         9.3604       115.5670       115.5670         0.4493       0.449271         3.4098         2.4192         2.3655         2.3655         1.8872         1.8872         0.1450      2503.8023      2521.9023
