~Version Information Block
VERS .                 2.00:  CWLS LOG ASCII STANDARD - VERSION 2.00
WRAP .                   NO:  One line per depth step
~Well Information Block
#MNEM.UNIT        Data Type   Information
#---------- ----------------  -----------
STRT .M              0.0000:  START DEPTH
STOP .M           2757.2208:  STOP DEPTH
STEP .M              0.1524:  STEP
NULL .              -999.25:  NULL VALUE
COMP .                     :  COMPANY
WELL .               GABO14:  WELL
FLD  .                     :  FIELD
LOC  .   6.639036, 5.241653:  LOCATION
CTRY .                     :  COUNTRY
STAT .                     :  STATE
CNTY .                     :  COUNTY
API  .                     :  API NUMBER
UWI  .                     :  UNIQUE WELL ID
SRVC .                     :  SERVICE COMPANY
DATE .                     :  LOG DATE
~Curve Information Block
#MNEM.UNIT         API CODE   Curve Description
#---------- ----------------  -----------------
DEPTH.M                    :  Reference Depth
BS_COMP.INCHES             :  Bit Size
CALI_COMP.INCHES          0:  Caliper
DRHO_COMP.G/C3            0:  Density Correction 
DT_COMP.US/F              0:  Compressional Sonic
ECART_COMP.                :  Neutron Density Seperation
GR_COMP.GAPI              0:  Gamma Ray
NPHI_COMP.V/V             0:  Neutron Porosity
PEF_COMP.B/E              0:  Photo Electric Factor
RHOB_COMP.G/C3            0:  Bulk Density
RT_COMP.OHMM              0:  True or Deep Resistivity
RXO_COMP.OHMM             0:  Invaded Zone Resistivity
SP_COMP.MV                0:  Spontaneous Potential
TVDSS_COMP.M               :  Reference TVD sub-sea log.
TVD_COMP.M                 :  Reference TVD log.
~Parameter Information Block
#MNEM.UNIT            Value   Description
#---------- ----------------  -----------
SET  .                  LCS:  
~Other Information Block
#        DEPTH        BS_COMP      CALI_COMP      DRHO_COMP        DT_COMP     ECART_COMP        GR_COMP      NPHI_COMP       PEF_COMP      RHOB_COMP        RT_COMP       RXO_COMP        SP_COMP     TVDSS_COMP       TVD_COMP 
~A
# ...
     2633.7768        12.2500        13.9790       0.061995       103.2177         7.5154        99.1445       0.409979         3.1336         2.3925         1.5550         1.7799        90.7171      2545.5753      2561.5753
     2633.9292        12.2500        14.0015       0.057011       102.8914         7.5474        96.2977       0.408742         3.0902         2.3961         1.5550         1.7651        90.2582      2545.7269      2561.7269
     2634.0816        12.2500        13.9037       0.054975       103.0003         7.6169        92.5355       0.411698         3.0285         2.3947         1.5550         1.7792        89.8060      2545.8785      2561.8785
     2634.2340        12.2500        13.7326       0.046986       103.0622         7.4007        89.7026       0.408973         2.9692         2.3884         1.5550         1.8160        89.0525      2546.0301      2562.0301
     2634.3864        12.2500        13.7093       0.036009       102.8747         6.8998        89.6012       0.399748         2.9363         2.3787         1.5540         1.8149        87.9472      2546.1817      2562.1817
     2634.5388        12.2500        13.7680       0.028006       102.8120         6.5542        91.3603       0.393907         2.9467         2.3712         1.5490         1.8011        87.0141      2546.3333      2562.3333
     2634.6912        12.2500        13.8141       0.022027       102.5622         6.7377        91.6735       0.398682         2.9784         2.3724         1.5420         1.8313        86.5560      2546.4849      2562.4849
     2634.8436        12.2500        13.8869       0.023036       102.3756         7.2376        92.0574       0.409766         2.9933         2.3789         1.5310         1.9031        86.3026      2546.6365      2562.6365
     2634.9960        12.2500        13.9256       0.033015       102.5172         7.6900        94.6385       0.421169         2.9882         2.3826         1.5189         1.9197        86.1918      2546.7881      2562.7881
     2635.1484        12.2500        13.8498       0.045987       102.8151         8.0014        97.9617       0.429901         2.9830         2.3836         1.5039         1.8356        86.3993      2546.9396      2562.9396
     2635.3008        12.2500        13.7273       0.054978       103.3291         8.1721       100.1156       0.434094         2.9902         2.3851         1.4889         1.7467        86.7262      2547.0912      2563.0912
     2635.4532        12.2500        13.6762       0.057977       103.5944         8.1568       101.7405       0.432761         3.0144         2.3866         1.4729         1.6848        87.0209      2547.2428      2563.2428
     2635.6056        12.2500        13.6882       0.055011       103.6888         8.0737       103.3440       0.427679         3.0352         2.3909         1.4569         1.6450        87.2336      2547.3944      2563.3944
     2635.7580        12.2500        13.7482       0.055048       103.8913         8.0576       103.3365       0.423353         3.0175         2.3973         1.4400         1.6371        87.1366      2547.5460      2563.5460
     2635.9104        12.2500        13.8376       0.067011       103.9536         8.0151       101.4918       0.421458         2.9731         2.3983         1.4280         1.6521        86.5503      2547.6976      2563.6976
     2636.0628        12.2500        13.8127       0.080943       104.0948         7.9152        99.4648       0.421551         2.9548         2.3932         1.4230         1.6679        85.8782      2547.8492      2563.8492
     2636.2152        12.2500        13.7111       0.079943       104.2971         7.8856        98.4166       0.422544         2.9857         2.3900         1.4230         1.6469        85.1918      2548.0008      2564.0008
     2636.3676        12.2500        13.6480       0.065008       104.3124         8.0420        97.0911       0.422994         3.0349         2.3971         1.4290         1.6151        84.4072      2548.1524      2564.1524
     2636.5200        12.2500        13.5961       0.053061       104.1544         8.3188        96.3811       0.421912         3.0668         2.4128         1.4390         1.6362        84.2022      2548.3040      2564.3040
     2636.6724        12.2500        13.5800       0.057013       103.7478         8.5467        97.9002       0.419919         3.0858         2.4275         1.4490         1.6761        84.5084      2548.4556      2564.4556
     2636.8248        12.2500        13.5588       0.063978       103.2159         8.7093       100.1582       0.417928         3.1123         2.4389         1.4570         1.7123        84.6114      2548.6072      2564.6072
     2636.9772        12.2500        13.4770       0.064992       102.4498         8.8866       100.6928       0.416991         3.1500         2.4493         1.4620         1.7814        84.7146      2548.7588      2564.7588
     2637.1296        12.2500        13.4023       0.064008       101.6711         8.9038        98.1549       0.413772         3.2016         2.4556         1.4660         1.8702        85.1029      2548.9104      2564.9104
     2637.2820        12.2500        13.3914       0.065000       101.4381         8.5809        93.9272       0.405155         3.2538         2.4538         1.4690         1.9219        85.8103      2549.0620      2565.0620
     2637.4344        12.2500        13.4842       0.066004       101.4536         8.2630        91.2811       0.399522         3.2575         2.4473         1.4730         1.9059        86.6141      2549.2137      2565.2137
     2637.5868        12.2500        13.6206       0.068013       101.6105         8.3604        91.3139       0.406959         3.1912         2.4398         1.4750         1.8739        86.8837      2549.3653      2565.3653
     2637.7392        12.2500        13.6344       0.073013       101.9856         8.6419        91.5476       0.422400         3.0989         2.4281         1.4730         1.8449        86.5616      2549.5169      2565.5169
     2637.8916        12.2500        13.5231       0.081010       102.3759         8.6682        91.7131       0.431532         3.0366         2.4142         1.4690         1.8110        85.9572      2549.6685      2565.6685
     2638.0440        12.2500        13.4382       0.091019       102.5943         8.3841        94.2082       0.429848         3.0029         2.4028         1.4670         1.8210        85.5162      2549.8201      2565.8201
     2638.1964        12.2500        13.4082       0.104979       102.6568         8.0483        99.2038       0.423880         2.9642         2.3959         1.4731         1.8168        85.5649      2549.9717      2565.9717
     2638.3488        12.2500        13.4242       0.112934       102.8593         7.8863       103.0969       0.418920         2.9265         2.3961         1.4891         1.7580        85.7795      2550.1233      2566.1233
     2638.5012        12.2500        13.5059       0.103969       102.9200         7.8873       103.8147       0.412847         2.9282         2.4063         1.5172         1.7573        85.9103      2550.2749      2566.2749
     2638.6536        12.2500        13.5585       0.088012       102.4341         7.8438       104.2368       0.402299         2.9888         2.4217         1.5562         1.8332        85.9855      2550.4265      2566.4265
     2638.8060        12.2500        13.4787       0.076009       101.4777         7.5949       104.9353       0.389863         3.0676         2.4300         1.5992         1.8782        85.8539      2550.5781      2566.5781
     2638.9584        12.2500        13.3382       0.066985        99.9312         7.2502       104.2579       0.381979         3.0906         2.4259         1.6442         1.9253        85.5859      2550.7297      2566.7297
     2639.1108        12.2500        13.2732       0.054993        98.2460         7.0467       102.2625       0.379995         3.0497         2.4190         1.6892         2.0101        85.5639      2550.8813      2566.8813
