~Version Information Block
VERS .                 2.00:  CWLS LOG ASCII STANDARD - VERSION 2.00
WRAP .                   NO:  One line per depth step
~Well Information Block
#MNEM.UNIT        Data Type   Information
#---------- ----------------  -----------
STRT .M              0.0000:  START DEPTH
STOP .M           2757.2208:  STOP DEPTH
STEP .M              0.1524:  STEP
NULL .              -999.25:  NULL VALUE
COMP .                     :  COMPANY
WELL .               GABO14:  WELL
FLD  .                     :  FIELD
LOC  .   6.639036, 5.241653:  LOCATION
CTRY .                     :  COUNTRY
STAT .                     :  STATE
CNTY .                     :  COUNTY
API  .                     :  API NUMBER
UWI  .                     :  UNIQUE WELL ID
SRVC .                     :  SERVICE COMPANY
DATE .                     :  LOG DATE
~Curve Information Block
#MNEM.UNIT         API CODE   Curve Description
#---------- ----------------  -----------------
DEPTH.M                    :  Reference Depth
BS_COMP.INCHES             :  Bit Size
CALI_COMP.INCHES          0:  Caliper
DRHO_COMP.G/C3            0:  Density Correction 
DT_COMP.US/F              0:  Compressional Sonic
ECART_COMP.                :  Neutron Density Seperation
GR_COMP.GAPI              0:  Gamma Ray
NPHI_COMP.V/V             0:  Neutron Porosity
PEF_COMP.B/E              0:  Photo Electric Factor
RHOB_COMP.G/C3            0:  Bulk Density
RT_COMP.OHMM              0:  True or Deep Resistivity
RXO_COMP.OHMM             0:  Invaded Zone Resistivity
SP_COMP.MV                0:  Spontaneous Potential
TVDSS_COMP.M               :  Reference TVD sub-sea log.
TVD_COMP.M                 :  Reference TVD log.
~Parameter Information Block
#MNEM.UNIT            Value   Description
#---------- ----------------  -----------
SET  .                  LCS:  
~Other Information Block
#        DEPTH        BS_COMP      CALI_COMP      DRHO_COMP        DT_COMP     ECART_COMP        GR_COMP      NPHI_COMP       PEF_COMP      RHOB_COMP        RT_COMP       RXO_COMP        SP_COMP     TVDSS_COMP       TVD_COMP 
~A
# ...
     2293.6200        12.2500        12.4849    -999.250000        94.4389         1.5566       138.6809       0.371355         1.6051         2.1589         8.2599         3.2715        65.1275      2208.2445      2224.2445
     2293.7724        12.2500        12.5435    -999.250000        94.6429         1.5655       168.5096       0.372523         1.5145         2.1574         8.2321         3.8429        65.6985      2208.3944      2224.3944
     2293.9248        12.2500        12.6912    -999.250000        95.0649         0.4390       156.3841       0.336575         1.5112         2.1610         8.2442         4.7091        66.4708      2208.5444      2224.5444
     2294.0772        12.2500        12.8515    -999.250000        95.4873        -1.0154       112.9103       0.292879         1.5532         2.1611         8.2872         5.1832        66.8751      2208.6943      2224.6943
     2294.2296        12.2500        12.8543    -999.250000        96.2350        -1.6955        70.0155       0.271579         1.5955         2.1626         8.3402         5.0066        66.8908      2208.8443      2224.8443
     2294.3820        12.2500        12.6950    -999.250000        96.4514        -1.7242        47.3163       0.267014         1.6238         2.1688         8.3749         4.6882        66.8363      2208.9942      2224.9942
     2294.5344        12.2500        12.5943    -999.250000        96.0937        -1.5840        39.3212       0.266602         1.6660         2.1765         8.3628         4.5186        66.9071      2209.1442      2225.1442
     2294.6868        12.2500        12.6042    -999.250000        96.0325        -1.6481        36.0114       0.261731         1.7396         2.1814         8.3198         4.6512        67.1565      2209.2942      2225.2942
     2294.8392        12.2500        12.6501    -999.250000        96.3765        -2.0016        36.8046       0.248664         1.8243         2.1855         8.2657         5.1380        67.2565      2209.4441      2225.4441
     2294.9916        12.2500        12.7132    -999.250000        96.7036        -2.3418        43.9044       0.235758         1.8523         2.1900         8.2049         5.5807        66.9279      2209.5941      2225.5941
     2295.1440        12.2500        12.7951    -999.250000        96.8276        -2.3757        55.6452       0.235083         1.7915         2.1894         8.1721         5.7323        66.4679      2209.7441      2225.7441
     2295.2964        12.2500        12.8951       0.001004        96.7330        -1.7595        65.3005       0.257275         1.6851         2.1832         8.1882         5.7945        66.2247      2209.8941      2225.8941
     2295.4488        12.2500        12.9921       0.002001        96.4992        -0.8342        66.0428       0.289356         1.5981         2.1760         8.2251         5.9124        65.7070      2210.0440      2226.0440
     2295.6012        12.2500        13.0759       0.002997        96.3278        -0.4494        56.3290       0.300683         1.5821         2.1764         8.2582         5.9945        64.8032      2210.1940      2226.1940
     2295.7536        12.2500        13.1269       0.002991        96.2809        -1.1928        42.4594       0.276045         1.6250         2.1803         8.2992         6.1107        64.4073      2210.3440      2226.3440
     2295.9060        12.2500        13.1389    -999.250000        96.2493        -2.4423        35.1986       0.236876         1.6846         2.1831         8.3422         6.2658        64.6892      2210.4940      2226.4940
     2296.0584        12.2500        13.1209    -999.250000        96.0923        -3.0952        39.3816       0.216566         1.7189         2.1843         8.3792         6.2195        64.9614      2210.6440      2226.6440
     2296.2108        12.2500        13.0840    -999.250000        95.7010        -2.8312        47.8056       0.222456         1.7072         2.1877         8.4343         6.0979        65.0564      2210.7940      2226.7940
     2296.3632        12.2500        13.0550    -999.250000        95.2483        -2.2195        53.3144       0.236734         1.6782         2.1945         8.5063         6.0697        65.3771      2210.9440      2226.9440
     2296.5156        12.2500        13.0309    -999.250000        94.8737        -1.9089        55.4070       0.243284         1.6502         2.1991         8.5804         6.0071        65.8529      2211.0939      2227.0939
     2296.6680        12.2500        12.9879    -999.250000        94.5779        -2.1457        55.6203       0.235452         1.6326         2.2003         8.6625         6.0291        66.0472      2211.2439      2227.2439
     2296.8204        12.2500        12.9320    -999.250000        94.5635        -2.5999        54.5622       0.219677         1.6292         2.2039         8.7665         6.2861        66.0868      2211.3939      2227.3939
     2296.9728        12.2500        12.8770    -999.250000        94.6726        -2.8735        51.0161       0.205964         1.6441         2.2131         8.8835         6.5228        66.2587      2211.5439      2227.5439
     2297.1252        12.2500        12.8219    -999.250000        94.7969        -3.0265        47.6942       0.194956         1.6858         2.2237         8.9924         6.4793        66.4060      2211.6939      2227.6939
     2297.2776        12.2500        12.7540    -999.250000        94.7792        -3.2322        49.0979       0.184157         1.7212         2.2315         9.0803         6.3241        66.4138      2211.8440      2227.8440
     2297.4300        12.2500        12.6991    -999.250000        94.3736        -3.3943        55.3514       0.176523         1.7108         2.2361         9.1463         6.3492        66.3678      2211.9940      2227.9940
     2297.5824        12.2500        12.6759    -999.250000        94.0619        -3.1749        62.3788       0.182553         1.6689         2.2370         9.2053         6.3905        66.5405      2212.1440      2228.1440
     2297.7348        12.2500        12.6289    -999.250000        93.8113        -2.6409        63.1898       0.198515         1.6399         2.2371         9.2714         6.2784        66.8831      2212.2940      2228.2940
     2297.8872        12.2500        12.5530    -999.250000        93.4206        -2.1111        56.6310       0.213926         1.6485         2.2379         9.3634         6.1497        66.9124      2212.4440      2228.4440
     2298.0396        12.2500        12.4900    -999.250000        93.1073        -1.8344        47.4356       0.223064         1.6612         2.2365         9.4613         6.0749        66.5616      2212.5940      2228.5940
     2298.1920        12.2500        12.4411    -999.250000        92.7321        -1.9348        39.9469       0.223213         1.6426         2.2312         9.5253         6.0547        66.2413      2212.7440      2228.7440
     2298.3444        12.2500        12.4121    -999.250000        92.2955        -2.3583        36.8024       0.214951         1.6203         2.2238         9.5844         5.9975        66.0938      2212.8941      2228.8941
     2298.4968        12.2500        12.4060    -999.250000        91.9533        -2.7370        36.2180       0.204745         1.6240         2.2219         9.6683         5.8742        66.0472      2213.0441      2229.0441
     2298.6492        12.2500        12.4061    -999.250000        92.0184        -2.8359        35.9787       0.202793         1.6435         2.2202         9.7301         5.6876        66.0942      2213.1941      2229.1941
     2298.8016        12.2500        12.4241       0.004008        92.5502        -2.7240        34.8004       0.211050         1.6472         2.2121         9.7560         5.3826        66.1335      2213.3441      2229.3441
     2298.9540        12.2500        12.4650       0.007995        93.2691        -2.5563        33.7676       0.221846         1.6297         2.2024         9.7517         5.0710        66.2429      2213.4942      2229.4942
