~Version Information Block
VERS .                 2.00:  CWLS LOG ASCII STANDARD - VERSION 2.00
WRAP .                   NO:  One line per depth step
~Well Information Block
#MNEM.UNIT        Data Type   Information
#---------- ----------------  -----------
STRT .M           1084.4784:  START DEPTH
STOP .M           2540.6604:  STOP DEPTH
STEP .M              0.1524:  STEP
NULL .              -999.25:  NULL VALUE
COMP .                     :  COMPANY
WELL .               GABA17:  WELL
FLD  .                     :  FIELD
LOC  .   6.675366, 5.270403:  LOCATION
CTRY .                     :  COUNTRY
STAT .                     :  STATE
CNTY .                     :  COUNTY
API  .                     :  API NUMBER
UWI  .                     :  UNIQUE WELL ID
SRVC .                     :  SERVICE COMPANY
DATE .                     :  LOG DATE
~Curve Information Block
#MNEM.UNIT         API CODE   Curve Description
#---------- ----------------  -----------------
DEPTH.M                    :  Reference Depth
BS_COMP.INCHES             :  Bit Size
DRHO_COMP.G/C3             :  Density Correction
GR_COMP.GAPI               :  Gamma Ray
LLS_COMP.OHMM             0:  Resistivity
NPHI_COMP.V/V              :  Neutron Porosity
PEF_COMP.B/E               :  Photo Electric Factor
RHOB_COMP.G/C3             :  Bulk Density
RT_COMP.OHMM               :  True Resistivity
RXO_COMP.OHMM              :  Invaded Zone Resistivity
TVDSS_COMP.M               :  Reference TVD sub-sea log.
TVD_COMP.M                 :  Reference TVD log.
~Parameter Information Block
#MNEM.UNIT            Value   Description
#---------- ----------------  -----------
SET  .                  LCS:  
DEPTH_BOTTOM.M         2530:  Downhole depth
DEPTH_TOP.M            1787:  Downhole depth
UNDER_SAMPLING_RATE.      1:  Full sampling rate if equal to 1
~Other Information Block
#        DEPTH        BS_COMP      DRHO_COMP        GR_COMP       LLS_COMP      NPHI_COMP       PEF_COMP      RHOB_COMP        RT_COMP       RXO_COMP     TVDSS_COMP       TVD_COMP 
~A
# ...
     2030.8824         9.8750       0.123606        95.7919         4.7671       0.456186         2.3189         2.3106         4.6443         5.2213      2009.7009      2027.7009
     2031.0348         9.8750       0.141703        96.8436         5.5874       0.414515         2.2872         2.2932         5.1223         5.8074      2009.8525      2027.8525
     2031.1872         9.8750       0.150620        96.8817         6.9092       0.373411         2.2606         2.2637         6.6327         7.5909      2010.0042      2028.0042
     2031.3396         9.8750       0.141054        93.6430         8.8494       0.338996         2.2285         2.2302         8.1431         9.3743      2010.1558      2028.1558
     2031.4920         9.8750       0.114329        85.9076        11.1422       0.313248         2.1963         2.2020         9.6534        11.1578      2010.3074      2028.3074
     2031.6444         9.8750       0.080975        74.5423        13.2234       0.295057         2.1712         2.1842        10.7107        12.4481      2010.4591      2028.4591
     2031.7968         9.8750       0.056565        62.4100        14.6112       0.282834         2.1363         2.1787        11.7429        13.7111      2010.6107      2028.6107
     2031.9492         9.8750       0.045608        52.5589        15.2892       0.275016         2.0764         2.1803        12.7751        14.9741      2010.7623      2028.7623
     2032.1016         9.8750       0.041794        46.2261        15.6067       0.270046         2.0036         2.1813        13.2140        15.6685      2010.9140      2028.9140
     2032.2540         9.8750       0.038739        42.1809        15.8994       0.265457         1.9466         2.1771        13.3563        16.0787      2011.0656      2029.0656
     2032.4064         9.8750       0.036974        38.7536        16.3453       0.259029         1.9139         2.1693        13.4986        16.4888      2011.2172      2029.2172
     2032.5588         9.8750       0.039717        35.3122        16.9891       0.250449         1.8871         2.1627        13.8028        17.0279      2011.3689      2029.3689
     2032.7112         9.8750       0.044868        31.7978        17.7726       0.241177         1.8546         2.1607        14.3648        17.7722      2011.5205      2029.5205
     2032.8636         9.8750       0.046563        28.3942        18.5777       0.233225         1.8234         2.1625        14.9269        18.5165      2011.6721      2029.6721
     2033.0160         9.8750       0.043488        25.5587        19.2537       0.227844         1.7978         2.1661        15.4645        19.2147      2011.8238      2029.8238
     2033.1684         9.8750       0.039281        23.7611        19.7039       0.225260         1.7751         2.1691        15.7949        19.5190      2011.9754      2029.9754
     2033.3208         9.8750       0.035874        22.9432        19.9809       0.224799         1.7560         2.1702        16.1252        19.8234      2012.1270      2030.1270
     2033.4732         9.8750       0.032076        22.6285        20.1546       0.225389         1.7419         2.1693        16.4555        20.1278      2012.2787      2030.2787
     2033.6256         9.8750       0.028214        22.3420        20.3067       0.226176         1.7280         2.1680        16.6030        20.2228      2012.4303      2030.4303
     2033.7780         9.8750       0.026835        22.1035        20.4188       0.227333         1.7142         2.1680        16.7114        20.2731      2012.5819      2030.5819
     2033.9304         9.8750       0.029530        21.9405        20.4200       0.229232         1.7062         2.1711        16.8199        20.3234      2012.7336      2030.7336
     2034.0828         9.8750       0.034344        21.8056        20.2589       0.231403         1.7051         2.1759        16.8335        20.2308      2012.8852      2030.8852
     2034.2352         9.8750       0.038974        21.5324        19.9744       0.232337         1.7029         2.1791        16.7674        20.0179      2013.0368      2031.0368
     2034.3876         9.8750       0.043264        21.3054        19.7020       0.230850         1.6905         2.1812        16.7013        19.8051      2013.1885      2031.1885
     2034.5400         9.8750       0.047220        21.7160        19.6289       0.226436         1.6734         2.1868        16.7221        19.6817      2013.3401      2031.3401
     2034.6924         9.8750       0.048078        23.3454        19.8186       0.220771         1.6668         2.1996        16.9871        19.8098      2013.4918      2031.4918
     2034.8448         9.8750       0.043661        26.0540        20.1102       0.217943         1.6732         2.2164        17.2521        19.9378      2013.6434      2031.6434
     2034.9972         9.8750       0.035596        29.2266        20.0857       0.224744         1.6808         2.2289        17.5171        20.0658      2013.7950      2031.7950
     2035.1496         9.8750       0.031056        32.4629        19.1318       0.244169         1.6798         2.2333        16.2056        18.3123      2013.9467      2031.9467
     2035.3020         9.8750       0.036336        36.0662        17.1953       0.273280         1.6834         2.2335        14.8647        16.5235      2014.0983      2032.0983
     2035.4544         9.8750       0.049204        40.8804        14.8458       0.304088         1.7342         2.2384        13.5238        14.7346      2014.2499      2032.2499
     2035.6068         9.8750       0.061496        47.5500        12.6854       0.328821         1.8603         2.2527        12.1012        13.0650      2014.4016      2032.4016
     2035.7592         9.8750       0.067243        56.2063        10.9680       0.345229         2.0463         2.2724        10.6438        11.4461      2014.5532      2032.5532
     2035.9116         9.8750       0.066884        66.4778         9.5855       0.356327         2.2620         2.2888         9.1865         9.8273      2014.7049      2032.7049
     2036.0640         9.8750       0.066332        77.2903         8.3835       0.367166         2.4806         2.2948         8.0581         8.5806      2014.8565      2032.8565
     2036.2164         9.8750       0.070225        87.4208         7.3865       0.377955         2.6819         2.2908         7.3843         7.8478      2015.0081      2033.0081
     2036.3688         9.8750       0.077436        95.3247         6.7122       0.384627         2.8280         2.2813         6.7104         7.1151      2015.1598      2033.1598
     2036.5212         9.8750       0.082391        99.1749         6.4474       0.384334         2.8822         2.2681         6.1795         6.5465      2015.3114      2033.3114
     2036.6736         9.8750       0.081898        96.7233         6.6359       0.378026         2.8353         2.2497         6.5332         6.9945      2015.4631      2033.4631
     2036.8260         9.8750       0.080479        89.4106         7.1788       0.372139         2.7260         2.2305         6.8869         7.4424      2015.6147      2033.6147
     2036.9784         9.8750       0.082638        80.8454         7.8922       0.370133         2.6313         2.2203         7.2405         7.8903      2015.7663      2033.7663
     2037.1308         9.8750       0.085205        75.6932         8.3269       0.370149         2.6028         2.2245         7.2999         7.9576      2015.9180      2033.9180
     2037.2832         9.8750       0.083986        75.3128         8.2300       0.369122         2.5968         2.2352         7.3107         7.9620      2016.0696      2034.0696
     2037.4356         9.8750       0.079874        77.9686         7.9844       0.366304         2.5885         2.2361         7.3215         7.9664      2016.2213      2034.2213
     2037.5880         9.8750       0.077772        80.5044         7.9463       0.362561         2.5891         2.2208         7.5463         8.2650      2016.3729      2034.3729
