~Version Section
VERS.   2.0:  CWLS Log ASCII Standard - Version 2.0
WRAP.    NO:  One data record per depth sample.
~Well Information Section
#MNEM.UNIT      VALUE                    DESCRIPTION
#---------      ----------               -----------
STRT.M                   0               :START DEPTH
STOP.M          3180.43555               :STOP DEPTH
STEP.M               .1524               :STEP
NULL.          -999.250000               :NULL VALUE
COMP.                                    :Oil Company
WELL.         GABO-21                    :Non unique well name
FLD.              FNG00147               :Field name
LOC.  6.610748, 5.225944                 :Location
PROV.                                    :Province
SRVC.                                    :Service
DATE.           2013-08-16               :Date unloaded
UWI.          			               :Unique well id
~Curve Information Section
#MNEM.UNIT                   API CODE                 Curve Description
#---------                   ----------               -----------------
BOREHOLE-DEPTH.M                                   :DEPTH
GR.GAPI                                   :
RT.OHMM                                   :
RXO.OHMM                                   :
TVD.M                                   :
TVDSS.M                                   :
~A
# ...
2580.4368    120.4200     2.2466       2.1234       2403.5339    2384.2141    
2580.5891    113.8777     2.1609       2.1091       2403.6072    2384.2871    
2580.7417    107.4589     2.1127       1.9586       2403.6804    2384.3604    
2580.8940    103.9780     2.0026       1.8405       2403.7537    2384.4336    
2581.0464    98.3399      1.8192       1.7126       2403.8267    2384.5066    
2581.1987    95.0489      1.8298       1.6753       2403.8999    2384.5798    
2581.3513    90.3876      1.7032       1.6221       2403.9729    2384.6531    
2581.5037    91.5557      1.5026       1.4220       2404.0461    2384.7261    
2581.6560    95.0889      1.4695       1.4507       2404.1191    2384.7993    
2581.8083    101.4907     1.4077       1.4643       2404.1921    2384.8723    
2581.9609    103.8031     1.4405       1.4411       2404.2654    2384.9453    
2582.1133    104.4080     1.4576       1.4326       2404.3384    2385.0183    
2582.2656    100.9275     1.4142       1.4262       2404.4114    2385.0913    
2582.4180    96.4856      1.4211       1.4437       2404.4841    2385.1643    
2582.5703    93.0067      1.4223       1.4688       2404.5571    2385.2373    
2582.7229    94.8418      1.4844       1.3950       2404.6301    2385.3101    
2582.8752    98.3906      1.4935       1.5022       2404.7029    2385.3831    
2583.0276    98.3899      1.5277       1.5605       2404.7759    2385.4558    
2583.1799    95.7045      1.6160       1.6674       2404.8489    2385.5288    
2583.3325    92.2833      1.6705       1.6364       2404.9216    2385.6016    
2583.4849    91.4698      1.7127       1.7265       2404.9944    2385.6743    
2583.6372    94.0604      1.8060       1.8591       2405.0671    2385.7473    
2583.7896    95.8668      1.8628       1.8435       2405.1399    2385.8201    
2583.9421    95.6875      1.8771       1.9086       2405.2129    2385.8928    
2584.0945    92.2074      1.9368       1.9944       2405.2854    2385.9656    
2584.2468    89.4949      2.0263       1.9899       2405.3582    2386.0381    
2584.3992    89.4120      1.9814       1.9103       2405.4309    2386.1108    
2584.5515    92.2615      1.9748       1.9641       2405.5037    2386.1836    
2584.7041    92.8404      1.9558       1.9465       2405.5762    2386.2561    
2584.8564    96.3137      1.9777       1.9786       2405.6487    2386.3289    
2585.0088    93.9668      1.9571       2.0237       2405.7214    2386.4014    
2585.1611    96.4043      1.9972       1.9645       2405.7939    2386.4741    
2585.3137    92.2680      1.9433       2.0173       2405.8667    2386.5466    
2585.4661    96.5889      1.9578       1.9832       2405.9392    2386.6191    
2585.6184    94.2873      1.9745       1.9746       2406.0117    2386.6917    
2585.7708    99.5064      1.9514       2.0349       2406.0840    2386.7642    
2585.9233    99.5977      2.0267       1.9544       2406.1565    2386.8367    
2586.0757    103.8191     2.0056       2.0321       2406.2290    2386.9089    
2586.2280    101.8178     2.0038       1.9599       2406.3015    2386.9814    
2586.3804    100.1435     2.0155       2.0915       2406.3738    2387.0540    
2586.5327    95.2074      2.0353       2.1444       2406.4463    2387.1262    
2586.6853    93.5336      2.0296       2.0129       2406.5186    2387.1985    
2586.8376    90.2927      2.0449       2.0591       2406.5911    2387.2710    
2586.9900    88.5518      2.0793       2.0110       2406.6633    2387.3433    
2587.1423    83.6649      2.0538       2.0658       2406.7356    2387.4155    
2587.2949    78.5620      2.0240       2.0831       2406.8079    2387.4878    
2587.4473    76.8223      2.0731       2.1059       2406.8801    2387.5601    
2587.5996    76.7620      2.0441       2.0769       2406.9524    2387.6323    
2587.7520    80.1256      1.9712       2.0250       2407.0244    2387.7046    
2587.9045    83.6616      1.9964       1.9863       2407.0967    2387.7766    
2588.0569    87.0752      1.9171       1.9615       2407.1689    2387.8489    
2588.2092    90.5555      1.9877       1.8398       2407.2410    2387.9209    
2588.3616    93.9792      1.9664       1.8246       2407.3132    2387.9932    
2588.5139    94.0495      1.9176       1.9278       2407.3853    2388.0652    
2588.6665    85.3479      1.9257       1.9006       2407.4575    2388.1375    
2588.8188    73.1690      2.0175       1.8426       2407.5293    2388.2095    
2588.9712    69.4173      1.9944       1.8249       2407.6016    2388.2815    
2589.1235    73.1489      1.7990       1.6576       2407.6736    2388.3535    
2589.2761    78.3676      1.5639       1.5158       2407.7456    2388.4255    
2589.4285    76.4629      1.5244       1.3471       2407.8174    2388.4973    
2589.5808    81.0094      1.4611       1.2843       2407.8894    2388.5693    
2589.7332    89.2753      1.3470       1.2992       2407.9612    2388.6414    
2589.8857    98.3287      1.4500       1.3298       2408.0332    2388.7131    
2590.0381    94.9354      1.4856       1.3930       2408.1050    2388.7852    
2590.1904    82.4078      1.4895       1.4654       2408.1770    2388.8569    
2590.3428    66.7471      1.5218       1.5075       2408.2488    2388.9287    
2590.4951    53.6750      1.5980       1.6319       2408.3208    2389.0007    
2590.6477    45.7557      1.6797       1.6834       2408.3923    2389.0725    
2590.8000    40.5356      1.7081       1.7868       2408.4641    2389.1443    
2590.9524    36.5420      1.8210       1.9219       2408.5359    2389.2161    
2591.1047    31.9950      2.1755       2.0821       2408.6077    2389.2876    
2591.2573    30.2550      2.2744       2.1984       2408.6794    2389.3594    
2591.4097    29.2456      2.2236       2.3019       2408.7512    2389.4312    
2591.5620    28.5731      2.2274       2.2518       2408.8228    2389.5027    
2591.7144    28.5733      2.0973       1.9791       2408.8943    2389.5745    
2591.8669    29.5828      1.6619       1.4943       2408.9661    2389.6460    
2592.0193    30.3913      1.5707       1.3908       2409.0376    2389.7178    
2592.1716    30.3911      1.5620       1.3164       2409.1091    2389.7893    
2592.3240    29.5052      1.5535       1.2728       2409.1809    2389.8608    
2592.4763    32.1761      1.3903       1.2423       2409.2522    2389.9324    
2592.6289    32.1765      1.3923       1.2717       2409.3237    2390.0039    
2592.7812    33.8431      1.3294       1.2289       2409.3953    2390.0752    
2592.9336    31.3751      1.2596       1.2423       2409.4668    2390.1467    
2593.0859    30.6777      1.1873       1.2423       2409.5381    2390.2183    
2593.2385    29.2243      1.2050       1.2834       2409.6096    2390.2898    
2593.3909    28.2124      1.2788       1.3388       2409.6812    2390.3611    
2593.5432    27.1690      1.3601       1.4986       2409.7524    2390.4326    
2593.6956    24.3620      1.3722       1.5581       2409.8237    2390.5039    
2593.8481    23.7927      1.3920       1.6489       2409.8953    2390.5752    
2594.0005    21.4142      1.4555       1.7225       2409.9663    2390.6462    
2594.1528    23.1537      1.4989       1.6502       2410.0378    2390.7178    
2594.3052    22.5003      1.3111       1.4149       2410.1089    2390.7891    
2594.4575    24.8789      1.3111       1.4149       2410.1804    2390.8604    
2594.6101    23.5619      1.3111       1.4149       2410.2515    2390.9314    
2594.7625    24.7847      1.3111       1.4149       2410.3228    2391.0027    
2594.9148    24.7851      1.3111       1.4149       2410.3938    2391.0740    
2595.0671    26.4206      1.3111       1.4149       2410.4651    2391.1450    
2595.2197    28.1602      1.3111       1.4149       2410.5361    2391.2163    
2595.3721    27.4956      1.2453       1.2989       2410.6074    2391.2874    
2595.5244    32.7157      1.2091       1.2272       2410.6785    2391.3584    
2595.6768    36.3680      1.2152       1.2172       2410.7495    2391.4294    
2595.8293    36.5431      1.2241       1.1916       2410.8206    2391.5005    
