~Version Information Block
VERS .                 2.00:  CWLS LOG ASCII STANDARD - VERSION 2.00
WRAP .                   NO:  One line per depth step
~Well Information Block
#MNEM.UNIT        Data Type   Information
#---------- ----------------  -----------
STRT .M            800.1000:  START DEPTH
STOP .M           4245.4068:  STOP DEPTH
STEP .M              0.1524:  STEP
NULL .              -999.25:  NULL VALUE
COMP .                     :  COMPANY
WELL .               GABO51:  WELL
FLD  .                     :  FIELD
LOC  .   6.643728, 5.227344:  LOCATION
CTRY .                     :  COUNTRY
STAT .                     :  STATE
CNTY .                     :  COUNTY
API  .                     :  API NUMBER
UWI  .                     :  UNIQUE WELL ID
SRVC .                     :  SERVICE COMPANY
DATE .                     :  LOG DATE
~Curve Information Block
#MNEM.UNIT         API CODE   Curve Description
#---------- ----------------  -----------------
DEPTH.M                    :  Depth
DRHO_COMP.G/C3             :  Density Correction
DTSM_COMP.US/F             :  Shear Sonic
DT_COMP.US/F               :  Compressional Sonic
GR_COMP.GAPI               :  Gamma Ray
HCAL_COMP.INCHES           :  Caliper
NPHI_COMP.V/V              :  Neutron Porosity
PEF_COMP.B/E               :  Pho Electric Factor
RDEEP_COMP.OHMM            :  Deep Resistivity
RHOB_COMP.G/C3             :  Bulk Density
RSHAL_COMP.OHMM            :  Shallow Resistivity
TVDSS_COMP.M               :  Reference TVD sub-sea log.
TVD_COMP.M                 :  Reference TVD log.
~Parameter Information Block
#MNEM.UNIT            Value   Description
#---------- ----------------  -----------
SET  .                  LCS:  
~Other Information Block
#        DEPTH      DRHO_COMP      DTSM_COMP        DT_COMP        GR_COMP      HCAL_COMP      NPHI_COMP       PEF_COMP     RDEEP_COMP      RHOB_COMP     RSHAL_COMP     TVDSS_COMP       TVD_COMP 
~A
# ...
     3130.6008      -0.005200       173.8892       169.4901        83.8570        12.2704       0.241400         2.2696        65.9065         2.1054        66.5195      2456.6998      2476.4798
     3130.7532      -0.001300       172.9908       169.1927        79.0717        12.2704       0.224800         2.5053        43.5286         2.1240        53.5691      2456.8082      2476.5882
     3130.9056      -0.001900       172.7876       168.6964        71.0961        12.2704       0.182400         2.6207        25.1260         2.0831        24.6882      2456.9167      2476.6967
     3131.0580       0.000800       173.8164       168.9567        67.1083        12.2481       0.173300         2.5842        19.7447         2.0230        15.9599      2457.0250      2476.8050
     3131.2104      -0.003600       175.4478       171.2726        63.8042        12.2481       0.189400         2.4523        29.0980         1.9955        22.3818      2457.1334      2476.9134
     3131.3628      -0.009500       176.3968       171.9670        64.7157        12.2555       0.207100         2.3198        39.4150         2.0182        47.3279      2457.2417      2477.0217
     3131.5152      -0.015500       175.9516       170.4517        61.9812        12.2592       0.197900         2.2809        45.8092         2.0485        47.3019      2457.3500      2477.1300
     3131.6676      -0.014200       174.9126       171.4081        64.2813        12.2704       0.183500         2.3152        44.3482         2.0658        38.1696      2457.4582      2477.2382
     3131.8200      -0.010800       173.9112       170.7997        72.4847        12.2816       0.176200         2.3746        46.9778         2.0501        37.7410      2457.5664      2477.3464
     3131.9724      -0.009000       173.1384       167.8997        78.2955        12.3002       0.196900         2.3545        55.0157         2.0387        38.9878      2457.6747      2477.4547
     3132.1248      -0.007300       171.5948       167.5083        85.7939        12.2853       0.204800         2.2621        58.8979         2.0513        42.9103      2457.7828      2477.5628
     3132.2772      -0.009000       169.4571       166.6085        86.3636        12.2555       0.207300         2.1660        41.5901         2.1027        34.0278      2457.8910      2477.6710
     3132.4296      -0.013400       168.3904       166.3656        91.3768        12.2555       0.201800         2.1868        31.4633         2.1471        28.8365      2457.9991      2477.7791
     3132.5820      -0.015000       169.1430       166.0074        88.4651        12.2629       0.218800         2.3328        23.8453         2.1676        18.1215      2458.1072      2477.8872
     3132.7344      -0.012900       170.7643       165.6850        94.9595        12.2778       0.236600         2.4589        19.4347         2.1629        14.4909      2458.2152      2477.9952
     3132.8868      -0.006700       170.7391       165.3185        97.5801        12.3002       0.240200         2.5007        22.6924         2.1881        16.2014      2458.3233      2478.1033
     3133.0392      -0.004900       169.2908       164.3636       103.7959        12.3374       0.242900         2.5029        25.2411         2.2500        15.5451      2458.4313      2478.2113
     3133.1916      -0.005100       168.3589       164.2300       102.6566        12.3002       0.247600         2.5770        23.6673         2.3148        11.8577      2458.5392      2478.3192
     3133.3440      -0.006600       168.6498       163.6621       101.7451        12.2853       0.264400         2.6912        14.4889         2.3457         9.0867      2458.6472      2478.4272
     3133.4964      -0.008700       169.0116       164.2308       103.1123        12.2704       0.268200         2.8134        12.9515         2.3514         8.7161      2458.7551      2478.5351
     3133.6488      -0.010600       168.5770       164.5073        99.2385        12.3039       0.263700         2.9073        10.2005         2.3497         7.2101      2458.8630      2478.6430
     3133.8012      -0.011300       168.2857       163.4268        96.7319        12.3523       0.277700         2.9823         9.4941         2.3535         6.9072      2458.9708      2478.7508
     3133.9536      -0.011900       168.4201       163.5941        92.1744        12.3374       0.267300         2.9815         8.9869         2.3486         6.7736      2459.0787      2478.8587
     3134.1060      -0.010600       169.4896       163.6899        97.4155        12.3597       0.270800         2.9680         7.9414         2.3519         6.2743      2459.1865      2478.9665
     3134.2584      -0.007900       171.1995       163.6899       104.2517        12.3448       0.254500         2.9685         7.0528         2.3621         5.8727      2459.2942      2479.0742
     3134.4108      -0.004100       172.1453       164.9011       108.1255        12.3002       0.259600         2.9975         6.5611         2.3731         5.8357      2459.4020      2479.1820
     3134.5632      -0.002800       172.6223       165.6122       106.8975        12.3150       0.256900         3.0143         6.3389         2.3654         5.6113      2459.5097      2479.2897
     3134.7156      -0.003300       173.3926       166.1440       103.3014        12.3039       0.258300         2.9595         6.4318         2.3557         5.6320      2459.6174      2479.3974
     3134.8680      -0.004500       173.6696       165.8430       103.1875        12.3225       0.255900         2.8647         6.5148         2.3596         5.6175      2459.7251      2479.5051
     3135.0204      -0.005700       172.9281       165.2282        98.3768        12.3671       0.246100         2.7831         6.3677         2.3729         5.6480      2459.8327      2479.6127
     3135.1728      -0.006800       172.1627       164.1842       101.8590        12.3746       0.259100         2.7544         6.2401         2.3812         5.6673      2459.9403      2479.7203
     3135.3252      -0.008100       172.1221       162.3580        97.9852        12.3225       0.262700         2.8068         5.8657         2.3858         5.4053      2460.0479      2479.8279
     3135.4776      -0.008100       171.8267       161.2521       100.0360        12.3374       0.264600         2.8803         5.5671         2.3931         5.2600      2460.1555      2479.9355
     3135.6300      -0.007700       170.6425       161.0144        95.5988        12.3299       0.258400         2.9606         5.5044         2.4013         5.2271      2460.2630      2480.0430
     3135.7824      -0.006800       169.4034       160.6334        97.9060        12.3225       0.277900         3.0118         5.5860         2.4151         5.1470      2460.3704      2480.1504
     3135.9348      -0.006300       168.9989       160.7232        97.9757        12.4788       0.293100         3.0552         5.4731         2.4295         5.0515      2460.4779      2480.2579
     3136.0872      -0.006800       169.5702       160.7751        99.1087        12.4788       0.299300         3.0765         5.3967         2.4369         5.0041      2460.5854      2480.3654
     3136.2396      -0.007400       170.5815       161.0423        96.9154        12.4267       0.287400         3.0555         5.3257         2.4411         4.9577      2460.6928      2480.4728
     3136.3920      -0.006700       171.4513       161.3340        98.2130        12.4118       0.283800         3.0346         5.2008         2.4479         4.7954      2460.8001      2480.5801
     3136.5444      -0.004800       172.1740       161.8202        94.4531        12.3820       0.280300         3.0355         5.0881         2.4596         4.7447      2460.9075      2480.6875
     3136.6968      -0.003100       172.6299       163.4109        97.0737        12.3671       0.288200         3.0514         5.0392         2.4692         4.7777      2461.0148      2480.7948
     3136.8492      -0.001600       173.0346       165.4122        98.0991        12.4937       0.296200         3.0736         4.9531         2.4760         4.6364      2461.1221      2480.9021
